{
  "type" : "FeatureCollection",
  "areaCode" : 0,
  "features" : [
    {
      "id" : "F27E5B34-CD2E-4C6F-8D16-A87F8B8E41ED",
      "properties" : {
        "name" : "呷米蔬食",
        "address" : "台北市中正區衡陽路9號"
      },
      "type" : "Feature",
      "geometry" : {
        "type" : "Point",
        "coordinates" : [
          121.513701,
          25.042414000000001
        ]
      }
    },
    {
      "id" : "EA03EAE4-471A-4493-9B0E-200C4070FFF9",
      "properties" : {
        "name" : "Kaya Kaya Café",
        "address" : "台北市大安區忠孝東路四段216巷19弄6號"
      },
      "type" : "Feature",
      "geometry" : {
        "type" : "Point",
        "coordinates" : [
          121.553448,
          25.040236
        ]
      }
    },
    {
      "id" : "F4100697-6B02-41B1-A1E9-31F02D8432A2",
      "properties" : {
        "name" : "Missgreen",
        "address" : "台北市大安區敦化南路二段63巷28號"
      },
      "type" : "Feature",
      "geometry" : {
        "type" : "Point",
        "coordinates" : [
          121.550573,
          25.030812000000001
        ]
      }
    },
    {
      "id" : "1D274A62-01B4-4557-BFFD-0D6144DB1906",
      "properties" : {
        "name" : "芽米屋美味蔬食館 Yummy Vegan House",
        "address" : "台北市北投區中央南路一段218號"
      },
      "type" : "Feature",
      "geometry" : {
        "type" : "Point",
        "coordinates" : [
          121.500923,
          25.128112999999999
        ]
      }
    },
    {
      "id" : "59666A5F-1095-40E9-8D03-718DC93DFB76",
      "properties" : {
        "name" : "芽米日子 yummy vegan home ",
        "address" : "台北市北投區大業路735號"
      },
      "type" : "Feature",
      "geometry" : {
        "type" : "Point",
        "coordinates" : [
          121.502583,
          25.137426000000001
        ]
      }
    },
    {
      "id" : "36FC3A93-E7E1-4436-B0E9-87746F5CD667",
      "properties" : {
        "name" : "天贊香養生蔬食府",
        "address" : "台北市萬華區廣州街79號"
      },
      "type" : "Feature",
      "geometry" : {
        "type" : "Point",
        "coordinates" : [
          121.50429200000001,
          25.036764000000002
        ]
      }
    },
    {
      "id" : "ECE7AFBA-3B44-4EBB-A029-0385D6FB2061",
      "properties" : {
        "name" : "新閎蔬食料理餐廳",
        "address" : "台北市中正區博愛路80號"
      },
      "type" : "Feature",
      "geometry" : {
        "type" : "Point",
        "coordinates" : [
          121.51124,
          25.044551999999999
        ]
      }
    },
    {
      "id" : "D1FB6604-B0E5-43FC-ABC6-F33A587816C7",
      "properties" : {
        "name" : "喜悅吧 Joy Bar",
        "address" : "台北市中正區濟南路一段321號"
      },
      "type" : "Feature",
      "geometry" : {
        "type" : "Point",
        "coordinates" : [
          121.5255319,
          25.041947
        ]
      }
    },
    {
      "id" : "39004B8A-4F32-47CB-B458-3F0BE26E4730",
      "properties" : {
        "name" : "Mani mani",
        "address" : "台北市大安區敦化南路一段233巷19號"
      },
      "type" : "Feature",
      "geometry" : {
        "type" : "Point",
        "coordinates" : [
          121.550397,
          25.040503000000001
        ]
      }
    },
    {
      "id" : "DB435055-6215-4FAC-85C3-F9F87ED38A47",
      "properties" : {
        "name" : "Tofunia 豆腐尼亞",
        "address" : "台北市大安區通化街38巷19號"
      },
      "type" : "Feature",
      "geometry" : {
        "type" : "Point",
        "coordinates" : [
          121.55353700000001,
          25.030995999999998
        ]
      }
    },
    {
      "id" : "77623A29-09A5-49FB-BD73-44176D073EEE",
      "properties" : {
        "name" : "寶菇燒 ",
        "address" : "台北市士林區中山北路五段505巷1號"
      },
      "type" : "Feature",
      "geometry" : {
        "type" : "Point",
        "coordinates" : [
          121.527455,
          25.093292999999999
        ]
      }
    },
    {
      "id" : "1D9FF059-4E88-4A34-BE58-286960F63F68",
      "properties" : {
        "name" : "貝多蕾納",
        "address" : "台北市中山區中山北路三段26-1號"
      },
      "type" : "Feature",
      "geometry" : {
        "type" : "Point",
        "coordinates" : [
          121.52201599999999,
          25.06513
        ]
      }
    },
    {
      "id" : "716577CB-4445-497D-891C-B93C47BE5107",
      "properties" : {
        "name" : "Ooh Cha Cha ",
        "address" : "台北市中正區南昌路二段207號"
      },
      "type" : "Feature",
      "geometry" : {
        "type" : "Point",
        "coordinates" : [
          121.523402,
          25.025003999999999
        ]
      }
    },
    {
      "id" : "B873CEFD-F55C-49FB-91CD-4ACDD5E0062A",
      "properties" : {
        "name" : "動物誌 About Animals ",
        "address" : "台北市大安區和平東路三段228號25號"
      },
      "type" : "Feature",
      "geometry" : {
        "type" : "Point",
        "coordinates" : [
          121.5519747,
          25.024155
        ]
      }
    },
    {
      "id" : "D61079A2-EC33-46BF-9470-B560C5FACCAD",
      "properties" : {
        "name" : "蔬食屋",
        "address" : "台北市松山區八德路四段245巷32弄10號"
      },
      "type" : "Feature",
      "geometry" : {
        "type" : "Point",
        "coordinates" : [
          121.563945,
          25.050011999999999
        ]
      }
    },
    {
      "id" : "978B5671-A768-4B4A-B215-6DE191ED680A",
      "properties" : {
        "name" : "詹師傅養身素餐館",
        "address" : "台北市景美街5巷5號"
      },
      "type" : "Feature",
      "geometry" : {
        "type" : "Point",
        "coordinates" : [
          121.541877,
          24.993414999999999
        ]
      }
    },
    {
      "id" : "3F83E83A-3515-4928-ACEF-EA15FE4F8238",
      "properties" : {
        "name" : "靈感咖啡",
        "address" : "台北市大安區新生南路三段84-6號"
      },
      "type" : "Feature",
      "geometry" : {
        "type" : "Point",
        "coordinates" : [
          121.533497,
          25.018816000000001
        ]
      }
    },
    {
      "id" : "BEAC46F0-1591-43E0-9F14-427F0D24BD79",
      "properties" : {
        "name" : "真的咖啡",
        "address" : "台北市文山區萬隆街19巷1號"
      },
      "type" : "Feature",
      "geometry" : {
        "type" : "Point",
        "coordinates" : [
          121.538386,
          25.000105999999999
        ]
      }
    },
    {
      "id" : "66641CDA-139B-4C84-8A98-9F2AA6BE3F6C",
      "properties" : {
        "name" : "Vegan Taipei",
        "address" : "台北市大安區瑞安街130號"
      },
      "type" : "Feature",
      "geometry" : {
        "type" : "Point",
        "coordinates" : [
          121.54223399999999,
          25.029517999999999
        ]
      }
    },
    {
      "id" : "DF8FD06E-16BF-48EA-B0B8-09176B595910",
      "properties" : {
        "name" : "純素天堂",
        "address" : "台北市信義區信義路4段395巷6弄6號"
      },
      "type" : "Feature",
      "geometry" : {
        "type" : "Point",
        "coordinates" : [
          121.55881100000001,
          25.033541
        ]
      }
    },
    {
      "id" : "61C906A4-042D-4D8F-967D-25BF2A3F2BCE",
      "properties" : {
        "name" : "GREEN BAKERY",
        "address" : "台北市松山區延壽街171號"
      },
      "type" : "Feature",
      "geometry" : {
        "type" : "Point",
        "coordinates" : [
          121.562093,
          25.056889999999999
        ]
      }
    },
    {
      "id" : "9810520B-F01C-44B9-8680-FAEF360994D2",
      "properties" : {
        "name" : "蔬河",
        "address" : "台北市中正區忠孝西路一段66號"
      },
      "type" : "Feature",
      "geometry" : {
        "type" : "Point",
        "coordinates" : [
          121.51530200000001,
          25.046225799999998
        ]
      }
    },
    {
      "id" : "1008B05C-6920-4AC7-802A-219F7B83DA0A",
      "properties" : {
        "name" : "綠苗創意蔬食料理",
        "address" : "台北市中山區吉林路26巷20號"
      },
      "type" : "Feature",
      "geometry" : {
        "type" : "Point",
        "coordinates" : [
          121.529293,
          25.051373999999999
        ]
      }
    },
    {
      "id" : "83D43AEF-1D3B-4447-A8B5-E3DFEDE6F23B",
      "properties" : {
        "name" : "太來生活館",
        "address" : "台北市大安區金華街251號"
      },
      "type" : "Feature",
      "geometry" : {
        "type" : "Point",
        "coordinates" : [
          121.53112900000001,
          25.030017000000001
        ]
      }
    },
    {
      "id" : "3F741B3F-B8B5-47FC-9637-2D66FE4274F6",
      "properties" : {
        "name" : "裸得好",
        "address" : "台北市大安區敦化南路二段172巷5弄2號"
      },
      "type" : "Feature",
      "geometry" : {
        "type" : "Point",
        "coordinates" : [
          121.54768900000001,
          25.024113
        ]
      }
    },
    {
      "id" : "6846A35F-1978-4B82-B760-310443DA1F83",
      "properties" : {
        "name" : "稻禾烏龍麵",
        "address" : "台北市信義區菸廠路88號"
      },
      "type" : "Feature",
      "geometry" : {
        "type" : "Point",
        "coordinates" : [
          121.561109,
          25.044737999999999
        ]
      }
    },
    {
      "id" : "44F906E0-03CC-4627-8B2D-0B32DDC86C22",
      "properties" : {
        "name" : "TAIGA針葉林",
        "address" : "台北市文山區木柵路三段125-1號"
      },
      "type" : "Feature",
      "geometry" : {
        "type" : "Point",
        "coordinates" : [
          121.568454,
          24.988980999999999
        ]
      }
    },
    {
      "id" : "49585202-9012-4E33-AD85-DB2353617260",
      "properties" : {
        "name" : "養心茶樓",
        "address" : "台北市中山區松江路128號"
      },
      "type" : "Feature",
      "geometry" : {
        "type" : "Point",
        "coordinates" : [
          121.5327844,
          25.0528321
        ]
      }
    },
    {
      "id" : "707DD504-226F-4F39-8333-F7079EF9E023",
      "properties" : {
        "name" : "好想吃冰",
        "address" : "台北市大同區赤峰街7號"
      },
      "type" : "Feature",
      "geometry" : {
        "type" : "Point",
        "coordinates" : [
          121.51924,
          25.053578999999999
        ]
      }
    },
    {
      "id" : "1D088BF5-203C-4FD7-9308-0E1578C76109",
      "properties" : {
        "name" : "樂芙味",
        "address" : "台北市內湖區江南街71巷8號"
      },
      "type" : "Feature",
      "geometry" : {
        "type" : "Point",
        "coordinates" : [
          121.577535,
          25.076920999999999
        ]
      }
    },
    {
      "id" : "9E6DDAA2-07C9-4D32-AFA1-9A120F1D0837",
      "properties" : {
        "name" : "又丹蔬食創意料理",
        "address" : "台北市中山區錦州街241巷1之4號"
      },
      "type" : "Feature",
      "geometry" : {
        "type" : "Point",
        "coordinates" : [
          121.53382499999999,
          25.060442999999999
        ]
      }
    },
    {
      "id" : "560DA220-317F-4CD0-BA06-458C4D2D08BF",
      "properties" : {
        "name" : "小心上癮",
        "address" : "台北市松山區南京東路五段61-3號"
      },
      "type" : "Feature",
      "geometry" : {
        "type" : "Point",
        "coordinates" : [
          121.5592714,
          25.0517179
        ]
      }
    },
    {
      "id" : "1BB31945-895E-4A58-B474-164E042C4BD0",
      "properties" : {
        "name" : "櫻の田野",
        "address" : "台北市松山區南京東路五段318號"
      },
      "type" : "Feature",
      "geometry" : {
        "type" : "Point",
        "coordinates" : [
          121.568106,
          25.051079999999999
        ]
      }
    },
    {
      "id" : "205A6EB4-C8C2-4870-BAEC-415179FEC9B5",
      "properties" : {
        "name" : "若荷蔬食火鍋",
        "address" : "台北市大安區敦化南路一段160巷58號"
      },
      "type" : "Feature",
      "geometry" : {
        "type" : "Point",
        "coordinates" : [
          121.546623,
          25.043493999999999
        ]
      }
    },
    {
      "id" : "285CF1E8-0A2B-420E-8C0C-F92896F2DC5C",
      "properties" : {
        "name" : "鈺成素食火烤兩吃",
        "address" : "台北市大安區市民大道三段304號"
      },
      "type" : "Feature",
      "geometry" : {
        "type" : "Point",
        "coordinates" : [
          120.587631,
          24.343485000000001
        ]
      }
    },
    {
      "id" : "347B34B8-1E39-4826-BA00-1C061FC88932",
      "properties" : {
        "name" : "有哆創意蔬食洋食館",
        "address" : "台北市松山區南京東路五段33號"
      },
      "type" : "Feature",
      "geometry" : {
        "type" : "Point",
        "coordinates" : [
          121.55833800000001,
          25.051752
        ]
      }
    },
    {
      "id" : "2D8FCA2D-4AA2-4BA6-8B85-607DE4E56F67",
      "properties" : {
        "name" : "卡樂蔬食親子餐廳",
        "address" : "台北市松山區北寧路38號"
      },
      "type" : "Feature",
      "geometry" : {
        "type" : "Point",
        "coordinates" : [
          121.552802,
          25.049624000000001
        ]
      }
    },
    {
      "id" : "C6957C5E-DB39-4134-9B27-F15E1D0C9A5F",
      "properties" : {
        "name" : "上海素食廚坊",
        "address" : "台北市松山區南京東路四段120巷9弄23號"
      },
      "type" : "Feature",
      "geometry" : {
        "type" : "Point",
        "coordinates" : [
          121.555955,
          25.051051000000001
        ]
      }
    },
    {
      "id" : "37362ADC-D575-414A-9368-5D8C569FCCE6",
      "properties" : {
        "name" : "荷湘素食",
        "address" : "台北市松山區民生東路五段184-7號"
      },
      "type" : "Feature",
      "geometry" : {
        "type" : "Point",
        "coordinates" : [
          121.563776,
          25.058171999999999
        ]
      }
    },
    {
      "id" : "0C1DEE59-24BC-423C-9C7A-CE26D4746CF7",
      "properties" : {
        "name" : "食采集思",
        "address" : "台北市松山區民生東路四段105號"
      },
      "type" : "Feature",
      "geometry" : {
        "type" : "Point",
        "coordinates" : [
          121.55263600000001,
          25.058206999999999
        ]
      }
    },
    {
      "id" : "7DC676CD-722C-43A3-98AE-67797FCA682F",
      "properties" : {
        "name" : "Z草食咖啡",
        "address" : "台北市松山區南京東路五段278號"
      },
      "type" : "Feature",
      "geometry" : {
        "type" : "Point",
        "coordinates" : [
          121.56704860000001,
          25.051136899999999
        ]
      }
    },
    {
      "id" : "6E58C8A8-17F2-47F1-955D-23104DE2C7A9",
      "properties" : {
        "name" : "花間蜜",
        "address" : "台北市信義區忠孝東路四段504號"
      },
      "type" : "Feature",
      "geometry" : {
        "type" : "Point",
        "coordinates" : [
          121.56194499999999,
          25.041025399999999
        ]
      }
    },
    {
      "id" : "E69915DC-76EE-44A6-B3F0-77C347C1F337",
      "properties" : {
        "name" : "蔬漫小姐",
        "address" : "台北市信義區永吉路120巷82號"
      },
      "type" : "Feature",
      "geometry" : {
        "type" : "Point",
        "coordinates" : [
          121.570104,
          25.042603
        ]
      }
    },
    {
      "id" : "10E546F2-DA26-46E0-95EA-0707A5C21BCC",
      "properties" : {
        "name" : "齋之傳說素食餐廳永吉店",
        "address" : "台北市信義區永吉路30巷157弄5號"
      },
      "type" : "Feature",
      "geometry" : {
        "type" : "Point",
        "coordinates" : [
          121.56898700000001,
          25.042411999999999
        ]
      }
    },
    {
      "id" : "17EE9768-41BC-4287-B34C-416382A11F74",
      "properties" : {
        "name" : "以南屋蔬食料理餐廳",
        "address" : "台北市大安區光復南路200巷11號"
      },
      "type" : "Feature",
      "geometry" : {
        "type" : "Point",
        "coordinates" : [
          121.555682,
          25.041899000000001
        ]
      }
    },
    {
      "id" : "8E2FD293-DD92-4C03-85F2-3E2E6F4A31BD",
      "properties" : {
        "name" : "綠也素食館",
        "address" : "台北市大安區忠孝東路四段223巷10弄10號"
      },
      "type" : "Feature",
      "geometry" : {
        "type" : "Point",
        "coordinates" : [
          121.55347399999999,
          25.041893999999999
        ]
      }
    },
    {
      "id" : "7BE3F5AD-FDB1-4525-B1C3-F7E35E47D0CE",
      "properties" : {
        "name" : "八面安舒",
        "address" : "台北市信義區虎林街132巷88號"
      },
      "type" : "Feature",
      "geometry" : {
        "type" : "Point",
        "coordinates" : [
          121.5741,
          25.040465000000001
        ]
      }
    },
    {
      "id" : "35C0ACEE-026C-4C2B-9E4B-D079EDD97E94",
      "properties" : {
        "name" : "不丹幸福空間",
        "address" : "台北市信義區光復南路421巷6弄1號"
      },
      "type" : "Feature",
      "geometry" : {
        "type" : "Point",
        "coordinates" : [
          121.55854600000001,
          25.036066999999999
        ]
      }
    },
    {
      "id" : "C777C322-2646-43ED-9A8F-77362563783E",
      "properties" : {
        "name" : "原蔬",
        "address" : "台北市大安區仁愛路四段408巷21號"
      },
      "type" : "Feature",
      "geometry" : {
        "type" : "Point",
        "coordinates" : [
          121.5570105,
          25.036906299999998
        ]
      }
    },
    {
      "id" : "F43E57A6-2B19-4F38-BD1B-DC912B4FE26B",
      "properties" : {
        "name" : "蔬香素食",
        "address" : "台北市信義區莊敬路325巷46號"
      },
      "type" : "Feature",
      "geometry" : {
        "type" : "Point",
        "coordinates" : [
          121.56452899999999,
          25.028625000000002
        ]
      }
    },
    {
      "id" : "9B97789A-786D-4044-89D1-8A234B40956A",
      "properties" : {
        "name" : "尚蔬苑",
        "address" : "台北市信義區莊敬路423巷8弄6號"
      },
      "type" : "Feature",
      "geometry" : {
        "type" : "Point",
        "coordinates" : [
          121.567268,
          25.028428000000002
        ]
      }
    },
    {
      "id" : "4A737DA8-1A65-4069-8559-E8E4E300E6E3",
      "properties" : {
        "name" : "URBN culture",
        "address" : "台北市大安區基隆路二段252號"
      },
      "type" : "Feature",
      "geometry" : {
        "type" : "Point",
        "coordinates" : [
          121.550259,
          25.022583999999998
        ]
      }
    },
    {
      "id" : "8E483379-4298-49CD-9894-D9BD14F96088",
      "properties" : {
        "name" : "安娜法蘭",
        "address" : "台北市大安區新生南路一段157巷33號"
      },
      "type" : "Feature",
      "geometry" : {
        "type" : "Point",
        "coordinates" : [
          121.53729,
          25.035041
        ]
      }
    },
    {
      "id" : "C1CF14F8-8348-4EE9-8848-5D15B2FEDDDA",
      "properties" : {
        "name" : "來客豆腐",
        "address" : "台北市大安區臨江街135號"
      },
      "type" : "Feature",
      "geometry" : {
        "type" : "Point",
        "coordinates" : [
          121.55346,
          25.030498999999999
        ]
      }
    },
    {
      "id" : "F06AB731-FA50-4DE1-BCB0-36E586D27957",
      "properties" : {
        "name" : "榎輕食時尚創意食坊",
        "address" : "台北市南港區興中路28巷31號"
      },
      "type" : "Feature",
      "geometry" : {
        "type" : "Point",
        "coordinates" : [
          121.60621500000001,
          25.055554000000001
        ]
      }
    },
    {
      "id" : "0463FDED-88EB-4D38-8154-CB90E310289A",
      "properties" : {
        "name" : "好滋味素食",
        "address" : "台北市南港區興中路28巷7號"
      },
      "type" : "Feature",
      "geometry" : {
        "type" : "Point",
        "coordinates" : [
          121.60683299999999,
          25.055662999999999
        ]
      }
    },
    {
      "id" : "B5A02BC7-E87F-49AB-807B-F7D0B520FE9A",
      "properties" : {
        "name" : "尊上食坊",
        "address" : "台北市南港區南港路一段84號"
      },
      "type" : "Feature",
      "geometry" : {
        "type" : "Point",
        "coordinates" : [
          121.61439729999999,
          25.055342199999998
        ]
      }
    },
    {
      "id" : "FE8121C5-056A-47B7-A40E-16E16F0410DC",
      "properties" : {
        "name" : "素素如意",
        "address" : "台北市大同區重慶北路三段308號"
      },
      "type" : "Feature",
      "geometry" : {
        "type" : "Point",
        "coordinates" : [
          121.513608,
          25.073964
        ]
      }
    },
    {
      "id" : "1BDB628F-C972-4E26-81DB-9DB41FD55B03",
      "properties" : {
        "name" : "回田蔬苑",
        "address" : "台北市士林區中正路357號"
      },
      "type" : "Feature",
      "geometry" : {
        "type" : "Point",
        "coordinates" : [
          121.52219100000001,
          25.0943
        ]
      }
    },
    {
      "id" : "B167DEA5-FCB0-4AD5-B7CE-49C316AC654E",
      "properties" : {
        "name" : "果然匯",
        "address" : "台北市大安區忠孝東路四段200號"
      },
      "type" : "Feature",
      "geometry" : {
        "type" : "Point",
        "coordinates" : [
          121.55211300000001,
          25.041240599999998
        ]
      }
    },
    {
      "id" : "B974CCC0-9B8D-4F49-8045-4FEF29D2290D",
      "properties" : {
        "name" : "京園素食館",
        "address" : "台北市中山區松江路330巷22號"
      },
      "type" : "Feature",
      "geometry" : {
        "type" : "Point",
        "coordinates" : [
          121.5321366,
          25.0611037
        ]
      }
    },
    {
      "id" : "14FB2181-685A-4468-A6F0-72440C9AEFB2",
      "properties" : {
        "name" : "彌樂事蔬食食堂",
        "address" : "台北市信義區松仁路253巷2號"
      },
      "type" : "Feature",
      "geometry" : {
        "type" : "Point",
        "coordinates" : [
          121.56946499999999,
          25.025472000000001
        ]
      }
    },
    {
      "id" : "CD02A3A8-4895-4496-8C25-5AE8CF1EDAC7",
      "properties" : {
        "name" : "高仰三蔬食",
        "address" : "台北市南港區忠孝東路七段369號"
      },
      "type" : "Feature",
      "geometry" : {
        "type" : "Point",
        "coordinates" : [
          121.60720070000001,
          25.052649500000001
        ]
      }
    },
    {
      "id" : "A86CC87B-48E1-4FF9-AC72-32C78D1ED96F",
      "properties" : {
        "name" : "越南素食",
        "address" : "台北市南港區成福路30號"
      },
      "type" : "Feature",
      "geometry" : {
        "type" : "Point",
        "coordinates" : [
          121.586111,
          25.045289
        ]
      }
    },
    {
      "id" : "16EC3B9B-1E99-4843-9E20-ACFBC2C11CA4",
      "properties" : {
        "name" : "御蓮齋",
        "address" : "台北市松山區南京東路五段188號"
      },
      "type" : "Feature",
      "geometry" : {
        "type" : "Point",
        "coordinates" : [
          121.5637471,
          25.051212700000001
        ]
      }
    },
    {
      "id" : "E752302F-224E-42BA-B4A6-362F44A75601",
      "properties" : {
        "name" : "藍色馬克",
        "address" : "台北市內湖區文德路210巷30弄37號"
      },
      "type" : "Feature",
      "geometry" : {
        "type" : "Point",
        "coordinates" : [
          121.585142,
          25.077093999999999
        ]
      }
    },
    {
      "id" : "C459BC8B-7500-49A4-8385-C509AAAB850A",
      "properties" : {
        "name" : "如意素食",
        "address" : "台北市內湖區內湖路一段737巷32號"
      },
      "type" : "Feature",
      "geometry" : {
        "type" : "Point",
        "coordinates" : [
          121.578611,
          25.080006999999998
        ]
      }
    },
    {
      "id" : "93579B75-642F-494A-921C-37DFED86A704",
      "properties" : {
        "name" : "頤園素食小館",
        "address" : "台北市內湖區內湖路一段91巷6號"
      },
      "type" : "Feature",
      "geometry" : {
        "type" : "Point",
        "coordinates" : [
          121.561629,
          25.084828999999999
        ]
      }
    },
    {
      "id" : "A3D7EDF3-EAEB-4D66-A06D-39E120D0E0C2",
      "properties" : {
        "name" : "浣花草堂素食餐廳",
        "address" : "台北市中山區樂群三路218號"
      },
      "type" : "Feature",
      "geometry" : {
        "type" : "Point",
        "coordinates" : [
          121.55779200000001,
          25.082497
        ]
      }
    },
    {
      "id" : "A248B65E-2E9F-409D-8EB5-B1D47A30B340",
      "properties" : {
        "name" : "隨緣居素食餐廳",
        "address" : "台北市松山區南京東路四段11號"
      },
      "type" : "Feature",
      "geometry" : {
        "type" : "Point",
        "coordinates" : [
          121.54979950000001,
          25.051918700000002
        ]
      }
    },
    {
      "id" : "0DBEA5F6-4381-4466-AF43-AA42827DFD9D",
      "properties" : {
        "name" : "蔬呆子創意素食料理",
        "address" : "台北市大安區和平東路二段118巷54弄6號"
      },
      "type" : "Feature",
      "geometry" : {
        "type" : "Point",
        "coordinates" : [
          121.542539,
          25.021906999999999
        ]
      }
    },
    {
      "id" : "72A465BA-6BED-4AC3-98CE-374444C9CC71",
      "properties" : {
        "name" : "蔬密苑",
        "address" : "台北市信義區崇德街100號"
      },
      "type" : "Feature",
      "geometry" : {
        "type" : "Point",
        "coordinates" : [
          121.555539,
          25.024035000000001
        ]
      }
    },
    {
      "id" : "A7A45024-7D60-407A-9205-7A1D173903BF",
      "properties" : {
        "name" : "新卡莎素食西餐廳",
        "address" : "台北市中正區羅斯福路四段52巷1號"
      },
      "type" : "Feature",
      "geometry" : {
        "type" : "Point",
        "coordinates" : [
          121.5334964,
          25.0147522
        ]
      }
    },
    {
      "id" : "3FD2A6E2-1B26-4F57-9CB6-12CBE0C17405",
      "properties" : {
        "name" : "Wen's Kitchen",
        "address" : "台北市中正區羅斯福路四段78巷1弄13號"
      },
      "type" : "Feature",
      "geometry" : {
        "type" : "Point",
        "coordinates" : [
          121.534133,
          25.014247000000001
        ]
      }
    },
    {
      "id" : "1A797EC1-8DAA-4132-997D-C467A7A27B33",
      "properties" : {
        "name" : "小蔬杭",
        "address" : "台北市大安區羅斯福路四段85號"
      },
      "type" : "Feature",
      "geometry" : {
        "type" : "Point",
        "coordinates" : [
          121.5364847,
          25.012893200000001
        ]
      }
    },
    {
      "id" : "AB73FD0F-C95D-42FF-BAB7-2F994A7E88C6",
      "properties" : {
        "name" : "上善豆家",
        "address" : "台北市大安區復興南路一段107巷16號"
      },
      "type" : "Feature",
      "geometry" : {
        "type" : "Point",
        "coordinates" : [
          121.54516700000001,
          25.043478
        ]
      }
    },
    {
      "id" : "3B0C8D04-765A-40F8-BB99-32E30083B11F",
      "properties" : {
        "name" : "八德素食坊",
        "address" : "台北市中山區建國南路一段14號"
      },
      "type" : "Feature",
      "geometry" : {
        "type" : "Point",
        "coordinates" : [
          121.536269,
          25.045159999999999
        ]
      }
    },
    {
      "id" : "C32D3C8C-539F-4B43-A676-73B5B13DB140",
      "properties" : {
        "name" : "圓通素食館",
        "address" : "台北市士林區大東路158號"
      },
      "type" : "Feature",
      "geometry" : {
        "type" : "Point",
        "coordinates" : [
          121.525374,
          25.092445999999999
        ]
      }
    },
    {
      "id" : "C35D1C1E-3E3C-48CC-B7D8-D6D13335296D",
      "properties" : {
        "name" : "士林廟口阿惠素食",
        "address" : "台北市士林區大南路38號"
      },
      "type" : "Feature",
      "geometry" : {
        "type" : "Point",
        "coordinates" : [
          121.525352,
          25.089251999999998
        ]
      }
    },
    {
      "id" : "CDB10D05-6354-4EDB-98CD-DFAF23EFC2D2",
      "properties" : {
        "name" : "親子素早點",
        "address" : "台北市中山區新生北路三段3巷42-1號"
      },
      "type" : "Feature",
      "geometry" : {
        "type" : "Point",
        "coordinates" : [
          121.529285,
          25.063074
        ]
      }
    },
    {
      "id" : "C31641AE-74F1-460E-8B85-2B9189F8D1CF",
      "properties" : {
        "name" : "圓蔬食堂",
        "address" : "台北市中山區雙城街8-1號"
      },
      "type" : "Feature",
      "geometry" : {
        "type" : "Point",
        "coordinates" : [
          121.5243885,
          25.0636693
        ]
      }
    },
    {
      "id" : "DB7B1A97-14E5-4CDE-ADC4-4FD841B83AA6",
      "properties" : {
        "name" : "靈魂餐廳",
        "address" : "台北市大安區忠孝東路三段217巷1弄6號"
      },
      "type" : "Feature",
      "geometry" : {
        "type" : "Point",
        "coordinates" : [
          121.539396,
          25.042415999999999
        ]
      }
    },
    {
      "id" : "9C13FB28-2D36-46B4-8557-39C50F06F86D",
      "properties" : {
        "name" : "老仙 甜品",
        "address" : "台北市文山區木新路三段135號"
      },
      "type" : "Feature",
      "geometry" : {
        "type" : "Point",
        "coordinates" : [
          121.56173200000001,
          24.981822000000001
        ]
      }
    },
    {
      "id" : "EC1CA3B1-5ED9-4C11-82C6-10432937CBD9",
      "properties" : {
        "name" : "美味素食",
        "address" : "台北市北投區中央南路二段69號"
      },
      "type" : "Feature",
      "geometry" : {
        "type" : "Point",
        "coordinates" : [
          121.500221,
          25.122900000000001
        ]
      }
    },
    {
      "id" : "45365A79-6C80-49C4-BC61-1F8BDAF1CC6D",
      "properties" : {
        "name" : "玉波堂",
        "address" : "台北市信義區松高路11號"
      },
      "type" : "Feature",
      "geometry" : {
        "type" : "Point",
        "coordinates" : [
          121.5652424,
          25.039515099999999
        ]
      }
    },
    {
      "id" : "194BE2C6-A099-4338-9562-581C00A192C1",
      "properties" : {
        "name" : "東興素食自助餐",
        "address" : "台北市萬華區萬大路486巷59弄3號"
      },
      "type" : "Feature",
      "geometry" : {
        "type" : "Point",
        "coordinates" : [
          121.495869,
          25.020319000000001
        ]
      }
    },
    {
      "id" : "6E1634AE-0FCD-4A8A-8EC5-41B3078E117C",
      "properties" : {
        "name" : "永緣素食",
        "address" : "台北市大同區昌吉街19號"
      },
      "type" : "Feature",
      "geometry" : {
        "type" : "Point",
        "coordinates" : [
          121.517382,
          25.065954000000001
        ]
      }
    },
    {
      "id" : "94A07670-9785-4D2E-9FB2-122E4D72181C",
      "properties" : {
        "name" : "龍山素菜部",
        "address" : "台北市萬華區和平西路三段120號"
      },
      "type" : "Feature",
      "geometry" : {
        "type" : "Point",
        "coordinates" : [
          121.4998119,
          25.035011300000001
        ]
      }
    },
    {
      "id" : "82911A88-7070-46B7-80AA-1E515DF4AE6A",
      "properties" : {
        "name" : "天然福素食自助餐",
        "address" : "台北市中山區錦州街411號"
      },
      "type" : "Feature",
      "geometry" : {
        "type" : "Point",
        "coordinates" : [
          121.541648,
          25.060362000000001
        ]
      }
    },
    {
      "id" : "B8D157CB-3B0C-438F-BBCE-3E8F3B8F60B7",
      "properties" : {
        "name" : "新素派自助餐",
        "address" : "台北市北投區明德路164號"
      },
      "type" : "Feature",
      "geometry" : {
        "type" : "Point",
        "coordinates" : [
          121.521123,
          25.110990999999999
        ]
      }
    },
    {
      "id" : "EEC92451-6E03-40F7-9FB0-9B9DADAE182F",
      "properties" : {
        "name" : "全國",
        "address" : "台北市中山區錦州街459號"
      },
      "type" : "Feature",
      "geometry" : {
        "type" : "Point",
        "coordinates" : [
          121.543582,
          25.060307999999999
        ]
      }
    },
    {
      "id" : "49B633ED-78D4-4609-B5B8-48872369E9CB",
      "properties" : {
        "name" : "妙緣素食館",
        "address" : "台北市中正區懷寧街6-11號"
      },
      "type" : "Feature",
      "geometry" : {
        "type" : "Point",
        "coordinates" : [
          121.514082,
          25.046438999999999
        ]
      }
    },
    {
      "id" : "A3F714FA-D0F9-4BD5-99B2-DFC5494EA180",
      "properties" : {
        "name" : "大叔蔬食",
        "address" : "台北市大安區和平東路二段118巷47號"
      },
      "type" : "Feature",
      "geometry" : {
        "type" : "Point",
        "coordinates" : [
          121.54294,
          25.022921
        ]
      }
    },
    {
      "id" : "EA536449-2ECB-481B-AE60-83FA90766D4D",
      "properties" : {
        "name" : "歡田素食點心包子饅頭殿",
        "address" : "台北市內湖區東湖路106巷34號"
      },
      "type" : "Feature",
      "geometry" : {
        "type" : "Point",
        "coordinates" : [
          121.61497900000001,
          25.067640999999998
        ]
      }
    },
    {
      "id" : "47CF2E3F-523E-4FD0-8D90-158AC06AF426",
      "properties" : {
        "name" : "張阿姨蔬食",
        "address" : "台北市松山區八德路四段673巷6號"
      },
      "type" : "Feature",
      "geometry" : {
        "type" : "Point",
        "coordinates" : [
          121.57598400000001,
          25.050342000000001
        ]
      }
    },
    {
      "id" : "51D7AFFA-F7AF-4281-A891-CEC568ACFE34",
      "properties" : {
        "name" : "瞇瞇眼",
        "address" : "台北市松山區敦化北路4巷45號"
      },
      "type" : "Feature",
      "geometry" : {
        "type" : "Point",
        "coordinates" : [
          121.545011,
          25.050035999999999
        ]
      }
    },
    {
      "id" : "0808A095-CF79-47A5-9904-AC86C47793D4",
      "properties" : {
        "name" : "TRIO義式庭園",
        "address" : "台北市中山區北安路630巷25弄1號"
      },
      "type" : "Feature",
      "geometry" : {
        "type" : "Point",
        "coordinates" : [
          121.550471,
          25.082944999999999
        ]
      }
    },
    {
      "id" : "B5E3A270-C1D7-4DE2-A7EB-797F75C56D73",
      "properties" : {
        "name" : "大帥素食館",
        "address" : "台北市南港區新民街78號"
      },
      "type" : "Feature",
      "geometry" : {
        "type" : "Point",
        "coordinates" : [
          121.6110564,
          25.055754799999999
        ]
      }
    },
    {
      "id" : "72B618AE-C537-418A-82FE-6EF5EFDDE960",
      "properties" : {
        "name" : "智靜素食自助餐",
        "address" : "台北市中正區南昌路一段41號"
      },
      "type" : "Feature",
      "geometry" : {
        "type" : "Point",
        "coordinates" : [
          121.517117,
          25.031559000000001
        ]
      }
    },
    {
      "id" : "093FE525-9249-450D-A210-F9E10F2754C6",
      "properties" : {
        "name" : "仁里居",
        "address" : "台北市大安區建國南路二段151巷16號"
      },
      "type" : "Feature",
      "geometry" : {
        "type" : "Point",
        "coordinates" : [
          121.538586,
          25.028669000000001
        ]
      }
    },
    {
      "id" : "C88900A1-646C-49F9-8AED-80C7CAD85D0E",
      "properties" : {
        "name" : "紫竹林滴水坊",
        "address" : "台北市松山區民權東路三段106巷3弄29號"
      },
      "type" : "Feature",
      "geometry" : {
        "type" : "Point",
        "coordinates" : [
          121.5462435,
          25.0615515
        ]
      }
    },
    {
      "id" : "DFD089D8-BA8E-41AD-BACC-11C1A0307E03",
      "properties" : {
        "name" : "素食早餐攤",
        "address" : "台北市信義區信義路四段411號"
      },
      "type" : "Feature",
      "geometry" : {
        "type" : "Point",
        "coordinates" : [
          121.55908719999999,
          25.033249900000001
        ]
      }
    },
    {
      "id" : "74DB4BA6-8981-47E4-890A-55F2BE72A54D",
      "properties" : {
        "name" : "吉祥素食",
        "address" : "台北市大同區大龍街222號"
      },
      "type" : "Feature",
      "geometry" : {
        "type" : "Point",
        "coordinates" : [
          121.515805,
          25.069558000000001
        ]
      }
    },
    {
      "id" : "53600546-AE83-476C-94C7-54698B6DF51E",
      "properties" : {
        "name" : "興隆有機蔬果店",
        "address" : "台北市文山區興隆路二段220巷39號"
      },
      "type" : "Feature",
      "geometry" : {
        "type" : "Point",
        "coordinates" : [
          121.552199,
          25.000208000000001
        ]
      }
    },
    {
      "id" : "8EF18C82-2DEA-458B-AA38-D80A62589908",
      "properties" : {
        "name" : "Herbitarian",
        "address" : "台北市大安區基隆路4段43 號"
      },
      "type" : "Feature",
      "geometry" : {
        "type" : "Point",
        "coordinates" : [
          121.54061400000001,
          25.013742000000001
        ]
      }
    },
    {
      "id" : "E667B8CC-7D15-48C8-8216-C23238A9DDF1",
      "properties" : {
        "name" : "Art Show",
        "address" : "台北市大同區太原路11巷23號"
      },
      "type" : "Feature",
      "geometry" : {
        "type" : "Point",
        "coordinates" : [
          121.515902,
          25.049562000000002
        ]
      }
    },
    {
      "id" : "98112440-76B7-4624-A02E-EC3FF6252916",
      "properties" : {
        "name" : "宜荷素食",
        "address" : "台北市北投區立農街一段239號"
      },
      "type" : "Feature",
      "geometry" : {
        "type" : "Point",
        "coordinates" : [
          121.504901,
          25.119790999999999
        ]
      }
    },
    {
      "id" : "30FB0D4A-8C14-42CF-B0AD-FB6A45446F08",
      "properties" : {
        "name" : "三本手工拉麵",
        "address" : "台北市中山區建國北路二段26號"
      },
      "type" : "Feature",
      "geometry" : {
        "type" : "Point",
        "coordinates" : [
          121.53635199999999,
          25.053094999999999
        ]
      }
    },
    {
      "id" : "C2A16FF9-2613-41B6-BA59-2A8903790A69",
      "properties" : {
        "name" : "三六九素食點心",
        "address" : "台北市北投區裕民一路16號"
      },
      "type" : "Feature",
      "geometry" : {
        "type" : "Point",
        "coordinates" : [
          121.516586,
          25.116607999999999
        ]
      }
    },
    {
      "id" : "D0ACF461-01F5-4F95-8B4D-A4A25AF0F8A0",
      "properties" : {
        "name" : "棉花田生機園地",
        "address" : "台北市北投區中央南路一段39號"
      },
      "type" : "Feature",
      "geometry" : {
        "type" : "Point",
        "coordinates" : [
          121.50146100000001,
          25.132266000000001
        ]
      }
    },
    {
      "id" : "72372B28-B8A2-45D2-AD13-0EA9089650D9",
      "properties" : {
        "name" : "小燕素食",
        "address" : "台北市信義區松山路615巷27號"
      },
      "type" : "Feature",
      "geometry" : {
        "type" : "Point",
        "coordinates" : [
          121.578997,
          25.036778999999999
        ]
      }
    },
    {
      "id" : "FFA31070-B992-44C4-B7F8-785156D3A16B",
      "properties" : {
        "name" : "梅門",
        "address" : "台北市中正區信義路二段189號"
      },
      "type" : "Feature",
      "geometry" : {
        "type" : "Point",
        "coordinates" : [
          121.529584,
          25.033985000000001
        ]
      }
    },
    {
      "id" : "DA515065-D8F3-4A8E-8E42-54DDF0E4F2AB",
      "properties" : {
        "name" : "瑜伽麵包•阿南達養生坊",
        "address" : "台北市文山區景福街259號"
      },
      "type" : "Feature",
      "geometry" : {
        "type" : "Point",
        "coordinates" : [
          121.540004,
          24.993611000000001
        ]
      }
    },
    {
      "id" : "A2DBFB9B-0320-46CD-9434-8AB091A1842D",
      "properties" : {
        "name" : "致德蔬食坊",
        "address" : "台北市中山區民權東路二段92巷7弄2號"
      },
      "type" : "Feature",
      "geometry" : {
        "type" : "Point",
        "coordinates" : [
          121.531747,
          25.060631000000001
        ]
      }
    },
    {
      "id" : "8EA26C7D-925D-4679-9061-41440B9509AF",
      "properties" : {
        "name" : "健康蔬福食堂",
        "address" : "台北市士林區克強路5號"
      },
      "type" : "Feature",
      "geometry" : {
        "type" : "Point",
        "coordinates" : [
          121.52475200000001,
          25.108996999999999
        ]
      }
    },
    {
      "id" : "A140B566-0BC6-45F2-B031-1BAF76F154C0",
      "properties" : {
        "name" : "意心蓮素食館",
        "address" : "台北市萬華區中華路二段165號"
      },
      "type" : "Feature",
      "geometry" : {
        "type" : "Point",
        "coordinates" : [
          121.5039045,
          25.030262199999999
        ]
      }
    },
    {
      "id" : "2882C3D2-E8FE-4757-9B5A-829CC1E93133",
      "properties" : {
        "name" : "北平金廚新蔬食料理",
        "address" : "台北市士林區天母西路38巷3號"
      },
      "type" : "Feature",
      "geometry" : {
        "type" : "Point",
        "coordinates" : [
          121.52619,
          25.118103999999999
        ]
      }
    },
    {
      "id" : "0D855599-53A6-4495-A1AD-413B8E3644B9",
      "properties" : {
        "name" : "素素如意",
        "address" : "台北市大同區重慶北路三段308號"
      },
      "type" : "Feature",
      "geometry" : {
        "type" : "Point",
        "coordinates" : [
          121.513608,
          25.073964
        ]
      }
    },
    {
      "id" : "EF30E5DD-490E-41CE-AA24-C003681E0C79",
      "properties" : {
        "name" : "吉林健康素食",
        "address" : "台北市中山區吉林路25號"
      },
      "type" : "Feature",
      "geometry" : {
        "type" : "Point",
        "coordinates" : [
          121.530186,
          25.050695999999999
        ]
      }
    },
    {
      "id" : "BB214700-E99A-4F79-963F-B827C8CF1902",
      "properties" : {
        "name" : "人人素食麵館",
        "address" : "台北市中山區一江街56號"
      },
      "type" : "Feature",
      "geometry" : {
        "type" : "Point",
        "coordinates" : [
          121.531392,
          25.054297999999999
        ]
      }
    },
    {
      "id" : "AA299FE0-1F93-4813-BDA6-F1BC8414B744",
      "properties" : {
        "name" : "南海素食",
        "address" : "台北市北投區大同街140號"
      },
      "type" : "Feature",
      "geometry" : {
        "type" : "Point",
        "coordinates" : [
          121.499033,
          25.1355
        ]
      }
    },
    {
      "id" : "66F8C8F5-762F-4006-9E60-9674E7A3722D",
      "properties" : {
        "name" : "蔬食小舖",
        "address" : "台北市中山區長春路169號"
      },
      "type" : "Feature",
      "geometry" : {
        "type" : "Point",
        "coordinates" : [
          121.537284,
          25.054924
        ]
      }
    },
    {
      "id" : "4529682F-535C-48B6-A28D-4212D33E8341",
      "properties" : {
        "name" : "蒔蘿香草",
        "address" : "台北市士林區天母東路96號"
      },
      "type" : "Feature",
      "geometry" : {
        "type" : "Point",
        "coordinates" : [
          121.536378,
          25.117961000000001
        ]
      }
    },
    {
      "id" : "2CF6C591-F72D-4C55-939F-DAF780E42F25",
      "properties" : {
        "name" : "珍禾蔬食護生",
        "address" : "台北市內湖區東湖路113巷49弄17號"
      },
      "type" : "Feature",
      "geometry" : {
        "type" : "Point",
        "coordinates" : [
          121.61529299999999,
          25.070112000000002
        ]
      }
    },
    {
      "id" : "B15711D6-5A42-427A-BAFB-E4F74DA1B166",
      "properties" : {
        "name" : "牡羊一加一咖啡鬆餅",
        "address" : "台北市北投區東華街二段76號"
      },
      "type" : "Feature",
      "geometry" : {
        "type" : "Point",
        "coordinates" : [
          121.513915,
          25.117311000000001
        ]
      }
    },
    {
      "id" : "1DCAC07B-DEF1-4F5B-9FA2-8EA3032E7440",
      "properties" : {
        "name" : "賢爸蔬食",
        "address" : "台北市北投區中央南路一段25巷5號"
      },
      "type" : "Feature",
      "geometry" : {
        "type" : "Point",
        "coordinates" : [
          121.50175,
          25.132549999999998
        ]
      }
    },
    {
      "id" : "4DE98369-83FF-4C51-96BF-16CD5569FA2F",
      "properties" : {
        "name" : "卡帛咖啡素食廚房",
        "address" : "台北市大安區復興南路二段308巷5號"
      },
      "type" : "Feature",
      "geometry" : {
        "type" : "Point",
        "coordinates" : [
          121.542953,
          25.023662999999999
        ]
      }
    },
    {
      "id" : "358D0A67-2682-47A1-B43D-5985AFAE0408",
      "properties" : {
        "name" : "喜多園素食",
        "address" : "台北市松山區光復北路234號"
      },
      "type" : "Feature",
      "geometry" : {
        "type" : "Point",
        "coordinates" : [
          121.555395,
          25.056407
        ]
      }
    },
    {
      "id" : "C1198C4F-E81D-4D22-8060-8AB72A3E5BB2",
      "properties" : {
        "name" : "香積坊 劉家素粽",
        "address" : "台北市萬華區富民路145巷15弄82號"
      },
      "type" : "Feature",
      "geometry" : {
        "type" : "Point",
        "coordinates" : [
          121.499617,
          25.018975999999999
        ]
      }
    },
    {
      "id" : "DD0236B4-543A-4717-87EE-004B2AE0DAAF",
      "properties" : {
        "name" : "真的咖啡 Zhen De Coffee",
        "address" : "台北市文山區萬隆街19巷1號"
      },
      "type" : "Feature",
      "geometry" : {
        "type" : "Point",
        "coordinates" : [
          121.538386,
          25.000105999999999
        ]
      }
    },
    {
      "id" : "003B9875-26DF-42D8-948F-EBBF93D2CD19",
      "properties" : {
        "name" : "華香蔬食餐廳",
        "address" : "台北市松山區敦化北路340-9號"
      },
      "type" : "Feature",
      "geometry" : {
        "type" : "Point",
        "coordinates" : [
          121.5504057,
          25.059857399999999
        ]
      }
    },
    {
      "id" : "928C31E2-BC7D-405F-BD7A-FEB51F1F636D",
      "properties" : {
        "name" : "三個傻瓜",
        "address" : "台北市大安區羅斯福路三段283巷28號"
      },
      "type" : "Feature",
      "geometry" : {
        "type" : "Point",
        "coordinates" : [
          121.531736,
          25.018833999999998
        ]
      }
    },
    {
      "id" : "1C49D3B0-6420-42B7-A79A-8F07FB9FEB33",
      "properties" : {
        "name" : "源球素食餐",
        "address" : "台北市萬華區東園街66巷37弄58號"
      },
      "type" : "Feature",
      "geometry" : {
        "type" : "Point",
        "coordinates" : [
          121.494991,
          25.026367
        ]
      }
    },
    {
      "id" : "DFE54495-12EA-478D-A928-994893A67AE7",
      "properties" : {
        "name" : "Joy Living 喜悅舒活",
        "address" : "台北市中山區松江路330巷26號"
      },
      "type" : "Feature",
      "geometry" : {
        "type" : "Point",
        "coordinates" : [
          121.531958,
          25.061092899999998
        ]
      }
    },
    {
      "id" : "B5FAF258-1619-4F3D-9437-C8B658F11213",
      "properties" : {
        "name" : "喜多素食",
        "address" : "台北市信義區松山路299號"
      },
      "type" : "Feature",
      "geometry" : {
        "type" : "Point",
        "coordinates" : [
          121.577963,
          25.042722000000001
        ]
      }
    },
    {
      "id" : "1C670B1D-5E3A-49F1-9901-824D9A11EB24",
      "properties" : {
        "name" : "健康素食麵",
        "address" : "台北市中山區北安路595巷2弄8號"
      },
      "type" : "Feature",
      "geometry" : {
        "type" : "Point",
        "coordinates" : [
          121.548277,
          25.08184
        ]
      }
    },
    {
      "id" : "E7C6562C-CE55-41DD-B6DE-1E6A2228EE44",
      "properties" : {
        "name" : "艾媽咪食品屋",
        "address" : "台北市內湖區內湖路二段73號"
      },
      "type" : "Feature",
      "geometry" : {
        "type" : "Point",
        "coordinates" : [
          121.582364,
          25.079820000000002
        ]
      }
    },
    {
      "id" : "D48E160A-F290-4521-B9BB-F4282AD8F6A6",
      "properties" : {
        "name" : "飛飛音樂咖啡廳",
        "address" : "台北市中山區松江路25巷5號"
      },
      "type" : "Feature",
      "geometry" : {
        "type" : "Point",
        "coordinates" : [
          121.53377519999999,
          25.047379400000001
        ]
      }
    },
    {
      "id" : "3E9818BA-B5C6-4B83-96EB-9C0DE4FFE888",
      "properties" : {
        "name" : "均合素食點心坊",
        "address" : "台北市信義區福德街82號"
      },
      "type" : "Feature",
      "geometry" : {
        "type" : "Point",
        "coordinates" : [
          121.581346,
          25.037226
        ]
      }
    },
    {
      "id" : "EDE67B3F-3363-4849-A58D-5327E91282D3",
      "properties" : {
        "name" : "美鳳素食店",
        "address" : "台北市松山區三民路180巷49號"
      },
      "type" : "Feature",
      "geometry" : {
        "type" : "Point",
        "coordinates" : [
          121.56510400000001,
          25.062688999999999
        ]
      }
    },
    {
      "id" : "7DAF652D-A4C8-4162-BAD6-0AE3C0C231D8",
      "properties" : {
        "name" : "食善小館",
        "address" : "台北市信義區忠孝東路五段790巷20弄9號"
      },
      "type" : "Feature",
      "geometry" : {
        "type" : "Point",
        "coordinates" : [
          121.58179199999999,
          25.042663999999998
        ]
      }
    },
    {
      "id" : "5553A1FC-A17F-4034-8362-88DB507B44D1",
      "properties" : {
        "name" : "福全複合素食",
        "address" : "台北市松山區南京東路五段291巷2號"
      },
      "type" : "Feature",
      "geometry" : {
        "type" : "Point",
        "coordinates" : [
          121.566042,
          25.051818000000001
        ]
      }
    },
    {
      "id" : "B2DE730C-313E-4A4E-A6E8-D63CD13609B0",
      "properties" : {
        "name" : "文大叔 蔬食麵線",
        "address" : "台北市大同區民生西路169-2號"
      },
      "type" : "Feature",
      "geometry" : {
        "type" : "Point",
        "coordinates" : [
          121.51729400000001,
          25.057348999999999
        ]
      }
    },
    {
      "id" : "DA359B74-758D-4004-BE68-257CD33433ED",
      "properties" : {
        "name" : "慈音休閒農莊養生素食",
        "address" : "台北市文山區老泉街26巷11號"
      },
      "type" : "Feature",
      "geometry" : {
        "type" : "Point",
        "coordinates" : [
          121.566259,
          24.966227
        ]
      }
    },
    {
      "id" : "F0673359-FB42-4741-8BDE-2091DFE467A5",
      "properties" : {
        "name" : "菩提樹",
        "address" : "台北市信義區吳興街44-1號"
      },
      "type" : "Feature",
      "geometry" : {
        "type" : "Point",
        "coordinates" : [
          121.56007200000001,
          25.031136
        ]
      }
    },
    {
      "id" : "F4DDEB61-B2FE-4A6B-979D-56DC80DAB59D",
      "properties" : {
        "name" : "全國",
        "address" : "台北市松山區南京東路五段123巷31號"
      },
      "type" : "Feature",
      "geometry" : {
        "type" : "Point",
        "coordinates" : [
          121.560648,
          25.052855999999998
        ]
      }
    },
    {
      "id" : "9767D7F1-5612-4AA7-884D-6B2DFD0AB404",
      "properties" : {
        "name" : "中一蔬食園",
        "address" : "台北市大安區羅斯福路三段333巷20號"
      },
      "type" : "Feature",
      "geometry" : {
        "type" : "Point",
        "coordinates" : [
          121.532572,
          25.017658000000001
        ]
      }
    },
    {
      "id" : "92EA0B4C-B5A2-4678-A8F5-97BB86868804",
      "properties" : {
        "name" : "小散漫雜貨輕食咖啡館",
        "address" : "台北市松山區南京東路五段23巷7弄6號"
      },
      "type" : "Feature",
      "geometry" : {
        "type" : "Point",
        "coordinates" : [
          121.55785,
          25.052233999999999
        ]
      }
    },
    {
      "id" : "8B874E6F-4CAC-44F7-870B-5C838178125A",
      "properties" : {
        "name" : "博德素食",
        "address" : "台北市士林區承德路四段308號"
      },
      "type" : "Feature",
      "geometry" : {
        "type" : "Point",
        "coordinates" : [
          121.518573,
          25.089659999999999
        ]
      }
    },
    {
      "id" : "92775C81-0A93-4133-93D6-9A006931DA63",
      "properties" : {
        "name" : "美味素食館",
        "address" : "台北市信義區忠孝東路五段743巷15號"
      },
      "type" : "Feature",
      "geometry" : {
        "type" : "Point",
        "coordinates" : [
          121.580988,
          25.043668
        ]
      }
    },
    {
      "id" : "B74F5986-2E8C-41B0-929B-18FFAE97C4EF",
      "properties" : {
        "name" : "滿點素食",
        "address" : "台北市士林區德行東路109巷18號"
      },
      "type" : "Feature",
      "geometry" : {
        "type" : "Point",
        "coordinates" : [
          121.528402,
          25.108302999999999
        ]
      }
    },
    {
      "id" : "5DEE99A6-3EC5-4CC4-9AB0-86F60C66ED17",
      "properties" : {
        "name" : "時齋健康素食",
        "address" : "台北市信義區吳興街8巷8號"
      },
      "type" : "Feature",
      "geometry" : {
        "type" : "Point",
        "coordinates" : [
          121.55922630000001,
          25.031537400000001
        ]
      }
    },
    {
      "id" : "15DF14EC-6EF3-4493-98E1-F46AB61070B8",
      "properties" : {
        "name" : "一心廚房",
        "address" : "台北市中正區南昌路一段31巷3號"
      },
      "type" : "Feature",
      "geometry" : {
        "type" : "Point",
        "coordinates" : [
          121.517124,
          25.031953000000001
        ]
      }
    },
    {
      "id" : "790835AF-3830-41F3-8C5D-5CF12033C44F",
      "properties" : {
        "name" : "觀世音素菜餐廳",
        "address" : "台北市中山區民權東路二段29號"
      },
      "type" : "Feature",
      "geometry" : {
        "type" : "Point",
        "coordinates" : [
          121.52934399999999,
          25.062802000000001
        ]
      }
    },
    {
      "id" : "C9CF8CDD-A1F7-4749-B83E-DE46F44BF73B",
      "properties" : {
        "name" : "至仁堂健康素食餐廳",
        "address" : "台北市文山區木柵路一段38號"
      },
      "type" : "Feature",
      "geometry" : {
        "type" : "Point",
        "coordinates" : [
          121.546673,
          24.986666
        ]
      }
    },
    {
      "id" : "16E7B877-82B9-4F50-BEAC-313FA69870B2",
      "properties" : {
        "name" : "八神日式涮涮鍋",
        "address" : "台北市內湖區瑞光路15號"
      },
      "type" : "Feature",
      "geometry" : {
        "type" : "Point",
        "coordinates" : [
          121.583737,
          25.069527000000001
        ]
      }
    },
    {
      "id" : "3209B12A-932C-470B-8C0B-D0EA1E925F59",
      "properties" : {
        "name" : "誠食健康素食",
        "address" : "台北市大安區忠孝東路四段216巷27弄6號"
      },
      "type" : "Feature",
      "geometry" : {
        "type" : "Point",
        "coordinates" : [
          121.553449,
          25.039743999999999
        ]
      }
    },
    {
      "id" : "A527FAC0-2C30-4845-825A-5191C370046F",
      "properties" : {
        "name" : "明德素食園",
        "address" : "台北市大安區敦化南路一段245號"
      },
      "type" : "Feature",
      "geometry" : {
        "type" : "Point",
        "coordinates" : [
          121.54927309999999,
          25.039125200000001
        ]
      }
    },
    {
      "id" : "3389A0D4-BB75-454D-B619-85A5FBD86748",
      "properties" : {
        "name" : "淨素素食",
        "address" : "台北市內湖區康樂街136巷18弄46號"
      },
      "type" : "Feature",
      "geometry" : {
        "type" : "Point",
        "coordinates" : [
          121.618612,
          25.071155999999998
        ]
      }
    },
    {
      "id" : "BA3F3805-26FD-4FCD-9239-19118C2E63E7",
      "properties" : {
        "name" : "禾苗素食",
        "address" : "台北市中山區中山北路二段59巷8號"
      },
      "type" : "Feature",
      "geometry" : {
        "type" : "Point",
        "coordinates" : [
          121.52338,
          25.055817999999999
        ]
      }
    },
    {
      "id" : "8730D76F-370F-4EB3-AAAF-29418E7970AB",
      "properties" : {
        "name" : "一元堂素餅之家",
        "address" : "台北市萬華區內江街48號"
      },
      "type" : "Feature",
      "geometry" : {
        "type" : "Point",
        "coordinates" : [
          121.505301,
          25.041512999999998
        ]
      }
    },
    {
      "id" : "D30ECA09-9D64-4DC9-84F4-A7AB921B7B94",
      "properties" : {
        "name" : "小植茁植物料理 Vixated",
        "address" : "台北市南港區研究院路二段5巷2-1號"
      },
      "type" : "Feature",
      "geometry" : {
        "type" : "Point",
        "coordinates" : [
          121.61568,
          25.047246999999999
        ]
      }
    },
    {
      "id" : "8D2E0A3C-85EB-452B-A6D0-0EB34FB82419",
      "properties" : {
        "name" : "台北素食",
        "address" : "台北市松山區光復北路107號"
      },
      "type" : "Feature",
      "geometry" : {
        "type" : "Point",
        "coordinates" : [
          121.558099,
          25.051100999999999
        ]
      }
    },
    {
      "id" : "3457DD0B-C89F-4CC0-B447-EFE66CFD9938",
      "properties" : {
        "name" : "珍寶健康蔬食坊",
        "address" : "台北市內湖區港墘路82巷6號"
      },
      "type" : "Feature",
      "geometry" : {
        "type" : "Point",
        "coordinates" : [
          121.577291,
          25.080801000000001
        ]
      }
    },
    {
      "id" : "D9EB2404-1FF3-4589-A754-6BDDD3793D5A",
      "properties" : {
        "name" : "竹君素食材料批發零售",
        "address" : "台北市大同區歸綏街218號"
      },
      "type" : "Feature",
      "geometry" : {
        "type" : "Point",
        "coordinates" : [
          121.510426,
          25.058167000000001
        ]
      }
    },
    {
      "id" : "663EF24E-ED85-44CE-98F9-59771DAE70E6",
      "properties" : {
        "name" : "古佛素食館",
        "address" : "台北市松山區民生東路三段127巷8號"
      },
      "type" : "Feature",
      "geometry" : {
        "type" : "Point",
        "coordinates" : [
          121.5474104,
          25.058631500000001
        ]
      }
    },
    {
      "id" : "84D5D861-F7DA-4FC9-8B12-CC3290E0277B",
      "properties" : {
        "name" : "古佛素食",
        "address" : "台北市中山區伊通街106巷6號"
      },
      "type" : "Feature",
      "geometry" : {
        "type" : "Point",
        "coordinates" : [
          121.534261,
          25.053919
        ]
      }
    },
    {
      "id" : "8E2D613C-A00F-4C41-8A5C-71B8B674792C",
      "properties" : {
        "name" : "庫卡咖啡",
        "address" : "台北市中山區大直街57巷5號"
      },
      "type" : "Feature",
      "geometry" : {
        "type" : "Point",
        "coordinates" : [
          121.546835,
          25.083449000000002
        ]
      }
    },
    {
      "id" : "8CD5EF0D-6749-4324-B856-4CA343FB27BC",
      "properties" : {
        "name" : "溥善園精進蔬食",
        "address" : "台北市文山區興隆路一段14號"
      },
      "type" : "Feature",
      "geometry" : {
        "type" : "Point",
        "coordinates" : [
          121.539396,
          25.004134000000001
        ]
      }
    },
    {
      "id" : "990C1EB3-B789-44B1-AFB9-B461A65BC712",
      "properties" : {
        "name" : "蘇阿姨比薩屋",
        "address" : "台北市大安區光復南路300號"
      },
      "type" : "Feature",
      "geometry" : {
        "type" : "Point",
        "coordinates" : [
          121.5574451,
          25.039020399999998
        ]
      }
    },
    {
      "id" : "DC56376A-F3D0-4D23-87C0-9927DC6BECB5",
      "properties" : {
        "name" : "29號館 義大利麵",
        "address" : "台北市大安區瑞安街67-1號"
      },
      "type" : "Feature",
      "geometry" : {
        "type" : "Point",
        "coordinates" : [
          121.541533,
          25.028669000000001
        ]
      }
    },
    {
      "id" : "D158F203-A572-49DB-8897-D4A1840ECB6D",
      "properties" : {
        "name" : "慈方素食小居",
        "address" : "台北市中山區四平街40號"
      },
      "type" : "Feature",
      "geometry" : {
        "type" : "Point",
        "coordinates" : [
          121.532123,
          25.053588000000001
        ]
      }
    },
    {
      "id" : "03EAF532-B00E-4AD6-81BD-44CC351F0460",
      "properties" : {
        "name" : "天珍素食",
        "address" : "台北市大同區延平北路二段255-3號"
      },
      "type" : "Feature",
      "geometry" : {
        "type" : "Point",
        "coordinates" : [
          121.5113458,
          25.062394099999999
        ]
      }
    },
    {
      "id" : "FC6A437F-6871-439F-AE24-8798275E75F3",
      "properties" : {
        "name" : "正慧素食館",
        "address" : "台北市大同區民生西路161號"
      },
      "type" : "Feature",
      "geometry" : {
        "type" : "Point",
        "coordinates" : [
          121.51749100000001,
          25.057380999999999
        ]
      }
    },
    {
      "id" : "F1F6F0B9-F450-4CE7-91A7-AD0D03125405",
      "properties" : {
        "name" : "興亨素食館",
        "address" : "台北市內湖區文德路22巷11號"
      },
      "type" : "Feature",
      "geometry" : {
        "type" : "Point",
        "coordinates" : [
          121.579669,
          25.077345999999999
        ]
      }
    },
    {
      "id" : "5673A343-DB54-4D1A-989B-92C06497DACD",
      "properties" : {
        "name" : "TCWJ 輕鬆片嗑",
        "address" : "台北市大同區大龍街98號"
      },
      "type" : "Feature",
      "geometry" : {
        "type" : "Point",
        "coordinates" : [
          121.51591500000001,
          25.066572000000001
        ]
      }
    },
    {
      "id" : "BB18A736-F572-4E21-990F-4454B9FBAD4E",
      "properties" : {
        "name" : "養生屋素食",
        "address" : "台北市內湖區內湖路一段323巷4弄12號"
      },
      "type" : "Feature",
      "geometry" : {
        "type" : "Point",
        "coordinates" : [
          121.567453,
          25.082715
        ]
      }
    },
    {
      "id" : "7A8E8E7C-BCBB-42F4-BFC0-BFE371B8C9FB",
      "properties" : {
        "name" : "不丹王國素食館",
        "address" : "台北市士林區至善路三段150巷8-1號"
      },
      "type" : "Feature",
      "geometry" : {
        "type" : "Point",
        "coordinates" : [
          121.574366,
          25.115749000000001
        ]
      }
    },
    {
      "id" : "86443767-9414-4AE2-9361-B4C4D637CC2B",
      "properties" : {
        "name" : "美濃粄條素食店",
        "address" : "台北市信義區福德街221巷2弄3號"
      },
      "type" : "Feature",
      "geometry" : {
        "type" : "Point",
        "coordinates" : [
          121.58481399999999,
          25.038011999999998
        ]
      }
    },
    {
      "id" : "7897B811-76FC-47A0-9F85-D0DFC044865C",
      "properties" : {
        "name" : "雙純手工麵疙瘩",
        "address" : "台北市大同區萬全街32巷12號"
      },
      "type" : "Feature",
      "geometry" : {
        "type" : "Point",
        "coordinates" : [
          121.520349,
          25.058057000000002
        ]
      }
    },
    {
      "id" : "44702F58-3275-4ACE-B9E3-0988E6115753",
      "properties" : {
        "name" : "廣澤素食",
        "address" : "台北市北投區光明路74號"
      },
      "type" : "Feature",
      "geometry" : {
        "type" : "Point",
        "coordinates" : [
          121.500455,
          25.132919999999999
        ]
      }
    },
    {
      "id" : "FF766573-C9D3-4149-AC30-15424F3B864E",
      "properties" : {
        "name" : "觀音素食",
        "address" : "台北市松山區民生東路四段80巷6弄1號"
      },
      "type" : "Feature",
      "geometry" : {
        "type" : "Point",
        "coordinates" : [
          121.55282,
          25.056937999999999
        ]
      }
    },
    {
      "id" : "C835A2D4-5980-4D97-8D92-87A0F0303B55",
      "properties" : {
        "name" : "森丼蔬食",
        "address" : "台北市中山區長安東路二段171-9號"
      },
      "type" : "Feature",
      "geometry" : {
        "type" : "Point",
        "coordinates" : [
          121.541648,
          25.048434
        ]
      }
    },
    {
      "id" : "E5175656-422C-477B-89E9-1A75FB4A778D",
      "properties" : {
        "name" : "品香素食店",
        "address" : "台北市松山區南京東路三段256巷18號"
      },
      "type" : "Feature",
      "geometry" : {
        "type" : "Point",
        "coordinates" : [
          121.54484600000001,
          25.050909000000001
        ]
      }
    },
    {
      "id" : "E6B893BA-2D15-4B4A-B08A-DFC0497DF447",
      "properties" : {
        "name" : "寶吉祥蔬食廚房",
        "address" : "台北市信義區逸仙路42巷21號"
      },
      "type" : "Feature",
      "geometry" : {
        "type" : "Point",
        "coordinates" : [
          121.563053,
          25.040327000000001
        ]
      }
    },
    {
      "id" : "6650D9AA-A08F-4912-99ED-74F940738D0B",
      "properties" : {
        "name" : "廣誠素食",
        "address" : "台北市松山區八德路三段140號"
      },
      "type" : "Feature",
      "geometry" : {
        "type" : "Point",
        "coordinates" : [
          121.554543,
          25.047992000000001
        ]
      }
    },
    {
      "id" : "4024E00A-7FAB-43BA-B8CC-82C63946E5C6",
      "properties" : {
        "name" : "MiaCucina",
        "address" : "台北市中山區南京西路12號"
      },
      "type" : "Feature",
      "geometry" : {
        "type" : "Point",
        "coordinates" : [
          121.521226,
          25.052311
        ]
      }
    },
    {
      "id" : "FE7251A4-AE2A-43E8-9EF3-3200D226CFEC",
      "properties" : {
        "name" : "清月素麵滷味",
        "address" : "台北市松山區八德路四段709巷之3號"
      },
      "type" : "Feature",
      "geometry" : {
        "type" : "Point",
        "coordinates" : [
          121.57674299999999,
          25.050331
        ]
      }
    },
    {
      "id" : "0DF08458-7FB6-42E2-BF69-E7220C21EC3F",
      "properties" : {
        "name" : "歡喜素食",
        "address" : "台北市文山區景文街101-7號"
      },
      "type" : "Feature",
      "geometry" : {
        "type" : "Point",
        "coordinates" : [
          121.541347,
          24.990803
        ]
      }
    },
    {
      "id" : "2243ADEE-116C-4BFC-A8A4-1DE9B137CDD9",
      "properties" : {
        "name" : "華香蔬食",
        "address" : "台北市大安區和平東路一段129號"
      },
      "type" : "Feature",
      "geometry" : {
        "type" : "Point",
        "coordinates" : [
          121.528413,
          25.026876999999999
        ]
      }
    },
    {
      "id" : "00BD953A-F729-4C35-A153-C64E0EF0BD58",
      "properties" : {
        "name" : "尹軒齋精緻蔬食",
        "address" : "台北市中正區中正區中華路二段391號"
      },
      "type" : "Feature",
      "geometry" : {
        "type" : "Point",
        "coordinates" : [
          121.507919,
          25.026239
        ]
      }
    },
    {
      "id" : "74E68280-1648-41DF-837D-0EB18DA9F09F",
      "properties" : {
        "name" : "蛋奶樹蔬食專賣",
        "address" : "台北市中山區中山北路一段33巷26號"
      },
      "type" : "Feature",
      "geometry" : {
        "type" : "Point",
        "coordinates" : [
          121.522308,
          25.048622999999999
        ]
      }
    },
    {
      "id" : "971546F2-7683-4914-98D2-9DE34BF9F5BB",
      "properties" : {
        "name" : "花阿嬤古早味小吃",
        "address" : "台北市士林區中山北路七段50號"
      },
      "type" : "Feature",
      "geometry" : {
        "type" : "Point",
        "coordinates" : [
          121.531346,
          25.120547999999999
        ]
      }
    },
    {
      "id" : "FE42227B-EDE9-4536-B8D8-D8B2A06239C7",
      "properties" : {
        "name" : "食香園素食館",
        "address" : "台北市大安區羅斯福路四段1號"
      },
      "type" : "Feature",
      "geometry" : {
        "type" : "Point",
        "coordinates" : [
          121.533297,
          25.016265000000001
        ]
      }
    },
    {
      "id" : "DB61930D-F6CD-468B-9670-2F3853CCE709",
      "properties" : {
        "name" : "浣花草堂大直店",
        "address" : "台北市中山區樂群三路218號"
      },
      "type" : "Feature",
      "geometry" : {
        "type" : "Point",
        "coordinates" : [
          121.55779200000001,
          25.082497
        ]
      }
    },
    {
      "id" : "E95EBA7A-A0A1-4226-82E0-CC9B205FEBCD",
      "properties" : {
        "name" : "法華素食餐廳",
        "address" : "台北市松山區三民路113巷10號"
      },
      "type" : "Feature",
      "geometry" : {
        "type" : "Point",
        "coordinates" : [
          121.562456,
          25.058057999999999
        ]
      }
    },
    {
      "id" : "E527A2B0-1355-42E7-AB92-D0736A5F1BC2",
      "properties" : {
        "name" : "素法食堂",
        "address" : "台北市松山區民生東路四段103號"
      },
      "type" : "Feature",
      "geometry" : {
        "type" : "Point",
        "coordinates" : [
          121.552502,
          25.058195999999999
        ]
      }
    },
    {
      "id" : "0A54E1E3-9FC9-4053-8907-83EC77D9DB64",
      "properties" : {
        "name" : "徽姑娘北方麵飯",
        "address" : "台北市內湖區瑞光路251號"
      },
      "type" : "Feature",
      "geometry" : {
        "type" : "Point",
        "coordinates" : [
          121.577825,
          25.074777999999998
        ]
      }
    },
    {
      "id" : "D6F0CCCB-6B0B-4AA5-BF9A-72901FD6730D",
      "properties" : {
        "name" : "寶菇燒 Mushyaki",
        "address" : "台北市士林區小東街18號"
      },
      "type" : "Feature",
      "geometry" : {
        "type" : "Point",
        "coordinates" : [
          121.526218,
          25.089036
        ]
      }
    },
    {
      "id" : "5FAB4966-6A1C-49C3-A893-8D43C25510C1",
      "properties" : {
        "name" : "如軒",
        "address" : "台北市信義區忠孝東路五段524巷5弄2號"
      },
      "type" : "Feature",
      "geometry" : {
        "type" : "Point",
        "coordinates" : [
          121.58002399999999,
          25.040399000000001
        ]
      }
    },
    {
      "id" : "1421C023-86ED-407B-A039-D41BAF3C289B",
      "properties" : {
        "name" : "禾丰蔬食",
        "address" : "台北市北投區裕民四路5號"
      },
      "type" : "Feature",
      "geometry" : {
        "type" : "Point",
        "coordinates" : [
          121.516041,
          25.115569000000001
        ]
      }
    },
    {
      "id" : "E295D313-D063-4B92-8594-7B067FCCAC64",
      "properties" : {
        "name" : "祥光健康美食",
        "address" : "台北市萬華區西園路一段168號"
      },
      "type" : "Feature",
      "geometry" : {
        "type" : "Point",
        "coordinates" : [
          121.499252,
          25.036818
        ]
      }
    },
    {
      "id" : "FDC6F560-A6A4-4331-99F6-9F857255F9F8",
      "properties" : {
        "name" : "幸福蔬食餐坊",
        "address" : "台北市士林區格致路14號"
      },
      "type" : "Feature",
      "geometry" : {
        "type" : "Point",
        "coordinates" : [
          121.54639400000001,
          25.136348000000002
        ]
      }
    },
    {
      "id" : "444C2999-2267-43FA-8992-30A847253E28",
      "properties" : {
        "name" : "聖恩素料",
        "address" : "台北市大同區民生西路322號"
      },
      "type" : "Feature",
      "geometry" : {
        "type" : "Point",
        "coordinates" : [
          121.5114179,
          25.056862800000001
        ]
      }
    },
    {
      "id" : "68D0216D-DD09-4C01-A842-351E130BAC3D",
      "properties" : {
        "name" : "台北奧萬大",
        "address" : "台北市士林區平菁街10巷13號"
      },
      "type" : "Feature",
      "geometry" : {
        "type" : "Point",
        "coordinates" : [
          121.57068599999999,
          25.142465000000001
        ]
      }
    },
    {
      "id" : "A668363D-7FC2-4D3B-9249-8A3815099ADF",
      "properties" : {
        "name" : "合家素食點心",
        "address" : "台北市中山區北安路575號"
      },
      "type" : "Feature",
      "geometry" : {
        "type" : "Point",
        "coordinates" : [
          121.548484,
          25.081391
        ]
      }
    },
    {
      "id" : "1A1E17A7-E247-479A-8A4D-8946F7983AF1",
      "properties" : {
        "name" : "淨光素食",
        "address" : "台北市北投區崇仁路一段82-1號"
      },
      "type" : "Feature",
      "geometry" : {
        "type" : "Point",
        "coordinates" : [
          121.50152300000001,
          25.125917999999999
        ]
      }
    },
    {
      "id" : "5B4CCB14-C7F5-46A8-ABDB-1F25181DE7F9",
      "properties" : {
        "name" : "尊上食坊",
        "address" : "台北市南港區南港路一段84號"
      },
      "type" : "Feature",
      "geometry" : {
        "type" : "Point",
        "coordinates" : [
          121.61439729999999,
          25.055342199999998
        ]
      }
    },
    {
      "id" : "9C661C30-4AA2-48CD-83A2-C5E63C546693",
      "properties" : {
        "name" : "元氣蒸炸臭豆腐",
        "address" : "台北市士林區天母東路50巷20-13號"
      },
      "type" : "Feature",
      "geometry" : {
        "type" : "Point",
        "coordinates" : [
          121.53316409999999,
          25.117426500000001
        ]
      }
    },
    {
      "id" : "F99289ED-BAA2-4992-9F91-EDB266886B34",
      "properties" : {
        "name" : "泓得素食坊",
        "address" : "台北市中正區南昌路二段163號"
      },
      "type" : "Feature",
      "geometry" : {
        "type" : "Point",
        "coordinates" : [
          121.522694,
          25.025711000000001
        ]
      }
    },
    {
      "id" : "7BA8BC6D-F09B-4E9A-BCB9-C14E62041800",
      "properties" : {
        "name" : "享滋教學廚房",
        "address" : "台北市松山區民生東路五段200號"
      },
      "type" : "Feature",
      "geometry" : {
        "type" : "Point",
        "coordinates" : [
          121.564527,
          25.058706000000001
        ]
      }
    },
    {
      "id" : "9BCE868A-E092-4D3A-94BD-0C21A1CDAA64",
      "properties" : {
        "name" : "吉園素食坊 - 養生藥膳",
        "address" : "台北市大安區市民大道三段140號"
      },
      "type" : "Feature",
      "geometry" : {
        "type" : "Point",
        "coordinates" : [
          120.587631,
          24.343485000000001
        ]
      }
    },
    {
      "id" : "E6B56F18-962A-4E7C-916E-5C9E62CF9046",
      "properties" : {
        "name" : "寬心園精緻蔬食料理",
        "address" : "台北市士林區天母西路9號"
      },
      "type" : "Feature",
      "geometry" : {
        "type" : "Point",
        "coordinates" : [
          121.52891200000001,
          25.118527
        ]
      }
    },
    {
      "id" : "A3A3D7FF-12AC-4BC3-9D87-04ABB12E766E",
      "properties" : {
        "name" : "札西德勒",
        "address" : "台北市士林區社子街63巷1號"
      },
      "type" : "Feature",
      "geometry" : {
        "type" : "Point",
        "coordinates" : [
          121.50700500000001,
          25.087683999999999
        ]
      }
    },
    {
      "id" : "C95F6C57-2E60-4802-B0F7-5EBAB19BC0B9",
      "properties" : {
        "name" : "大禾養生素食",
        "address" : "台北市文山區木柵路二段199號"
      },
      "type" : "Feature",
      "geometry" : {
        "type" : "Point",
        "coordinates" : [
          121.563858,
          24.988873999999999
        ]
      }
    },
    {
      "id" : "A3DE7B43-4E93-46F0-A303-13DFEAE628C7",
      "properties" : {
        "name" : "緣田素食",
        "address" : "台北市士林區中正路282號"
      },
      "type" : "Feature",
      "geometry" : {
        "type" : "Point",
        "coordinates" : [
          121.52376099999999,
          25.094998
        ]
      }
    },
    {
      "id" : "B49EA26B-B23D-48B9-9EF9-2031C6740E10",
      "properties" : {
        "name" : "基隆李記古早味麵粉煎",
        "address" : "台北市內湖區內湖路一段737巷16號"
      },
      "type" : "Feature",
      "geometry" : {
        "type" : "Point",
        "coordinates" : [
          121.57844,
          25.079616000000001
        ]
      }
    },
    {
      "id" : "70D719C2-2D9E-465B-B25A-4F00428C8CF6",
      "properties" : {
        "name" : "財寶素食",
        "address" : "台北市大同區昌吉街55號"
      },
      "type" : "Feature",
      "geometry" : {
        "type" : "Point",
        "coordinates" : [
          121.51565100000001,
          25.066008
        ]
      }
    },
    {
      "id" : "F56AA612-EDBC-49C1-B63C-0F350B2959F1",
      "properties" : {
        "name" : "阿妹手工包子",
        "address" : "台北市士林區福志路5號"
      },
      "type" : "Feature",
      "geometry" : {
        "type" : "Point",
        "coordinates" : [
          121.53209699999999,
          25.098253
        ]
      }
    },
    {
      "id" : "0C45225B-BC94-461C-BFAF-3C4E477F4F39",
      "properties" : {
        "name" : "祥和素食茶飲",
        "address" : "台北市北投區中央南路二段79號"
      },
      "type" : "Feature",
      "geometry" : {
        "type" : "Point",
        "coordinates" : [
          121.500213,
          25.122699000000001
        ]
      }
    },
    {
      "id" : "13A229EC-F70E-4D2C-B2B7-41E712215124",
      "properties" : {
        "name" : "素食小吃",
        "address" : "台北市中正區臨沂街33巷36-2號"
      },
      "type" : "Feature",
      "geometry" : {
        "type" : "Point",
        "coordinates" : [
          121.53151,
          25.039721
        ]
      }
    },
    {
      "id" : "B6ED2DFB-A987-4142-8FF3-52D845F76AB6",
      "properties" : {
        "name" : "天使森林",
        "address" : "台北市中山區濱江街16號"
      },
      "type" : "Feature",
      "geometry" : {
        "type" : "Point",
        "coordinates" : [
          121.52978229999999,
          25.071135000000002
        ]
      }
    },
    {
      "id" : "6D36183E-FDEF-46C9-B8CF-7B8355D6BA02",
      "properties" : {
        "name" : "明德素食園",
        "address" : "台北市內湖區成功路二段325號"
      },
      "type" : "Feature",
      "geometry" : {
        "type" : "Point",
        "coordinates" : [
          121.59053299999999,
          25.070924999999999
        ]
      }
    },
    {
      "id" : "A041BCC1-53F1-493B-AD44-7C540C8B97B9",
      "properties" : {
        "name" : "素德蔬食",
        "address" : "台北市大安區羅斯福路三段283巷21號"
      },
      "type" : "Feature",
      "geometry" : {
        "type" : "Point",
        "coordinates" : [
          121.531679,
          25.019871999999999
        ]
      }
    },
    {
      "id" : "4CE8818C-B431-450F-96E6-42F19B11AA31",
      "properties" : {
        "name" : "麗福素食",
        "address" : "台北市大同區華陰街147號"
      },
      "type" : "Feature",
      "geometry" : {
        "type" : "Point",
        "coordinates" : [
          121.515928,
          25.050146000000002
        ]
      }
    },
    {
      "id" : "7AC3B72E-4CEE-442E-BEB7-2D3C8BBB6FE7",
      "properties" : {
        "name" : "FS cafe",
        "address" : "台北市大安區延吉街138巷3號"
      },
      "type" : "Feature",
      "geometry" : {
        "type" : "Point",
        "coordinates" : [
          121.554638,
          25.039693
        ]
      }
    },
    {
      "id" : "4EDC35E3-D85F-4932-87DB-A9EBB7F22D07",
      "properties" : {
        "name" : "天然之味",
        "address" : "台北市松山區八德路二段424號"
      },
      "type" : "Feature",
      "geometry" : {
        "type" : "Point",
        "coordinates" : [
          121.54730499999999,
          25.048027999999999
        ]
      }
    },
    {
      "id" : "C1BD99C4-B62D-49CB-9FEA-600A22D32FB3",
      "properties" : {
        "name" : "淨心素食",
        "address" : "台北市中山區龍江路417號"
      },
      "type" : "Feature",
      "geometry" : {
        "type" : "Point",
        "coordinates" : [
          121.541099,
          25.066497999999999
        ]
      }
    },
    {
      "id" : "E18AA318-CD99-4A0E-A82D-977772CBDF21",
      "properties" : {
        "name" : "VEGE CREEK",
        "address" : "台北市信義區信義路五段7號"
      },
      "type" : "Feature",
      "geometry" : {
        "type" : "Point",
        "coordinates" : [
          121.564891,
          25.033097999999999
        ]
      }
    },
    {
      "id" : "413C3E2E-FF21-4B52-B157-7ED48D1F0266",
      "properties" : {
        "name" : "一間咖啡",
        "address" : "台北市中正區博愛路130號"
      },
      "type" : "Feature",
      "geometry" : {
        "type" : "Point",
        "coordinates" : [
          121.511359,
          25.043161999999999
        ]
      }
    },
    {
      "id" : "07E6B474-CFFB-4774-8FB8-B60B68B66FCA",
      "properties" : {
        "name" : "Nice Cream",
        "address" : "台北市大安區忠孝東路4段181巷40弄6號"
      },
      "type" : "Feature",
      "geometry" : {
        "type" : "Point",
        "coordinates" : [
          121.55046299999999,
          25.043890999999999
        ]
      }
    },
    {
      "id" : "D21C91FC-7641-4A60-A5AB-87784ECC237C",
      "properties" : {
        "name" : "菲姐蔬食",
        "address" : "台北市中山區松江路365號"
      },
      "type" : "Feature",
      "geometry" : {
        "type" : "Point",
        "coordinates" : [
          121.53345210000001,
          25.064027400000001
        ]
      }
    },
    {
      "id" : "0D6EAF63-B9B8-4C03-81BA-682395C776AF",
      "properties" : {
        "name" : "逢甲Cia Cia fu甘梅薯條",
        "address" : "台北市文山區景美街44號"
      },
      "type" : "Feature",
      "geometry" : {
        "type" : "Point",
        "coordinates" : [
          121.54168799999999,
          24.990729999999999
        ]
      }
    },
    {
      "id" : "56F88CBD-731A-4B3A-8287-3F11A96EB81D",
      "properties" : {
        "name" : "紫竹林素食自助餐",
        "address" : "台北市北投區石牌路二段99巷7號"
      },
      "type" : "Feature",
      "geometry" : {
        "type" : "Point",
        "coordinates" : [
          121.516604,
          25.117857999999998
        ]
      }
    },
    {
      "id" : "B65302D6-E0EB-4537-B8DD-E56655BB42F9",
      "properties" : {
        "name" : "公館素食鹹酥雞",
        "address" : "台北市中正區羅斯福路四段108巷4號"
      },
      "type" : "Feature",
      "geometry" : {
        "type" : "Point",
        "coordinates" : [
          121.535253,
          25.013209
        ]
      }
    },
    {
      "id" : "8366A7F2-CD38-4C20-9A63-BB88F71CB5BF",
      "properties" : {
        "name" : "廣誠素膳",
        "address" : "台北市信義區信義路六段116號"
      },
      "type" : "Feature",
      "geometry" : {
        "type" : "Point",
        "coordinates" : [
          121.578132,
          25.036052999999999
        ]
      }
    },
    {
      "id" : "ADE379ED-E198-48FF-A188-F88B4AE83404",
      "properties" : {
        "name" : "創義麵",
        "address" : "台北市士林區美德街32號"
      },
      "type" : "Feature",
      "geometry" : {
        "type" : "Point",
        "coordinates" : [
          121.525412,
          25.094646000000001
        ]
      }
    },
    {
      "id" : "7334166E-0934-42CF-858D-B9F338BF2600",
      "properties" : {
        "name" : "齊芯蔬食坊",
        "address" : "台北市中山區四平街38號"
      },
      "type" : "Feature",
      "geometry" : {
        "type" : "Point",
        "coordinates" : [
          121.532077,
          25.053515999999998
        ]
      }
    },
    {
      "id" : "BE7DEDE4-BAF4-465D-8216-77F7F34986A2",
      "properties" : {
        "name" : "玉香齋",
        "address" : "台北市信義區忠孝東路四段553巷2弄1號"
      },
      "type" : "Feature",
      "geometry" : {
        "type" : "Point",
        "coordinates" : [
          121.562884,
          25.042012
        ]
      }
    },
    {
      "id" : "B32193D1-8E23-44B4-89E8-8D2126064821",
      "properties" : {
        "name" : "食穗有機蔬食料理",
        "address" : "台北市士林區士東路100號"
      },
      "type" : "Feature",
      "geometry" : {
        "type" : "Point",
        "coordinates" : [
          121.529437,
          25.112003999999999
        ]
      }
    },
    {
      "id" : "9E11DBAD-EC86-4467-8FDA-60B23429F6ED",
      "properties" : {
        "name" : "郭家素食壽司",
        "address" : "台北市信義區福德街219號"
      },
      "type" : "Feature",
      "geometry" : {
        "type" : "Point",
        "coordinates" : [
          121.584817,
          25.038411
        ]
      }
    },
    {
      "id" : "4532EE17-18C6-4AC9-935D-AF8DE1607B99",
      "properties" : {
        "name" : "Tree. Pizza樹披薩",
        "address" : "台北市松山區民生東路三段113巷25弄7號"
      },
      "type" : "Feature",
      "geometry" : {
        "type" : "Point",
        "coordinates" : [
          121.54643299999999,
          25.059899000000001
        ]
      }
    },
    {
      "id" : "A7DE3582-1600-43FA-BBED-A239938D27E5",
      "properties" : {
        "name" : "波蜜素食小吃館",
        "address" : "台北市內湖區江南街65巷41號"
      },
      "type" : "Feature",
      "geometry" : {
        "type" : "Point",
        "coordinates" : [
          121.578749,
          25.076744000000001
        ]
      }
    },
    {
      "id" : "7AFD1192-9439-40B9-930B-510A60D6218F",
      "properties" : {
        "name" : "VEGE CREEK蔬河",
        "address" : "台北市信義區松壽路11號"
      },
      "type" : "Feature",
      "geometry" : {
        "type" : "Point",
        "coordinates" : [
          121.56723599999999,
          25.036024000000001
        ]
      }
    },
    {
      "id" : "6B2C142F-F9BD-4D41-ABE2-130593EBD428",
      "properties" : {
        "name" : "Dela1010 Kaffee",
        "address" : "台北市松山區南京東路五段250巷2弄39號"
      },
      "type" : "Feature",
      "geometry" : {
        "type" : "Point",
        "coordinates" : [
          121.56826700000001,
          25.050754999999999
        ]
      }
    },
    {
      "id" : "E61A5D33-A004-48E2-BE97-15620CA02962",
      "properties" : {
        "name" : "豪緣素食館",
        "address" : "台北市中山區北安路458巷41弄23號"
      },
      "type" : "Feature",
      "geometry" : {
        "type" : "Point",
        "coordinates" : [
          121.545869,
          25.078916
        ]
      }
    },
    {
      "id" : "42B3FB99-A5E9-4D47-817C-D5F0A9E4918E",
      "properties" : {
        "name" : "寶堡手作創意美食",
        "address" : "台北市北投區中央南路一段212號"
      },
      "type" : "Feature",
      "geometry" : {
        "type" : "Point",
        "coordinates" : [
          121.501017,
          25.128264000000001
        ]
      }
    },
    {
      "id" : "CE56A2D5-5B29-41A0-9849-808825899290",
      "properties" : {
        "name" : "Royal Pizza 皇家窯烤比薩",
        "address" : "台北市內湖區康寧路三段72號"
      },
      "type" : "Feature",
      "geometry" : {
        "type" : "Point",
        "coordinates" : [
          121.6112737,
          25.070210199999998
        ]
      }
    },
    {
      "id" : "5E1EB2E0-F6A1-4B57-A167-5A9900E2254D",
      "properties" : {
        "name" : "天百味素食坊",
        "address" : "台北市南港區東新街80巷5號"
      },
      "type" : "Feature",
      "geometry" : {
        "type" : "Point",
        "coordinates" : [
          121.58721,
          25.045995999999999
        ]
      }
    },
    {
      "id" : "CB13AEFD-88A7-434E-8C8E-3FF5E79BA824",
      "properties" : {
        "name" : "淨光素食",
        "address" : "台北市文山區木新路三段315號"
      },
      "type" : "Feature",
      "geometry" : {
        "type" : "Point",
        "coordinates" : [
          121.556766,
          24.980588999999998
        ]
      }
    },
    {
      "id" : "62F918A4-869E-4449-8465-7E114E2647C0",
      "properties" : {
        "name" : "巧吉坊",
        "address" : "台北市大同區民權西路159號"
      },
      "type" : "Feature",
      "geometry" : {
        "type" : "Point",
        "coordinates" : [
          121.516248,
          25.063144000000001
        ]
      }
    },
    {
      "id" : "0A99CFB6-2DDC-45FF-9508-0F9447061298",
      "properties" : {
        "name" : "馬友友印度廚房",
        "address" : "台北市中山區新生北路一段38號"
      },
      "type" : "Feature",
      "geometry" : {
        "type" : "Point",
        "coordinates" : [
          121.531525,
          25.046240000000001
        ]
      }
    },
    {
      "id" : "C1614644-2E62-47E4-B40E-9FBD88675246",
      "properties" : {
        "name" : "圓和素鍋",
        "address" : "台北市大同區昌吉街47號"
      },
      "type" : "Feature",
      "geometry" : {
        "type" : "Point",
        "coordinates" : [
          121.516362,
          25.065999000000001
        ]
      }
    },
    {
      "id" : "637223EC-C883-4447-B7D0-80738825FDA8",
      "properties" : {
        "name" : "明德素食園",
        "address" : "台北市大安區仁愛路四段300巷17弄3號"
      },
      "type" : "Feature",
      "geometry" : {
        "type" : "Point",
        "coordinates" : [
          121.554934,
          25.036753999999998
        ]
      }
    },
    {
      "id" : "A23C4559-0228-41A2-8B60-1FF7A12DF8B8",
      "properties" : {
        "name" : "夏媽媽素食",
        "address" : "台北市內湖區東湖路106巷7弄2號"
      },
      "type" : "Feature",
      "geometry" : {
        "type" : "Point",
        "coordinates" : [
          121.614919,
          25.067898
        ]
      }
    },
    {
      "id" : "A0F4882A-4E3D-44AC-A533-F53114E5882E",
      "properties" : {
        "name" : "竹里館",
        "address" : "台北市松山區民生東路三段113巷6弄15號"
      },
      "type" : "Feature",
      "geometry" : {
        "type" : "Point",
        "coordinates" : [
          121.545343,
          25.058669999999999
        ]
      }
    },
    {
      "id" : "709A46BE-A703-4CBD-9975-D1B92B7A65FC",
      "properties" : {
        "name" : "祥緣素食",
        "address" : "台北市士林區美崙街22號"
      },
      "type" : "Feature",
      "geometry" : {
        "type" : "Point",
        "coordinates" : [
          121.523111,
          25.097248
        ]
      }
    },
    {
      "id" : "805C4C8A-1729-4D83-976D-F149A182A74C",
      "properties" : {
        "name" : "釋道素食",
        "address" : "台北市大安區敦化南路二段11巷16號"
      },
      "type" : "Feature",
      "geometry" : {
        "type" : "Point",
        "coordinates" : [
          121.5499207,
          25.032737699999998
        ]
      }
    },
    {
      "id" : "2736A688-088C-4B64-959C-D09BD47AB355",
      "properties" : {
        "name" : "永青素食點心坊",
        "address" : "台北市內湖區東湖路141號"
      },
      "type" : "Feature",
      "geometry" : {
        "type" : "Point",
        "coordinates" : [
          121.617006,
          25.068209
        ]
      }
    },
    {
      "id" : "B177417E-618D-4A63-8BF5-651A1549B27B",
      "properties" : {
        "name" : "上味相素食",
        "address" : "台北市北投區西安街二段89號"
      },
      "type" : "Feature",
      "geometry" : {
        "type" : "Point",
        "coordinates" : [
          121.512953,
          25.117668999999999
        ]
      }
    },
    {
      "id" : "357CD0F2-9E55-472B-821D-66B0B626DC9C",
      "properties" : {
        "name" : "FALAFEL KING",
        "address" : "台北市大安區師大路59巷12號"
      },
      "type" : "Feature",
      "geometry" : {
        "type" : "Point",
        "coordinates" : [
          121.529173,
          25.023878
        ]
      }
    },
    {
      "id" : "D5F64094-3710-4E15-8948-B99609C93824",
      "properties" : {
        "name" : "新鮮豆漿店",
        "address" : "台北市大安區潮州街35號"
      },
      "type" : "Feature",
      "geometry" : {
        "type" : "Point",
        "coordinates" : [
          121.523295,
          25.029468000000001
        ]
      }
    },
    {
      "id" : "EAEDFFE9-B8F0-4775-B2E7-70BCFFD1A7F5",
      "properties" : {
        "name" : "客來源素坊",
        "address" : "台北市中正區南昌路二段221號"
      },
      "type" : "Feature",
      "geometry" : {
        "type" : "Point",
        "coordinates" : [
          121.52396899999999,
          25.024615000000001
        ]
      }
    },
    {
      "id" : "0FE71FE2-BAA6-4E63-A606-E2AAA0FBB486",
      "properties" : {
        "name" : "素食麵線",
        "address" : "台北市中正區羅斯福路四段92號"
      },
      "type" : "Feature",
      "geometry" : {
        "type" : "Point",
        "coordinates" : [
          121.53500699999999,
          25.013742000000001
        ]
      }
    },
    {
      "id" : "925B3A2C-F42A-44FC-9FC7-88D423FCB31B",
      "properties" : {
        "name" : "善菓屋Sharing Nature",
        "address" : "台北市中山區松江路99號"
      },
      "type" : "Feature",
      "geometry" : {
        "type" : "Point",
        "coordinates" : [
          121.5332196,
          25.051051000000001
        ]
      }
    },
    {
      "id" : "E8FA848C-82B7-49F6-9621-61B810CD3B5B",
      "properties" : {
        "name" : "Fortunate Coffee",
        "address" : "台北市中山區大直街52巷2號"
      },
      "type" : "Feature",
      "geometry" : {
        "type" : "Point",
        "coordinates" : [
          121.546004,
          25.082398999999999
        ]
      }
    },
    {
      "id" : "FF3D6E23-32FA-41D9-AB88-73E13F14423F",
      "properties" : {
        "name" : "沛瀅素食館",
        "address" : "台北市中山區吉林路199巷26號"
      },
      "type" : "Feature",
      "geometry" : {
        "type" : "Point",
        "coordinates" : [
          121.53155099999999,
          25.059819000000001
        ]
      }
    },
    {
      "id" : "807B601C-606E-4EB7-9396-EDE81E8944E5",
      "properties" : {
        "name" : "阿華涼糕",
        "address" : "台北市中山區建國南路一段14號"
      },
      "type" : "Feature",
      "geometry" : {
        "type" : "Point",
        "coordinates" : [
          121.536269,
          25.045159999999999
        ]
      }
    },
    {
      "id" : "D7A34FC2-524F-4816-9423-2344DC40AE68",
      "properties" : {
        "name" : "龍山素菜部",
        "address" : "台北市萬華區西昌街216號"
      },
      "type" : "Feature",
      "geometry" : {
        "type" : "Point",
        "coordinates" : [
          121.50047600000001,
          25.037116999999999
        ]
      }
    },
    {
      "id" : "FF5BEB14-A405-4CAE-B44D-466B7B40C429",
      "properties" : {
        "name" : "穗科手打烏龍麵",
        "address" : "台北市松山區復興北路323號"
      },
      "type" : "Feature",
      "geometry" : {
        "type" : "Point",
        "coordinates" : [
          121.544192,
          25.048050499999999
        ]
      }
    },
    {
      "id" : "D261275F-0FEE-4C6B-9999-2B141A010EF6",
      "properties" : {
        "name" : "我炸你吃",
        "address" : "台北市內湖區東湖路33巷3號"
      },
      "type" : "Feature",
      "geometry" : {
        "type" : "Point",
        "coordinates" : [
          121.613479,
          25.069102999999998
        ]
      }
    },
    {
      "id" : "A1D1F287-6B85-4746-AC30-9635C411BBC6",
      "properties" : {
        "name" : "通化街素食",
        "address" : "台北市大安區通化街39巷50弄4號"
      },
      "type" : "Feature",
      "geometry" : {
        "type" : "Point",
        "coordinates" : [
          121.555369,
          25.030764000000001
        ]
      }
    },
    {
      "id" : "2B144778-29DC-405D-841F-A23350B82BBD",
      "properties" : {
        "name" : "婷園堡素食坊",
        "address" : "台北市信義區福德街224號"
      },
      "type" : "Feature",
      "geometry" : {
        "type" : "Point",
        "coordinates" : [
          121.584609,
          25.038498000000001
        ]
      }
    },
    {
      "id" : "41B0CC8E-9A04-4351-A2E7-2D6FCDE19A95",
      "properties" : {
        "name" : "加佳素餅",
        "address" : "台北市士林區中正路358號"
      },
      "type" : "Feature",
      "geometry" : {
        "type" : "Point",
        "coordinates" : [
          121.521344,
          25.094407
        ]
      }
    },
    {
      "id" : "EC02AE3E-262F-4C70-A9E6-6E34271BB98B",
      "properties" : {
        "name" : "爆漿燒烤杏鮑菇",
        "address" : "台北市士林區文林路101巷3-2號"
      },
      "type" : "Feature",
      "geometry" : {
        "type" : "Point",
        "coordinates" : [
          121.525704,
          25.08774
        ]
      }
    },
    {
      "id" : "1E85A29A-8F9A-49D5-ACDF-414C66D792AF",
      "properties" : {
        "name" : "觀世音菩薩素食",
        "address" : "台北市南港區昆陽街155號"
      },
      "type" : "Feature",
      "geometry" : {
        "type" : "Point",
        "coordinates" : [
          121.594371,
          25.049925999999999
        ]
      }
    },
    {
      "id" : "C56BD9ED-EC68-49BD-B4D9-5FC12963A462",
      "properties" : {
        "name" : "蓮池閣素食餐廳",
        "address" : "台北市大安區信義路四段153號"
      },
      "type" : "Feature",
      "geometry" : {
        "type" : "Point",
        "coordinates" : [
          121.549898,
          25.033417
        ]
      }
    },
    {
      "id" : "45BA88FE-34B6-4BA2-85C6-F1275EB9EB05",
      "properties" : {
        "name" : "香屋咖啡",
        "address" : "台北市文山區木新路三段65號"
      },
      "type" : "Feature",
      "geometry" : {
        "type" : "Point",
        "coordinates" : [
          121.56373499999999,
          24.982284
        ]
      }
    },
    {
      "id" : "2891584E-EB1F-4F18-8002-DCCF82E7C996",
      "properties" : {
        "name" : "天善素苑",
        "address" : "台北市中山區天祥路48巷35號"
      },
      "type" : "Feature",
      "geometry" : {
        "type" : "Point",
        "coordinates" : [
          121.51999000000001,
          25.061964
        ]
      }
    },
    {
      "id" : "F2FAA556-2E16-47FA-A650-B671F59D0ACE",
      "properties" : {
        "name" : "社子清粥小菜",
        "address" : "台北市士林區延平北路六段67號"
      },
      "type" : "Feature",
      "geometry" : {
        "type" : "Point",
        "coordinates" : [
          121.508735,
          25.087934000000001
        ]
      }
    },
    {
      "id" : "561CDF81-EFE7-4B5C-8AC8-99B38C8862A4",
      "properties" : {
        "name" : "水巷茶弄",
        "address" : "台北市信義區吳興街135號"
      },
      "type" : "Feature",
      "geometry" : {
        "type" : "Point",
        "coordinates" : [
          121.56174300000001,
          25.029512
        ]
      }
    },
    {
      "id" : "9078D478-42A8-45E7-9F57-3EE7172ECA0B",
      "properties" : {
        "name" : "二吉軒豆乳",
        "address" : "台北市大安區金華街223-13號"
      },
      "type" : "Feature",
      "geometry" : {
        "type" : "Point",
        "coordinates" : [
          121.52929330000001,
          25.029850100000001
        ]
      }
    },
    {
      "id" : "04C5D34F-10F2-474D-8B60-D151756CD6D5",
      "properties" : {
        "name" : "初壹十五",
        "address" : "台北市大安區敦化南路一段160巷4號"
      },
      "type" : "Feature",
      "geometry" : {
        "type" : "Point",
        "coordinates" : [
          121.548264,
          25.043472999999999
        ]
      }
    },
    {
      "id" : "A393E513-D8D6-46B7-8F88-863D8B8066E0",
      "properties" : {
        "name" : "老實素",
        "address" : "台北市中正區衡陽路84巷4號"
      },
      "type" : "Feature",
      "geometry" : {
        "type" : "Point",
        "coordinates" : [
          121.510931,
          25.042138999999999
        ]
      }
    },
    {
      "id" : "4FDBD853-473F-469F-B90B-1D5934AAB7BE",
      "properties" : {
        "name" : "三福好味素食",
        "address" : "台北市信義區中坡南路166號"
      },
      "type" : "Feature",
      "geometry" : {
        "type" : "Point",
        "coordinates" : [
          121.5840645,
          25.039299499999998
        ]
      }
    },
    {
      "id" : "1A786AD8-B57C-494C-97F0-671291A05DEC",
      "properties" : {
        "name" : "享味素食漢堡",
        "address" : "台北市南港區市民大道八段600號"
      },
      "type" : "Feature",
      "geometry" : {
        "type" : "Point",
        "coordinates" : [
          121.615303,
          25.054209
        ]
      }
    },
    {
      "id" : "7CEAD1D0-A7F2-4BF2-B4BD-35E8BF3EF79D",
      "properties" : {
        "name" : "素食",
        "address" : "台北市大安區忠孝東路四段216巷40弄1號"
      },
      "type" : "Feature",
      "geometry" : {
        "type" : "Point",
        "coordinates" : [
          121.552728,
          25.039522000000002
        ]
      }
    },
    {
      "id" : "1F7BAE76-F5F9-4EA9-AE48-EF25154E1526",
      "properties" : {
        "name" : "宸燕素食便當",
        "address" : "台北市內湖區內湖路一段411巷4號"
      },
      "type" : "Feature",
      "geometry" : {
        "type" : "Point",
        "coordinates" : [
          121.57086,
          25.081990000000001
        ]
      }
    },
    {
      "id" : "164FB2F1-9FCD-4249-AAE8-E74D34106B7C",
      "properties" : {
        "name" : "明德素食園",
        "address" : "台北市大安區建國南路二段151巷30號"
      },
      "type" : "Feature",
      "geometry" : {
        "type" : "Point",
        "coordinates" : [
          121.53910500000001,
          25.028662000000001
        ]
      }
    },
    {
      "id" : "2FC2CFA7-05C9-494C-8CB0-FC26A775343F",
      "properties" : {
        "name" : "寬心園",
        "address" : "台北市大安區仁愛路四段345巷4弄51號"
      },
      "type" : "Feature",
      "geometry" : {
        "type" : "Point",
        "coordinates" : [
          121.550898,
          25.039042999999999
        ]
      }
    },
    {
      "id" : "80831D6E-3E6E-42BF-AC09-F2561BD55A0A",
      "properties" : {
        "name" : "悅香人文空間",
        "address" : "台北市大同區重慶北路二段69號"
      },
      "type" : "Feature",
      "geometry" : {
        "type" : "Point",
        "coordinates" : [
          121.51415900000001,
          25.055828000000002
        ]
      }
    },
    {
      "id" : "D6C27158-E557-4852-BD3A-4A855F768810",
      "properties" : {
        "name" : "嬑茹的素食",
        "address" : "台北市士林區延平北路六段176巷6弄2號"
      },
      "type" : "Feature",
      "geometry" : {
        "type" : "Point",
        "coordinates" : [
          121.50623,
          25.089822999999999
        ]
      }
    },
    {
      "id" : "EC859BD2-89B5-4DD2-A6A5-65459FE8324A",
      "properties" : {
        "name" : "蓮園素食自助餐",
        "address" : "台北市松山區民生東路三段130巷5弄8號"
      },
      "type" : "Feature",
      "geometry" : {
        "type" : "Point",
        "coordinates" : [
          121.546581,
          25.056912000000001
        ]
      }
    },
    {
      "id" : "55B7E1EE-9930-4E21-A88F-B3E8D6F6D9B1",
      "properties" : {
        "name" : "福緣素食館",
        "address" : "台北市中正區延平南路157巷1號"
      },
      "type" : "Feature",
      "geometry" : {
        "type" : "Point",
        "coordinates" : [
          121.507884,
          25.035419000000001
        ]
      }
    },
    {
      "id" : "52AF0017-5DC4-4617-870E-F0605B72ED52",
      "properties" : {
        "name" : "如來素食樂園",
        "address" : "台北市中正區羅斯福路三段284巷3號"
      },
      "type" : "Feature",
      "geometry" : {
        "type" : "Point",
        "coordinates" : [
          121.531946,
          25.016286999999998
        ]
      }
    },
    {
      "id" : "92EDBA2F-7B4E-4869-BACD-0B9DA49DB7A9",
      "properties" : {
        "name" : "水問蔬食園",
        "address" : "台北市中山區松江路275號"
      },
      "type" : "Feature",
      "geometry" : {
        "type" : "Point",
        "coordinates" : [
          121.533452,
          25.059985000000001
        ]
      }
    },
    {
      "id" : "671A288B-B6E1-4194-94B0-09824C70025B",
      "properties" : {
        "name" : "善緣素食店",
        "address" : "台北市大同區華陰街169號"
      },
      "type" : "Feature",
      "geometry" : {
        "type" : "Point",
        "coordinates" : [
          121.51552599999999,
          25.050245
        ]
      }
    },
    {
      "id" : "3DACB17F-7C76-4469-B578-4F812B274613",
      "properties" : {
        "name" : "滴水坊",
        "address" : "台北市信義區松隆路327號"
      },
      "type" : "Feature",
      "geometry" : {
        "type" : "Point",
        "coordinates" : [
          121.57910699999999,
          25.048476000000001
        ]
      }
    },
    {
      "id" : "F05E9060-A85D-4E84-9BE1-E9B3EEBA2276",
      "properties" : {
        "name" : "你最滷‧木子可蔬食滷味",
        "address" : "台北市信義區林口街2號"
      },
      "type" : "Feature",
      "geometry" : {
        "type" : "Point",
        "coordinates" : [
          121.579269,
          25.036474999999999
        ]
      }
    },
    {
      "id" : "BD406EA6-944A-4611-AD50-3B2FB96D425A",
      "properties" : {
        "name" : "天贊香養生蔬食府",
        "address" : "台北市大同區延平北路四段50號"
      },
      "type" : "Feature",
      "geometry" : {
        "type" : "Point",
        "coordinates" : [
          121.51078,
          25.070187000000001
        ]
      }
    },
    {
      "id" : "7787C65D-7413-4DCA-B3C0-074BC98599AD",
      "properties" : {
        "name" : "旅沐咖啡",
        "address" : "台北市大安區通安街12號"
      },
      "type" : "Feature",
      "geometry" : {
        "type" : "Point",
        "coordinates" : [
          121.553202,
          25.032419999999998
        ]
      }
    },