{
  "type" : "FeatureCollection",
  "areaCode" : 350,
  "features" : [
    {
      "id" : "89595B92-49F3-41D6-B896-88681FA14083",
      "properties" : {
        "name" : "活力素食早餐",
        "address" : "苗栗縣苗栗市中山路778號"
      },
      "type" : "Feature",
      "geometry" : {
        "type" : "Point",
        "coordinates" : [
          120.81613400000001,
          24.555349
        ]
      }
    },
    {
      "id" : "4C4FD3BF-FA63-4142-B856-012B13EBC4FE",
      "properties" : {
        "name" : "素食緣",
        "address" : "苗栗縣頭份鎮建國路81號"
      },
      "type" : "Feature",
      "geometry" : {
        "type" : "Point",
        "coordinates" : [
          120.9124896,
          24.694059299999999
        ]
      }
    },
    {
      "id" : "8CBEF83F-197A-43CA-8589-EF6490E4718E",
      "properties" : {
        "name" : "素の素食館",
        "address" : "苗栗縣苑裡鎮天下路115號"
      },
      "type" : "Feature",
      "geometry" : {
        "type" : "Point",
        "coordinates" : [
          120.6531662,
          24.4439131
        ]
      }
    },
    {
      "id" : "9EADFE22-16CF-4DDB-96A3-00B3B88F846B",
      "properties" : {
        "name" : "隨緣素食",
        "address" : "苗栗縣苑裡鎮山柑裡4鄰50-5號"
      },
      "type" : "Feature",
      "geometry" : {
        "type" : "Point",
        "coordinates" : [
          120.653915,
          24.442623999999999
        ]
      }
    },
    {
      "id" : "44ECAED2-F1AF-48FC-B4B1-C81EC24C1836",
      "properties" : {
        "name" : "慈蓮蔬食坊",
        "address" : "苗栗縣銅鑼鄉新興路9號"
      },
      "type" : "Feature",
      "geometry" : {
        "type" : "Point",
        "coordinates" : [
          120.78751,
          24.486139999999999
        ]
      }
    },
    {
      "id" : "57FC3FEF-20DB-48A3-8180-834652912631",
      "properties" : {
        "name" : "美如香餅行",
        "address" : "苗栗縣苑裡鎮和平路39號"
      },
      "type" : "Feature",
      "geometry" : {
        "type" : "Point",
        "coordinates" : [
          120.655627,
          24.440345000000001
        ]
      }
    },
    {
      "id" : "20467559-1A01-41BB-ACF3-F9130B4DE955",
      "properties" : {
        "name" : "禪廚新蔬食料理",
        "address" : "苗栗縣頭屋鄉象山路188號"
      },
      "type" : "Feature",
      "geometry" : {
        "type" : "Point",
        "coordinates" : [
          120.8679984,
          24.579196700000001
        ]
      }
    },
    {
      "id" : "CC960C99-3A2A-4EDE-9F4C-778B944687B5",
      "properties" : {
        "name" : "仙山靈洞宮美食廣場 天然素食",
        "address" : "苗栗縣獅潭鄉新店村小東勢24號"
      },
      "type" : "Feature",
      "geometry" : {
        "type" : "Point",
        "coordinates" : [
          120.934876,
          24.539013000000001
        ]
      }
    },
    {
      "id" : "022E59EF-46E2-4207-A6BD-59CDB0376517",
      "properties" : {
        "name" : "喜樂廚房 - 竹南優質早餐",
        "address" : "苗栗縣竹南鎮照南路16號"
      },
      "type" : "Feature",
      "geometry" : {
        "type" : "Point",
        "coordinates" : [
          120.879169,
          24.695346000000001
        ]
      }
    },
    {
      "id" : "A4CA8F42-38DD-4EA6-9C7C-93A7DD56AB0A",
      "properties" : {
        "name" : "素食好鹽酥基滷味",
        "address" : "苗栗縣竹南鎮中正路97號"
      },
      "type" : "Feature",
      "geometry" : {
        "type" : "Point",
        "coordinates" : [
          120.87693,
          24.683691
        ]
      }
    },
    {
      "id" : "CA19354F-C4FB-460D-B5A9-C257368007B4",
      "properties" : {
        "name" : "十方香素食館",
        "address" : "苗栗縣苑裡鎮和平路171號"
      },
      "type" : "Feature",
      "geometry" : {
        "type" : "Point",
        "coordinates" : [
          120.65237500000001,
          24.441647
        ]
      }
    },
    {
      "id" : "A63ADE39-11D9-4473-BA5D-E8D7CE0A63BB",
      "properties" : {
        "name" : "百合素食",
        "address" : "苗栗縣頭份鎮中華路1110號"
      },
      "type" : "Feature",
      "geometry" : {
        "type" : "Point",
        "coordinates" : [
          120.912277,
          24.689253000000001
        ]
      }
    },
    {
      "id" : "6367F0B8-FBBD-454D-9783-A2040D2C896D",
      "properties" : {
        "name" : "宏仁素食坊",
        "address" : "苗栗縣竹南鎮中華路194號"
      },
      "type" : "Feature",
      "geometry" : {
        "type" : "Point",
        "coordinates" : [
          120.923574,
          24.711065000000001
        ]
      }
    },
    {
      "id" : "CB19FA97-11E6-4F6D-AF95-D13F0F5F68A1",
      "properties" : {
        "name" : "淨慧素食廚房",
        "address" : "苗栗縣三灣鄉博愛路114號"
      },
      "type" : "Feature",
      "geometry" : {
        "type" : "Point",
        "coordinates" : [
          120.95891,
          24.655930000000001
        ]
      }
    },
    {
      "id" : "0AB1E262-0E80-4D82-8BF1-65E3D9E16510",
      "properties" : {
        "name" : "好蒔蔬養生料理",
        "address" : "苗栗縣苗栗市中山路398號"
      },
      "type" : "Feature",
      "geometry" : {
        "type" : "Point",
        "coordinates" : [
          120.82164299999999,
          24.561038
        ]
      }
    },
    {
      "id" : "C29E03CD-7A04-4E12-A525-ACFBDA3B0BFF",
      "properties" : {
        "name" : "午棧",
        "address" : "苗栗縣南庄鄉中正路38號"
      },
      "type" : "Feature",
      "geometry" : {
        "type" : "Point",
        "coordinates" : [
          120.998885,
          24.599188999999999
        ]
      }
    },
    {
      "id" : "B2CE1620-B9B8-47D2-9590-95F8A46ED3E1",
      "properties" : {
        "name" : "阿雪早餐店",
        "address" : "苗栗縣竹南鎮中華路174號"
      },
      "type" : "Feature",
      "geometry" : {
        "type" : "Point",
        "coordinates" : [
          120.923982,
          24.710464000000002
        ]
      }
    },
    {
      "id" : "CB72874C-E82C-459B-8ACF-8FE23CC05DBF",
      "properties" : {
        "name" : "迴善園",
        "address" : "苗栗縣頭份鎮建國路42-1號"
      },
      "type" : "Feature",
      "geometry" : {
        "type" : "Point",
        "coordinates" : [
          120.9133413,
          24.693844599999998
        ]
      }
    },
    {
      "id" : "2E1D56AF-B228-4883-88C2-510CA8FB5E54",
      "properties" : {
        "name" : "香村養生早餐",
        "address" : "苗栗縣竹南鎮崁頂街86號"
      },
      "type" : "Feature",
      "geometry" : {
        "type" : "Point",
        "coordinates" : [
          120.883347,
          24.691309
        ]
      }
    },
    {
      "id" : "35D27D8F-6925-4F95-93FC-6363857FAB19",
      "properties" : {
        "name" : "古早味純手工米食",
        "address" : "苗栗縣獅潭鄉汶水老街47號"
      },
      "type" : "Feature",
      "geometry" : {
        "type" : "Point",
        "coordinates" : [
          120.876367,
          24.457345
        ]
      }
    },
    {
      "id" : "9D797B7F-BAA4-40AA-8F17-92D602A38F4C",
      "properties" : {
        "name" : "Mia 彌而蔬食人文館",
        "address" : "苗栗縣苗栗市新東街197號"
      },
      "type" : "Feature",
      "geometry" : {
        "type" : "Point",
        "coordinates" : [
          120.822439,
          24.550840000000001
        ]
      }
    },
    {
      "id" : "3A71E20C-83D8-4C35-A5D2-DDC60333FE93",
      "properties" : {
        "name" : "鄉根素食養生早點",
        "address" : "苗栗縣頭份鎮建國路26號"
      },
      "type" : "Feature",
      "geometry" : {
        "type" : "Point",
        "coordinates" : [
          120.9138425,
          24.6935501
        ]
      }
    },
    {
      "id" : "A572B6CF-2944-4D1B-9BD2-76B77ACECBA5",
      "properties" : {
        "name" : "安村蔬食",
        "address" : "苗栗縣頭份鎮信東路14號"
      },
      "type" : "Feature",
      "geometry" : {
        "type" : "Point",
        "coordinates" : [
          120.912154,
          24.685967000000002
        ]
      }
    },
    {
      "id" : "E39E174F-EDCF-491B-9074-82C9AE70FF4D",
      "properties" : {
        "name" : "感恩素食",
        "address" : "苗栗縣竹南鎮和平街3號"
      },
      "type" : "Feature",
      "geometry" : {
        "type" : "Point",
        "coordinates" : [
          120.87731599999999,
          24.683195999999999
        ]
      }
    },
    {
      "id" : "F70395BF-19DE-4EEC-96EF-EEBF8FC9E59F",
      "properties" : {
        "name" : "心素越式素食",
        "address" : "苗栗縣苑裡鎮信義路56號"
      },
      "type" : "Feature",
      "geometry" : {
        "type" : "Point",
        "coordinates" : [
          120.6548939,
          24.4423818
        ]
      }
    },
    {
      "id" : "997F648A-E005-48BF-B50E-CFC1E8EDE0BF",
      "properties" : {
        "name" : "隨心齋素食小吃",
        "address" : "苗栗縣通霄鎮仁愛路21-2號"
      },
      "type" : "Feature",
      "geometry" : {
        "type" : "Point",
        "coordinates" : [
          120.68082750000001,
          24.488428299999999
        ]
      }
    },
    {
      "id" : "AE562C6D-B2E7-4362-B8B6-C320C73979EF",
      "properties" : {
        "name" : "原味樸食-素食好味廚房",
        "address" : "苗栗縣頭份鎮仁愛路173號"
      },
      "type" : "Feature",
      "geometry" : {
        "type" : "Point",
        "coordinates" : [
          120.90731599999999,
          24.688984999999999
        ]
      }
    },
    {
      "id" : "BBDF9A66-1403-48DC-AA92-C6A6FA22A409",
      "properties" : {
        "name" : "良源素食坊",
        "address" : "苗栗縣苑裡鎮大同路30號"
      },
      "type" : "Feature",
      "geometry" : {
        "type" : "Point",
        "coordinates" : [
          120.6530394,
          24.4417996
        ]
      }
    },
    {
      "id" : "7CEC1D74-AA05-44FB-9F4A-CC8E646B3F9C",
      "properties" : {
        "name" : "歡喜素蔬食焗烤坊",
        "address" : "苗栗縣頭份鎮忠孝一路102號"
      },
      "type" : "Feature",
      "geometry" : {
        "type" : "Point",
        "coordinates" : [
          120.90863400000001,
          24.689875000000001
        ]
      }
    },
    {
      "id" : "76770DF8-D6DD-4869-8D15-5F3450B2C2BD",
      "properties" : {
        "name" : "森蔬食",
        "address" : "苗栗縣竹南鎮中山路64號"
      },
      "type" : "Feature",
      "geometry" : {
        "type" : "Point",
        "coordinates" : [
          120.87988,
          24.684572500000002
        ]
      }
    },
    {
      "id" : "B59840F9-C10D-494C-92F4-C45D0F905328",
      "properties" : {
        "name" : "阿斌蔬食料理",
        "address" : "苗栗縣卓蘭鎮中山路43號"
      },
      "type" : "Feature",
      "geometry" : {
        "type" : "Point",
        "coordinates" : [
          120.82805,
          24.310566999999999
        ]
      }
    },
    {
      "id" : "C06C76CC-4227-4C92-85C7-2D498B6C59EF",
      "properties" : {
        "name" : "詹媽媽素食點心",
        "address" : "苗栗縣銅鑼鄉中平村12鄰158-2號"
      },
      "type" : "Feature",
      "geometry" : {
        "type" : "Point",
        "coordinates" : [
          120.798177,
          24.518646
        ]
      }
    },
    {
      "id" : "799D5455-90CB-44DD-9931-729A6EB2F1AF",
      "properties" : {
        "name" : "純素 水煎包煎餃蒸餃",
        "address" : "苗栗縣苗栗市為公路60號"
      },
      "type" : "Feature",
      "geometry" : {
        "type" : "Point",
        "coordinates" : [
          120.824094,
          24.569772
        ]
      }
    },
    {
      "id" : "40CFC583-9F1E-4D06-9AEB-734A38759B1C",
      "properties" : {
        "name" : "喜素齋素食專賣店",
        "address" : "苗栗縣竹南鎮忠義街20號"
      },
      "type" : "Feature",
      "geometry" : {
        "type" : "Point",
        "coordinates" : [
          120.87454,
          24.688751
        ]
      }
    },
    {
      "id" : "57D1A49B-788E-4CCF-B83A-454C1E3964B6",
      "properties" : {
        "name" : "豪北素食水煎包",
        "address" : "苗栗縣通霄鎮仁愛路15號"
      },
      "type" : "Feature",
      "geometry" : {
        "type" : "Point",
        "coordinates" : [
          120.6806926,
          24.488243499999999
        ]
      }
    },
    {
      "id" : "4470A062-E94B-42DD-B6DE-BD21A23152DF",
      "properties" : {
        "name" : "黃健康素食",
        "address" : "苗栗縣卓蘭鎮民族路53號"
      },
      "type" : "Feature",
      "geometry" : {
        "type" : "Point",
        "coordinates" : [
          120.827263,
          24.312788999999999
        ]
      }
    },
    {
      "id" : "609C3FBE-C7ED-45AF-ADB1-B96CAEB7F3DE",
      "properties" : {
        "name" : "信東素食館",
        "address" : "苗栗縣頭份鎮信東路8鄰65號"
      },
      "type" : "Feature",
      "geometry" : {
        "type" : "Point",
        "coordinates" : [
          120.911208,
          24.686879999999999
        ]
      }
    },
    {
      "id" : "F8415018-D03F-4FE5-88FF-CEFB0ED74D4B",
      "properties" : {
        "name" : "素食水煎包",
        "address" : "苗栗縣竹南鎮光復路295號"
      },
      "type" : "Feature",
      "geometry" : {
        "type" : "Point",
        "coordinates" : [
          120.8791939,
          24.692722799999999
        ]
      }
    },
    {
      "id" : "20DD53B3-42AE-4C68-9A7E-5F169C0AE241",
      "properties" : {
        "name" : "Loving Hut",
        "address" : "苗栗縣苗栗市中正路1051號"
      },
      "type" : "Feature",
      "geometry" : {
        "type" : "Point",
        "coordinates" : [
          120.816351,
          24.548300999999999
        ]
      }
    },
    {
      "id" : "DBF97167-62B2-4FD5-98A4-C6247A0DF496",
      "properties" : {
        "name" : "苗栗里仁",
        "address" : "苗栗縣苗栗市北安街17號"
      },
      "type" : "Feature",
      "geometry" : {
        "type" : "Point",
        "coordinates" : [
          120.815218,
          24.561062
        ]
      }
    },
    {
      "id" : "695A2238-2E3F-4AC7-9A8A-CD81D70E2C69",
      "properties" : {
        "name" : "素食小吃",
        "address" : "苗栗縣竹南鎮光復路295號"
      },
      "type" : "Feature",
      "geometry" : {
        "type" : "Point",
        "coordinates" : [
          120.8791939,
          24.692722799999999
        ]
      }
    },
    {
      "id" : "C4902314-F967-4565-AE3C-B38C59942F5B",
      "properties" : {
        "name" : "異奇素食蛋糕麵包專賣店",
        "address" : "苗栗縣苗栗市中華路232號"
      },
      "type" : "Feature",
      "geometry" : {
        "type" : "Point",
        "coordinates" : [
          120.8247731,
          24.5769789
        ]
      }
    },
    {
      "id" : "D1E3DF47-66CB-47C1-A031-D2C5B39D3178",
      "properties" : {
        "name" : "健康素食",
        "address" : "苗栗縣公館鄉近光路75-3號"
      },
      "type" : "Feature",
      "geometry" : {
        "type" : "Point",
        "coordinates" : [
          120.82729399999999,
          24.502479000000001
        ]
      }
    },
    {
      "id" : "455BC28B-CE03-42D5-9398-CBA7256B3944",
      "properties" : {
        "name" : "法心素煮藝",
        "address" : "苗栗縣苗栗市大埔街57號"
      },
      "type" : "Feature",
      "geometry" : {
        "type" : "Point",
        "coordinates" : [
          120.8175758,
          24.561840799999999
        ]
      }
    },
    {
      "id" : "3ED6AB79-FDBA-41AC-969D-CF83D5329D2A",
      "properties" : {
        "name" : "如聞心齋素食餐廳",
        "address" : "苗栗縣公館鄉玉谷村115-2號"
      },
      "type" : "Feature",
      "geometry" : {
        "type" : "Point",
        "coordinates" : [
          120.83076699999999,
          24.502970999999999
        ]
      }
    },
    {
      "id" : "CEFB1E9E-69AA-44F2-92D1-34DA35423D34",
      "properties" : {
        "name" : "瑞記糖葫蘆",
        "address" : "苗栗縣獅潭鄉汶水老街20-1號"
      },
      "type" : "Feature",
      "geometry" : {
        "type" : "Point",
        "coordinates" : [
          120.876367,
          24.457345
        ]
      }
    },
    {
      "id" : "58A09408-00B2-4BD5-8726-79337ADEFE0B",
      "properties" : {
        "name" : "豆腐殿",
        "address" : "苗栗縣頭份鎮信義路108號"
      },
      "type" : "Feature",
      "geometry" : {
        "type" : "Point",
        "coordinates" : [
          120.9076013,
          24.686381999999998
        ]
      }
    },
    {
      "id" : "5B2A6FD5-2CD7-4429-9000-2CDD69EBB8E8",
      "properties" : {
        "name" : "祺人益世坊",
        "address" : "苗栗縣頭份鎮八德一路216號"
      },
      "type" : "Feature",
      "geometry" : {
        "type" : "Point",
        "coordinates" : [
          120.89313,
          24.692820000000001
        ]
      }
    },
    {
      "id" : "B4D9BF7B-F8C6-4153-A783-87F01C1F7444",
      "properties" : {
        "name" : "素食材料行",
        "address" : "苗栗縣竹南鎮光復路295號"
      },
      "type" : "Feature",
      "geometry" : {
        "type" : "Point",
        "coordinates" : [
          120.8791939,
          24.692722799999999
        ]
      }
    },
    {
      "id" : "D21A695B-9423-4D02-8F52-2666EACBBC4F",
      "properties" : {
        "name" : "天然蔬食",
        "address" : "苗栗縣竹南鎮龍山路一段127號"
      },
      "type" : "Feature",
      "geometry" : {
        "type" : "Point",
        "coordinates" : [
          120.86604199999999,
          24.690954000000001
        ]
      }
    },
    {
      "id" : "2AD7E92A-F3FC-4ED9-B467-71834B075412",
      "properties" : {
        "name" : "通霄一心素食",
        "address" : "苗栗縣通霄鎮中山路328號"
      },
      "type" : "Feature",
      "geometry" : {
        "type" : "Point",
        "coordinates" : [
          120.6791518,
          24.491668000000001
        ]
      }
    },
    {
      "id" : "4383F0B0-80A2-4DAF-A104-8121F1AF02BA",
      "properties" : {
        "name" : "後龍包餡蛋餅",
        "address" : "苗栗縣後龍鎮中華路154-3號"
      },
      "type" : "Feature",
      "geometry" : {
        "type" : "Point",
        "coordinates" : [
          120.787212,
          24.615099000000001
        ]
      }
    },
    {
      "id" : "C19548B2-519C-4781-BC29-63692C130668",
      "properties" : {
        "name" : "大時代素食",
        "address" : "苗栗縣三義鄉勝興村20份237-4號"
      },
      "type" : "Feature",
      "geometry" : {
        "type" : "Point",
        "coordinates" : [
          120.77828599999999,
          24.390711
        ]
      }
    },
    {
      "id" : "DC12B177-8DE9-4980-AC6B-CEDC91A66676",
      "properties" : {
        "name" : "素食",
        "address" : "苗栗縣竹南鎮龍山路一段220號"
      },
      "type" : "Feature",
      "geometry" : {
        "type" : "Point",
        "coordinates" : [
          120.86729,
          24.693439999999999
        ]
      }
    },
    {
      "id" : "260364B9-3451-4EC0-8AFF-C6C53C48FBAA",
      "properties" : {
        "name" : "黃薯薯 甘梅薯條",
        "address" : "苗栗縣竹南鎮博愛街2號"
      },
      "type" : "Feature",
      "geometry" : {
        "type" : "Point",
        "coordinates" : [
          120.879762,
          24.686865000000001
        ]
      }
    },
    {
      "id" : "DFCE9720-48E7-4BD6-91B3-8DE13FF556A8",
      "properties" : {
        "name" : "老周素食",
        "address" : "苗栗縣竹南鎮中埔街16號"
      },
      "type" : "Feature",
      "geometry" : {
        "type" : "Point",
        "coordinates" : [
          120.90668100000001,
          24.715565000000002
        ]
      }
    },
    {
      "id" : "49A55236-9404-42EC-B43E-BB1984D780E9",
      "properties" : {
        "name" : "柿子紅了",
        "address" : "苗栗縣公館鄉福德村21號"
      },
      "type" : "Feature",
      "geometry" : {
        "type" : "Point",
        "coordinates" : [
          120.912437,
          24.524501999999998
        ]
      }
    },
    {
      "id" : "01727F03-23A3-458B-A39B-92A421EAB794",
      "properties" : {
        "name" : "佛心緣素食",
        "address" : "苗栗縣銅鑼鄉中正路228-1號"
      },
      "type" : "Feature",
      "geometry" : {
        "type" : "Point",
        "coordinates" : [
          120.788134,
          24.489965000000002
        ]
      }
    },
    {
      "id" : "42BAA9F7-FCEF-41DB-982D-927BCF1C2E9A",
      "properties" : {
        "name" : "草食食堂",
        "address" : "苗栗縣獅潭鄉汶水老街51-1號"
      },
      "type" : "Feature",
      "geometry" : {
        "type" : "Point",
        "coordinates" : [
          120.876367,
          24.457345
        ]
      }
    },
    {
      "id" : "A991D4CC-84F1-4B74-A49E-F75C157127AD",
      "properties" : {
        "name" : "佛光素食館",
        "address" : "苗栗縣苗栗市至公路598-15號"
      },
      "type" : "Feature",
      "geometry" : {
        "type" : "Point",
        "coordinates" : [
          120.80998099999999,
          24.567260000000001
        ]
      }
    },
    {
      "id" : "C5E3BD39-D3FE-48AA-83C3-79A390A9EB3F",
      "properties" : {
        "name" : "百圓蔬食",
        "address" : "苗栗縣苗栗市金像園2號"
      },
      "type" : "Feature",
      "geometry" : {
        "type" : "Point",
        "coordinates" : [
          120.819068,
          24.561299000000002
        ]
      }
    },
    {
      "id" : "B3ACB445-3D15-41A5-B103-1EF306490937",
      "properties" : {
        "name" : "廣緣素食",
        "address" : "苗栗縣苗栗市府前路106號"
      },
      "type" : "Feature",
      "geometry" : {
        "type" : "Point",
        "coordinates" : [
          120.818403,
          24.560782
        ]
      }
    },
    {
      "id" : "47D7FBFC-83DF-443C-9187-E1E786C045EC",
      "properties" : {
        "name" : "正德愛心廚房苗栗分院附設愛心廚房",
        "address" : "苗栗縣苗栗市新都街27號"
      },
      "type" : "Feature",
      "geometry" : {
        "type" : "Point",
        "coordinates" : [
          120.81859,
          24.558820000000001
        ]
      }
    },
    {
      "id" : "A08255EB-338F-405E-9B01-87D6CCAA98BF",
      "properties" : {
        "name" : "素食早點",
        "address" : "苗栗縣竹南鎮新生路248號"
      },
      "type" : "Feature",
      "geometry" : {
        "type" : "Point",
        "coordinates" : [
          120.867155,
          24.685738000000001
        ]
      }
    },
    {
      "id" : "7EA5C642-F6D2-493E-BD0E-6A47526D7E49",
      "properties" : {
        "name" : "廻鄉有機驛站",
        "address" : "苗栗縣通霄鎮楓樹窩92-2號"
      },
      "type" : "Feature",
      "geometry" : {
        "type" : "Point",
        "coordinates" : [
          120.727673,
          24.487148999999999
        ]
      }
    },
    {
      "id" : "223CB0DA-D61D-44AB-A883-3978A96C5568",
      "properties" : {
        "name" : "菇素齋",
        "address" : "苗栗縣竹南鎮環市路一段144-1號"
      },
      "type" : "Feature",
      "geometry" : {
        "type" : "Point",
        "coordinates" : [
          120.8740877,
          24.6823342
        ]
      }
    },
    {
      "id" : "FEC02DAD-144D-436C-98B0-9FF72A9EB44D",
      "properties" : {
        "name" : "漂pure",
        "address" : "苗栗縣竹南鎮民權街49號"
      },
      "type" : "Feature",
      "geometry" : {
        "type" : "Point",
        "coordinates" : [
          120.878202,
          24.685748
        ]
      }
    },
    {
      "id" : "1538B331-0F27-4572-B9C3-CCE0B1D85762",
      "properties" : {
        "name" : "金色蓮花素食餐館",
        "address" : "苗栗縣頭份鎮建國路94-1號"
      },
      "type" : "Feature",
      "geometry" : {
        "type" : "Point",
        "coordinates" : [
          120.91101999999999,
          24.695257000000002
        ]
      }
    },
    {
      "id" : "70747283-5AA9-48E0-AE3E-F91DA2CDB737",
      "properties" : {
        "name" : "素食の家",
        "address" : "苗栗縣竹南鎮民族街30號"
      },
      "type" : "Feature",
      "geometry" : {
        "type" : "Point",
        "coordinates" : [
          120.87835800000001,
          24.683744000000001
        ]
      }
    },
    {
      "id" : "C3686CAF-2F4B-4E4A-A3B8-A21DC86854D7",
      "properties" : {
        "name" : "三義野百合開心花園蔬食咖啡FormosaLily Café",
        "address" : "苗栗縣三義鄉廣盛村廣盛38-3號"
      },
      "type" : "Feature",
      "geometry" : {
        "type" : "Point",
        "coordinates" : [
          120.790644,
          24.351718999999999
        ]
      }
    },
    {
      "id" : "27EBFE28-2D74-4F18-BD4F-3C95E610494C",
      "properties" : {
        "name" : "脆皮車輪餅",
        "address" : "苗栗縣竹南鎮利達街13號"
      },
      "type" : "Feature",
      "geometry" : {
        "type" : "Point",
        "coordinates" : [
          120.87478900000001,
          24.688105
        ]
      }
    },
    {
      "id" : "BD3104F2-D33C-4A3E-8138-FAB152712147",
      "properties" : {
        "name" : "甲店養生坊",
        "address" : "苗栗縣三義鄉勝興70號"
      },
      "type" : "Feature",
      "geometry" : {
        "type" : "Point",
        "coordinates" : [
          120.77828599999999,
          24.390711
        ]
      }
    },
    {
      "id" : "78FDF41F-9FB6-48AA-9752-C155B40A4589",
      "properties" : {
        "name" : "三義卓也小屋度假園區",
        "address" : "苗栗縣三義鄉雙潭村13鄰崩山下1-5號"
      },
      "type" : "Feature",
      "geometry" : {
        "type" : "Point",
        "coordinates" : [
          120.807331,
          24.382156999999999
        ]
      }
    },
    {
      "id" : "DC74FC1B-8093-422B-ABC4-6E4C6F69894D",
      "properties" : {
        "name" : "天仁素食",
        "address" : "苗栗縣竹南鎮自由街44-3號"
      },
      "type" : "Feature",
      "geometry" : {
        "type" : "Point",
        "coordinates" : [
          120.87850400000001,
          24.687716999999999
        ]
      }
    },
    {
      "id" : "451A9715-D353-4B5A-9902-854BF9B96957",
      "properties" : {
        "name" : "獅頭山勸化堂",
        "address" : "苗栗縣南庄鄉獅山村17鄰242號"
      },
      "type" : "Feature",
      "geometry" : {
        "type" : "Point",
        "coordinates" : [
          120.99758199999999,
          24.600351
        ]
      }
    },
    {
      "id" : "89147462-A3BA-4E24-963C-5A2E71374B54",
      "properties" : {
        "name" : "禾喬素食",
        "address" : "苗栗縣頭份鎮自強路"
      },
      "type" : "Feature",
      "geometry" : {
        "type" : "Point",
        "coordinates" : [
          120.9125919,
          24.690267899999998
        ]
      }
    },
    {
      "id" : "EAF0B8A4-29E1-4003-98F1-5811E09ECB98",
      "properties" : {
        "name" : "莠齋坊",
        "address" : "苗栗縣通霄鎮中正路267號"
      },
      "type" : "Feature",
      "geometry" : {
        "type" : "Point",
        "coordinates" : [
          120.68924199999999,
          24.494789999999998
        ]
      }
    },
    {
      "id" : "A5B47B64-E80D-4EA1-9F8C-3A960F6E663F",
      "properties" : {
        "name" : "愛心蔬食坊",
        "address" : "苗栗縣竹南鎮三泰街228號"
      },
      "type" : "Feature",
      "geometry" : {
        "type" : "Point",
        "coordinates" : [
          120.873801,
          24.691279999999999
        ]
      }
    },
    {
      "id" : "DBC1DA39-1FE8-4FDA-9EE2-A7132DF4C11F",
      "properties" : {
        "name" : "我炸你吃",
        "address" : "苗栗縣竹南鎮光復路209號"
      },
      "type" : "Feature",
      "geometry" : {
        "type" : "Point",
        "coordinates" : [
          120.879212,
          24.68891
        ]
      }
    },
    {
      "id" : "1D710D46-BDD9-4D96-AC73-A8C1BAE9330C",
      "properties" : {
        "name" : "慈心素食廚房",
        "address" : "苗栗縣竹南鎮中正路79號"
      },
      "type" : "Feature",
      "geometry" : {
        "type" : "Point",
        "coordinates" : [
          120.87728300000001,
          24.683669999999999
        ]
      }
    },
    {
      "id" : "E13CDF6E-A35F-4013-B9D8-9C27A3403DE0",
      "properties" : {
        "name" : "首竹素塹",
        "address" : "苗栗縣頭份鎮中華路1172號"
      },
      "type" : "Feature",
      "geometry" : {
        "type" : "Point",
        "coordinates" : [
          120.91328900000001,
          24.69059
        ]
      }
    },
    {
      "id" : "AF28FA0B-5EED-4F82-A682-C6EB5B724FD7",
      "properties" : {
        "name" : "悅客驛站",
        "address" : "苗栗縣頭份鎮忠孝二路27號"
      },
      "type" : "Feature",
      "geometry" : {
        "type" : "Point",
        "coordinates" : [
          120.907774,
          24.691849999999999
        ]
      }
    },
    {
      "id" : "2466D8FE-F675-4F5C-8AF2-120DC6F9359D",
      "properties" : {
        "name" : "17號草堂",
        "address" : "苗栗縣卓蘭鎮西坪里109號"
      },
      "type" : "Feature",
      "geometry" : {
        "type" : "Point",
        "coordinates" : [
          120.82665900000001,
          24.332840000000001
        ]
      }
    },
    {
      "id" : "9C80F7D4-2E72-4CF2-AD2C-C7C54247A736",
      "properties" : {
        "name" : "草食堂人文藝術素食館",
        "address" : "苗栗縣苗栗市縣府路88號"
      },
      "type" : "Feature",
      "geometry" : {
        "type" : "Point",
        "coordinates" : [
          120.819068,
          24.561299000000002
        ]
      }
    },
    {
      "id" : "17EEEF0F-06F5-47CB-AFF5-F74717499D34",
      "properties" : {
        "name" : "益素佳",
        "address" : "苗栗縣竹南鎮建智街62號"
      },
      "type" : "Feature",
      "geometry" : {
        "type" : "Point",
        "coordinates" : [
          120.873538,
          24.689523999999999
        ]
      }
    },
    {
      "id" : "3D777014-556E-4CBF-B9A0-4A6634A03363",
      "properties" : {
        "name" : "臭多多 - 現蒸臭豆腐",
        "address" : "苗栗縣苗栗市和平路101號"
      },
      "type" : "Feature",
      "geometry" : {
        "type" : "Point",
        "coordinates" : [
          120.817463,
          24.562484000000001
        ]
      }
    },
    {
      "id" : "50FC3320-AA20-407B-9FCC-5120196E4503",
      "properties" : {
        "name" : "竹北素食自助餐",
        "address" : "苗栗縣竹南鎮忠義街31-1號"
      },
      "type" : "Feature",
      "geometry" : {
        "type" : "Point",
        "coordinates" : [
          120.87495,
          24.688610000000001
        ]
      }
    },
    {
      "id" : "39F8B886-7B9E-454E-BD81-6EE6D680A8D6",
      "properties" : {
        "name" : "天空之城 鳥v.s人 森林餐飲",
        "address" : "苗栗縣大湖鄉新開村十分33號"
      },
      "type" : "Feature",
      "geometry" : {
        "type" : "Point",
        "coordinates" : [
          120.871594,
          24.424878
        ]
      }
    },
    {
      "id" : "D5593694-3C0E-444A-884E-D7E783384D6C",
      "properties" : {
        "name" : "E-ma 柴燒窯烤歐式麵包",
        "address" : "苗栗縣三義鄉雙潭村石崀58號"
      },
      "type" : "Feature",
      "geometry" : {
        "type" : "Point",
        "coordinates" : [
          120.76549300000001,
          24.434286
        ]
      }
    },
    {
      "id" : "9886E77A-9FC6-4ACE-B2FA-E183728E9446",
      "properties" : {
        "name" : "誠心越南素食",
        "address" : "苗栗縣竹南鎮延平路168-5號"
      },
      "type" : "Feature",
      "geometry" : {
        "type" : "Point",
        "coordinates" : [
          120.876035,
          24.689194000000001
        ]
      }
    },
    {
      "id" : "A4AA7FBD-8D80-4BA2-8827-56CBFA6FFDA4",
      "properties" : {
        "name" : "歡喜心素食早點",
        "address" : "苗栗縣竹南鎮大同路71號"
      },
      "type" : "Feature",
      "geometry" : {
        "type" : "Point",
        "coordinates" : [
          120.968284,
          24.804939000000001
        ]
      }
    },
    {
      "id" : "77B07CC3-2DC1-44D8-9233-BFED89979D5C",
      "properties" : {
        "name" : "Sud Vista 蘇維拉莊園 民宿",
        "address" : "苗栗縣南庄鄉田美村16鄰四灣92號"
      },
      "type" : "Feature",
      "geometry" : {
        "type" : "Point",
        "coordinates" : [
          120.99575,
          24.633357
        ]
      }
    },
    {
      "id" : "664DFC1A-2A11-46D8-8118-73640067458F",
      "properties" : {
        "name" : "樹巢 Tree Nest",
        "address" : "苗栗縣頭份鎮餐車地點未固定，請詳見粉絲團"
      },
      "type" : "Feature",
      "geometry" : {
        "type" : "Point",
        "coordinates" : [
          120.906826,
          24.689983999999999
        ]
      }
    },
    {
      "id" : "0EC8D3AA-E10E-4AA7-8034-197AC2977839",
      "properties" : {
        "name" : "梅英素食",
        "address" : "苗栗縣銅鑼鄉永樂路2-51號"
      },
      "type" : "Feature",
      "geometry" : {
        "type" : "Point",
        "coordinates" : [
          120.78792900000001,
          24.485617000000001
        ]
      }
    },
    {
      "id" : "5C759491-1FE9-486D-99C6-DCEF8684405E",
      "properties" : {
        "name" : "I-su 艾蔬食",
        "address" : "苗栗縣竹南鎮大營路1號"
      },
      "type" : "Feature",
      "geometry" : {
        "type" : "Point",
        "coordinates" : [
          120.87321,
          24.68121
        ]
      }
    }
  ]
}