{
  "type" : "FeatureCollection",
  "areaCode" : 207,
  "features" : [
    {
      "id" : "CB378017-8C33-41A2-929C-346FA02365CE",
      "properties" : {
        "name" : "巢‧食蔬【Chào】",
        "address" : "新北市板橋區東門街18號"
      },
      "type" : "Feature",
      "geometry" : {
        "type" : "Point",
        "coordinates" : [
          121.4578922,
          25.0088829
        ]
      }
    },
    {
      "id" : "6CADDAF8-1786-4D89-A237-D79457945AD1",
      "properties" : {
        "name" : "布拉德施維根廚房",
        "address" : "新北市中和區南華路29號"
      },
      "type" : "Feature",
      "geometry" : {
        "type" : "Point",
        "coordinates" : [
          121.5029997,
          24.9960193
        ]
      }
    },
    {
      "id" : "C3FCE878-6CCC-47E8-955D-032FE1D755D4",
      "properties" : {
        "name" : "自然楓蔬活坊",
        "address" : "新北市新店區永華街7號"
      },
      "type" : "Feature",
      "geometry" : {
        "type" : "Point",
        "coordinates" : [
          121.54320300000001,
          24.976887999999999
        ]
      }
    },
    {
      "id" : "84CCBEE6-FD10-4A71-8372-F2BF9CB57D5D",
      "properties" : {
        "name" : "原素食府",
        "address" : "新北市板橋區府中路29-2號"
      },
      "type" : "Feature",
      "geometry" : {
        "type" : "Point",
        "coordinates" : [
          121.45876,
          25.008633
        ]
      }
    },
    {
      "id" : "3789A97C-DADE-4411-93F6-EA4BBCEABDFB",
      "properties" : {
        "name" : "烤室苑",
        "address" : "新北市三重區後竹圍街163號"
      },
      "type" : "Feature",
      "geometry" : {
        "type" : "Point",
        "coordinates" : [
          121.486161,
          25.072095999999998
        ]
      }
    },
    {
      "id" : "EA6336E2-65E9-44F3-9423-FFFDB31D823C",
      "properties" : {
        "name" : "耕心蓮苑",
        "address" : "新北市三重區萬全街15號"
      },
      "type" : "Feature",
      "geometry" : {
        "type" : "Point",
        "coordinates" : [
          121.4995553,
          25.069577200000001
        ]
      }
    },
    {
      "id" : "696133E6-1F85-401A-9412-8F2F1DB3E9AE",
      "properties" : {
        "name" : "山間倉房",
        "address" : "新北市中和區興南路二段399巷124號"
      },
      "type" : "Feature",
      "geometry" : {
        "type" : "Point",
        "coordinates" : [
          121.5010486,
          24.975345000000001
        ]
      }
    },
    {
      "id" : "9EAFF498-1221-468E-994F-28226B5D5AE8",
      "properties" : {
        "name" : "小蔬杭",
        "address" : "新北市新店區北新路三段105巷2號"
      },
      "type" : "Feature",
      "geometry" : {
        "type" : "Point",
        "coordinates" : [
          121.54102949999999,
          24.9821688
        ]
      }
    },
    {
      "id" : "74355769-7A30-4290-AD5D-F1DCB002FB33",
      "properties" : {
        "name" : "米勒蔬苑",
        "address" : "新北市新店區新店路5號"
      },
      "type" : "Feature",
      "geometry" : {
        "type" : "Point",
        "coordinates" : [
          121.540567,
          24.952822000000001
        ]
      }
    },
    {
      "id" : "4DB7FB5C-9BD4-48E2-A50F-F0E9AF59F4B5",
      "properties" : {
        "name" : "仙人居",
        "address" : "新北市新店區長春路45號"
      },
      "type" : "Feature",
      "geometry" : {
        "type" : "Point",
        "coordinates" : [
          121.550467,
          24.957709999999999
        ]
      }
    },
    {
      "id" : "B94BEB94-4B1C-436E-A09E-D99916A55422",
      "properties" : {
        "name" : "金曙咖啡簡餐",
        "address" : "新北市新店區中華路85-97號"
      },
      "type" : "Feature",
      "geometry" : {
        "type" : "Point",
        "coordinates" : [
          121.5392521,
          24.968785
        ]
      }
    },
    {
      "id" : "26D1B236-826D-4B49-99FF-26708670820F",
      "properties" : {
        "name" : "蔬食 Naan",
        "address" : "新北市新店區建國路289號"
      },
      "type" : "Feature",
      "geometry" : {
        "type" : "Point",
        "coordinates" : [
          121.53672229999999,
          24.985686600000001
        ]
      }
    },
    {
      "id" : "25C085A5-1723-4A49-92CC-B41D04AFE216",
      "properties" : {
        "name" : "素食ㄉㄧ˙家",
        "address" : "新北市新店區三民路117巷1弄7號"
      },
      "type" : "Feature",
      "geometry" : {
        "type" : "Point",
        "coordinates" : [
          121.5350107,
          24.971744900000001
        ]
      }
    },
    {
      "id" : "4FF4E601-37D0-4CC3-B6FF-0FF5770D2282",
      "properties" : {
        "name" : "佬天爺油飯",
        "address" : "新北市新店區新店路6-1號"
      },
      "type" : "Feature",
      "geometry" : {
        "type" : "Point",
        "coordinates" : [
          121.53837470000001,
          24.9524884
        ]
      }
    },
    {
      "id" : "1C30EEBE-329D-48A3-8DF4-23EDFB8A25F3",
      "properties" : {
        "name" : "小妹頭蔬食．Cafe",
        "address" : "新北市三芝區中興街一段32號"
      },
      "type" : "Feature",
      "geometry" : {
        "type" : "Point",
        "coordinates" : [
          121.49783600000001,
          25.257784999999998
        ]
      }
    },
    {
      "id" : "25F49688-49AD-44EA-B3C8-38E4E1B82B66",
      "properties" : {
        "name" : "光泉素食",
        "address" : "新北市板橋區菜園街39號"
      },
      "type" : "Feature",
      "geometry" : {
        "type" : "Point",
        "coordinates" : [
          121.46530370000001,
          25.0123356
        ]
      }
    },
    {
      "id" : "663993A9-F5C6-4A67-847E-D95550E6C702",
      "properties" : {
        "name" : "素食",
        "address" : "新北市泰山區明志路一段515號"
      },
      "type" : "Feature",
      "geometry" : {
        "type" : "Point",
        "coordinates" : [
          121.430522,
          25.054082999999999
        ]
      }
    },
    {
      "id" : "56FCA72E-DDF8-4B6C-8CE5-21E1C140BF05",
      "properties" : {
        "name" : "道恩素食自助餐",
        "address" : "新北市樹林區鎮前街77-3號"
      },
      "type" : "Feature",
      "geometry" : {
        "type" : "Point",
        "coordinates" : [
          121.42154499999999,
          24.990818999999998
        ]
      }
    },
    {
      "id" : "8EDCF4D8-662B-426A-8F0D-28E1546F6801",
      "properties" : {
        "name" : "阿茶素食店",
        "address" : "新北市板橋區倉後街20號"
      },
      "type" : "Feature",
      "geometry" : {
        "type" : "Point",
        "coordinates" : [
          121.4556006,
          25.009372599999999
        ]
      }
    },
    {
      "id" : "BBB65D94-BE84-4A31-8F8C-178EE7D22C8C",
      "properties" : {
        "name" : "141素食麵線鹽酥Ｇ",
        "address" : "新北市新莊區福壽街141號"
      },
      "type" : "Feature",
      "geometry" : {
        "type" : "Point",
        "coordinates" : [
          121.4579203,
          25.052817999999998
        ]
      }
    },
    {
      "id" : "81EF4C06-370E-4585-8B17-5E357CE0F41A",
      "properties" : {
        "name" : "富國路素食早點",
        "address" : "新北市新莊區富國路62號"
      },
      "type" : "Feature",
      "geometry" : {
        "type" : "Point",
        "coordinates" : [
          121.41963320000001,
          25.026047200000001
        ]
      }
    },
    {
      "id" : "ADDC2DCF-B7BD-4CA3-BFFE-A199D7D98485",
      "properties" : {
        "name" : "光明素食",
        "address" : "新北市板橋區光明街22號"
      },
      "type" : "Feature",
      "geometry" : {
        "type" : "Point",
        "coordinates" : [
          121.4602524,
          25.0025029
        ]
      }
    },
    {
      "id" : "42DCDA91-ED4B-4849-BAE3-2669497C5D73",
      "properties" : {
        "name" : "秝苑養身素食餐廳",
        "address" : "新北市新莊區四維路152巷1號"
      },
      "type" : "Feature",
      "geometry" : {
        "type" : "Point",
        "coordinates" : [
          121.422678,
          25.022834
        ]
      }
    },
    {
      "id" : "0A00A764-E32A-4CA8-B456-66F7ADEE26D2",
      "properties" : {
        "name" : "素食羹麵 當歸麵",
        "address" : "新北市新莊區中信街34號"
      },
      "type" : "Feature",
      "geometry" : {
        "type" : "Point",
        "coordinates" : [
          121.450186,
          25.050957
        ]
      }
    },
    {
      "id" : "633474F3-A980-4133-88B2-B64559ADA57E",
      "properties" : {
        "name" : "大眾素食",
        "address" : "新北市蘆洲區民族路72號"
      },
      "type" : "Feature",
      "geometry" : {
        "type" : "Point",
        "coordinates" : [
          121.477541,
          25.084731999999999
        ]
      }
    },
    {
      "id" : "D249BC96-4115-48E9-AD37-6373BEFEFB41",
      "properties" : {
        "name" : "健康素食",
        "address" : "新北市汐止區和平街118號"
      },
      "type" : "Feature",
      "geometry" : {
        "type" : "Point",
        "coordinates" : [
          121.66079999999999,
          25.069898999999999
        ]
      }
    },
    {
      "id" : "9C6C83ED-9FB8-4208-9E21-FF64A2F78A3A",
      "properties" : {
        "name" : "緣素食",
        "address" : "新北市土城區中央路二段278巷11號"
      },
      "type" : "Feature",
      "geometry" : {
        "type" : "Point",
        "coordinates" : [
          121.439879,
          24.974872000000001
        ]
      }
    },
    {
      "id" : "2E706C50-C88B-44B4-897E-F043F4D8FC3F",
      "properties" : {
        "name" : "秀羽素食館",
        "address" : "新北市板橋區陽明街1號"
      },
      "type" : "Feature",
      "geometry" : {
        "type" : "Point",
        "coordinates" : [
          121.466768,
          25.021470999999998
        ]
      }
    },
    {
      "id" : "E9522BC3-425E-4C50-9D15-A0C90A31D5CC",
      "properties" : {
        "name" : "學府素食",
        "address" : "新北市土城區學府路一段3號"
      },
      "type" : "Feature",
      "geometry" : {
        "type" : "Point",
        "coordinates" : [
          121.459109,
          24.988318
        ]
      }
    },
    {
      "id" : "84C9AD15-6D72-4E3E-A539-82C724C0F6E4",
      "properties" : {
        "name" : "卡哇伊美食坊",
        "address" : "新北市新莊區中港路411號"
      },
      "type" : "Feature",
      "geometry" : {
        "type" : "Point",
        "coordinates" : [
          121.452039,
          25.04731
        ]
      }
    },
    {
      "id" : "7E1BEC71-FFE0-4D2E-8910-E76E7EBF418C",
      "properties" : {
        "name" : "淨欣素食小吃",
        "address" : "新北市新莊區公園路8號"
      },
      "type" : "Feature",
      "geometry" : {
        "type" : "Point",
        "coordinates" : [
          121.44762,
          25.038620000000002
        ]
      }
    },
    {
      "id" : "9A3FE42B-FE2B-49EF-9ADE-A9894EBD303C",
      "properties" : {
        "name" : "銘春健康素食",
        "address" : "新北市蘆洲區中正路190號"
      },
      "type" : "Feature",
      "geometry" : {
        "type" : "Point",
        "coordinates" : [
          121.466904,
          25.088101999999999
        ]
      }
    },
    {
      "id" : "4FD04DC9-038F-4982-BE15-E49C6F193AB3",
      "properties" : {
        "name" : "福大素食品",
        "address" : "新北市中和區和平街118號"
      },
      "type" : "Feature",
      "geometry" : {
        "type" : "Point",
        "coordinates" : [
          121.506933,
          24.991651000000001
        ]
      }
    },
    {
      "id" : "59DC7C1B-72B5-42B7-9CFB-F6A2DC69F7E9",
      "properties" : {
        "name" : "圓緣素饍",
        "address" : "新北市汐止區仁愛路20號"
      },
      "type" : "Feature",
      "geometry" : {
        "type" : "Point",
        "coordinates" : [
          121.659706,
          25.062981000000001
        ]
      }
    },
    {
      "id" : "75D62005-D8B7-4074-ABCC-A950CDFB5DDD",
      "properties" : {
        "name" : "天心素食",
        "address" : "新北市鶯歌區南雅路4號"
      },
      "type" : "Feature",
      "geometry" : {
        "type" : "Point",
        "coordinates" : [
          121.350151,
          24.954304799999999
        ]
      }
    },
    {
      "id" : "C699C52C-0E28-47C3-8111-5397014F9A66",
      "properties" : {
        "name" : "張太太素食小吃",
        "address" : "新北市中和區華福街55號"
      },
      "type" : "Feature",
      "geometry" : {
        "type" : "Point",
        "coordinates" : [
          121.466666,
          24.996755
        ]
      }
    },
    {
      "id" : "FD0739D7-866E-4F19-9B24-FD1303DD4DA7",
      "properties" : {
        "name" : "慶香園",
        "address" : "新北市蘆洲區中正路185巷72號"
      },
      "type" : "Feature",
      "geometry" : {
        "type" : "Point",
        "coordinates" : [
          121.466379,
          25.084467
        ]
      }
    },
    {
      "id" : "0E0FF1A7-D7D1-4351-B2EA-C003A78295AD",
      "properties" : {
        "name" : "愛素好滷",
        "address" : "新北市新莊區化成路386號"
      },
      "type" : "Feature",
      "geometry" : {
        "type" : "Point",
        "coordinates" : [
          121.4659848,
          25.050193499999999
        ]
      }
    },
    {
      "id" : "0516D48E-AED3-450C-99A5-60C7874A74BD",
      "properties" : {
        "name" : "觀音素食自助餐",
        "address" : "新北市淡水區新生街49號"
      },
      "type" : "Feature",
      "geometry" : {
        "type" : "Point",
        "coordinates" : [
          121.44043000000001,
          25.174869000000001
        ]
      }
    },
    {
      "id" : "7F549110-821F-4E15-8648-69C2F0095689",
      "properties" : {
        "name" : "莫凡彼餐飲",
        "address" : "新北市永和區中山路一段238號"
      },
      "type" : "Feature",
      "geometry" : {
        "type" : "Point",
        "coordinates" : [
          121.5076461,
          25.0078365
        ]
      }
    },
    {
      "id" : "03EF8E25-FDFD-41B1-A3A0-A04B8EC72CEE",
      "properties" : {
        "name" : "嘉義素食",
        "address" : "新北市三重區重安街70-15號"
      },
      "type" : "Feature",
      "geometry" : {
        "type" : "Point",
        "coordinates" : [
          121.49141400000001,
          25.057157
        ]
      }
    },
    {
      "id" : "E3114D85-7F1C-4DC4-B0FA-0B4CB41A675E",
      "properties" : {
        "name" : "知足常樂素食小吃館",
        "address" : "新北市土城區中央路三段4-5號"
      },
      "type" : "Feature",
      "geometry" : {
        "type" : "Point",
        "coordinates" : [
          121.43905839999999,
          24.970165000000001
        ]
      }
    },
    {
      "id" : "96F4A817-F4B2-4F55-82AF-5235198EB490",
      "properties" : {
        "name" : "黃奕樺養生素食坊",
        "address" : "新北市板橋區裕民街50號"
      },
      "type" : "Feature",
      "geometry" : {
        "type" : "Point",
        "coordinates" : [
          121.46158699999999,
          25.02881
        ]
      }
    },
    {
      "id" : "A284FE45-9758-41F0-A5A3-7657733DC4AC",
      "properties" : {
        "name" : "福霖素食自助餐",
        "address" : "新北市新莊區建福路22號"
      },
      "type" : "Feature",
      "geometry" : {
        "type" : "Point",
        "coordinates" : [
          121.426226,
          25.028832999999999
        ]
      }
    },
    {
      "id" : "4900CD87-E5FE-417F-8560-6B02BE715CFB",
      "properties" : {
        "name" : "久安饅頭包子店",
        "address" : "新北市永和區永利路42號"
      },
      "type" : "Feature",
      "geometry" : {
        "type" : "Point",
        "coordinates" : [
          121.51874100000001,
          25.005331000000002
        ]
      }
    },
    {
      "id" : "D5B2898B-A7E3-41DD-8B03-87EE9B28A91E",
      "properties" : {
        "name" : "沈家有機素食",
        "address" : "新北市淡水區英專路42號"
      },
      "type" : "Feature",
      "geometry" : {
        "type" : "Point",
        "coordinates" : [
          121.4456776,
          25.170318200000001
        ]
      }
    },
    {
      "id" : "3B394262-33DA-45A6-83D2-08D82D571C3C",
      "properties" : {
        "name" : "葉惠真素食小吃",
        "address" : "新北市新莊區化成路530號"
      },
      "type" : "Feature",
      "geometry" : {
        "type" : "Point",
        "coordinates" : [
          121.46637,
          25.052878400000001
        ]
      }
    },
    {
      "id" : "DAC0E5D0-00FA-4C8F-A0D8-1278FBCA5C45",
      "properties" : {
        "name" : "素食刈包與麵線",
        "address" : "新北市新莊區幸福路553號"
      },
      "type" : "Feature",
      "geometry" : {
        "type" : "Point",
        "coordinates" : [
          121.45455200000001,
          25.049149
        ]
      }
    },
    {
      "id" : "53520264-ADA2-4D28-96C9-1FC42DA5F103",
      "properties" : {
        "name" : "妙真素食自助餐",
        "address" : "新北市永和區國光路7號"
      },
      "type" : "Feature",
      "geometry" : {
        "type" : "Point",
        "coordinates" : [
          121.52031100000001,
          25.008309000000001
        ]
      }
    },
    {
      "id" : "A1664F15-923E-41A1-AD4D-FF28D9321480",
      "properties" : {
        "name" : "素食特製紅燒麵",
        "address" : "新北市板橋區福德街2巷12號"
      },
      "type" : "Feature",
      "geometry" : {
        "type" : "Point",
        "coordinates" : [
          121.455805,
          25.009249000000001
        ]
      }
    },
    {
      "id" : "E1869C4B-AFA5-4ED6-8FC6-5507EBDF03E5",
      "properties" : {
        "name" : "仁祥素食之家",
        "address" : "新北市新莊區中港一街72號"
      },
      "type" : "Feature",
      "geometry" : {
        "type" : "Point",
        "coordinates" : [
          121.44982,
          25.045542999999999
        ]
      }
    },
    {
      "id" : "22D1BD9A-A5D1-4F78-814F-5A20CCFF8A47",
      "properties" : {
        "name" : "阿福師素食小吃店",
        "address" : "新北市汐止區明峰街317號"
      },
      "type" : "Feature",
      "geometry" : {
        "type" : "Point",
        "coordinates" : [
          121.625218,
          25.067084000000001
        ]
      }
    },
    {
      "id" : "29FEF4CC-9463-45B5-86F9-D29EBCFDF945",
      "properties" : {
        "name" : "童心園素食",
        "address" : "新北市新莊區自信街55號"
      },
      "type" : "Feature",
      "geometry" : {
        "type" : "Point",
        "coordinates" : [
          121.455039,
          25.048370999999999
        ]
      }
    },
    {
      "id" : "4DADA2A5-BD73-4A0E-ACF6-571C2A2826B3",
      "properties" : {
        "name" : "七張素食自助餐",
        "address" : "新北市新店區北新路二段131-1號"
      },
      "type" : "Feature",
      "geometry" : {
        "type" : "Point",
        "coordinates" : [
          121.54271199999999,
          24.975297999999999
        ]
      }
    },
    {
      "id" : "18AB9D5F-2056-4565-BF79-F2984CBBDF7E",
      "properties" : {
        "name" : "妙辰素食",
        "address" : "新北市三重區龍門路74號"
      },
      "type" : "Feature",
      "geometry" : {
        "type" : "Point",
        "coordinates" : [
          121.49691,
          25.072776999999999
        ]
      }
    },
    {
      "id" : "49A48987-EBF6-488B-AB53-2D1FBFE60856",
      "properties" : {
        "name" : "東家壽司",
        "address" : "新北市永和區竹林路225巷56號"
      },
      "type" : "Feature",
      "geometry" : {
        "type" : "Point",
        "coordinates" : [
          121.523042,
          25.008704000000002
        ]
      }
    },
    {
      "id" : "D5CD9EC7-0D56-4791-A402-A7CEF44990E1",
      "properties" : {
        "name" : "原粹蔬食作",
        "address" : "新北市新店區寶安街58巷2號"
      },
      "type" : "Feature",
      "geometry" : {
        "type" : "Point",
        "coordinates" : [
          121.541782,
          24.983782000000001
        ]
      }
    },
    {
      "id" : "DC4EC661-6251-444E-9E70-8E70652FACEE",
      "properties" : {
        "name" : "麻辣銘記素麵線",
        "address" : "新北市中和區民利街33號"
      },
      "type" : "Feature",
      "geometry" : {
        "type" : "Point",
        "coordinates" : [
          121.479967,
          24.998878999999999
        ]
      }
    },
    {
      "id" : "B4F06434-ED8C-49FF-A60D-87574746F323",
      "properties" : {
        "name" : "藏仙庵",
        "address" : "新北市新店區北宜路三段210巷27-1號"
      },
      "type" : "Feature",
      "geometry" : {
        "type" : "Point",
        "coordinates" : [
          121.5903517,
          24.9518971
        ]
      }
    },
    {
      "id" : "F300EB0E-2FA9-430E-8750-F99D20DE6A72",
      "properties" : {
        "name" : "一口小吃店",
        "address" : "新北市淡水區新興街60號"
      },
      "type" : "Feature",
      "geometry" : {
        "type" : "Point",
        "coordinates" : [
          121.442008,
          25.180112000000001
        ]
      }
    },
    {
      "id" : "EA7F2C7B-9641-43B3-9BA7-DC5C3AD133AE",
      "properties" : {
        "name" : "妙心素食",
        "address" : "新北市新店區碧潭路43號"
      },
      "type" : "Feature",
      "geometry" : {
        "type" : "Point",
        "coordinates" : [
          121.534156,
          24.956461999999998
        ]
      }
    },
    {
      "id" : "E9657DD9-6B74-45E0-8AE1-A27218897456",
      "properties" : {
        "name" : "全國",
        "address" : "新北市三重區中華路105號"
      },
      "type" : "Feature",
      "geometry" : {
        "type" : "Point",
        "coordinates" : [
          121.4836341,
          25.063351699999998
        ]
      }
    },
    {
      "id" : "C5AE0AF7-F425-40E4-A8C5-CA28C876CACC",
      "properties" : {
        "name" : "花蓮玉里臭豆腐",
        "address" : "新北市三重區仁美街125號"
      },
      "type" : "Feature",
      "geometry" : {
        "type" : "Point",
        "coordinates" : [
          121.48564500000001,
          25.081468000000001
        ]
      }
    },
    {
      "id" : "15365D7A-8208-461B-924C-3E0CD2CE74D1",
      "properties" : {
        "name" : "竹圍天然素食",
        "address" : "新北市淡水區民生路40號"
      },
      "type" : "Feature",
      "geometry" : {
        "type" : "Point",
        "coordinates" : [
          121.46151500000001,
          25.137725
        ]
      }
    },
    {
      "id" : "D4603FBC-03E9-487A-B54A-50B434480A2B",
      "properties" : {
        "name" : "蓮香素食小棧",
        "address" : "新北市永和區中正路66巷21號"
      },
      "type" : "Feature",
      "geometry" : {
        "type" : "Point",
        "coordinates" : [
          121.544417,
          24.970713
        ]
      }
    },
    {
      "id" : "E7794E52-E82E-4337-AD7D-BD1CFA219CF4",
      "properties" : {
        "name" : "元素蔬食早餐",
        "address" : "新北市三峽區大同路104號"
      },
      "type" : "Feature",
      "geometry" : {
        "type" : "Point",
        "coordinates" : [
          121.37450699999999,
          24.927136999999998
        ]
      }
    },
    {
      "id" : "01E76978-F471-4C63-87B0-A9A7421FD318",
      "properties" : {
        "name" : "吉禮鄉西餅屋",
        "address" : "新北市土城區中央路一段186-4號"
      },
      "type" : "Feature",
      "geometry" : {
        "type" : "Point",
        "coordinates" : [
          121.44540499999999,
          24.986470000000001
        ]
      }
    },
    {
      "id" : "FD5D862D-2D0A-4F65-9CD7-713D46F5A29A",
      "properties" : {
        "name" : "綠玟素食",
        "address" : "新北市新莊區中港路523號"
      },
      "type" : "Feature",
      "geometry" : {
        "type" : "Point",
        "coordinates" : [
          121.451718,
          25.050992999999998
        ]
      }
    },
    {
      "id" : "09312C8E-4649-41CE-B8B8-3E69C5C9E4A6",
      "properties" : {
        "name" : "永安健康素食",
        "address" : "新北市永和區中和路519巷5號"
      },
      "type" : "Feature",
      "geometry" : {
        "type" : "Point",
        "coordinates" : [
          121.510775,
          25.002953000000002
        ]
      }
    },
    {
      "id" : "0F3A7E85-C24B-444B-B752-0E93EAD2871F",
      "properties" : {
        "name" : "明德心靈書坊附設素食簡餐",
        "address" : "新北市中和區橋和路122號"
      },
      "type" : "Feature",
      "geometry" : {
        "type" : "Point",
        "coordinates" : [
          121.492727,
          25.005811999999999
        ]
      }
    },
    {
      "id" : "6CE56653-FC79-41E0-8F0C-97A5AFB31A4F",
      "properties" : {
        "name" : "仙人居",
        "address" : "新北市新店區長春路45號"
      },
      "type" : "Feature",
      "geometry" : {
        "type" : "Point",
        "coordinates" : [
          121.550467,
          24.957709999999999
        ]
      }
    },
    {
      "id" : "A0402A13-A216-4712-81F8-9D92E27C919E",
      "properties" : {
        "name" : "日日滿素食",
        "address" : "新北市中和區新興街1號"
      },
      "type" : "Feature",
      "geometry" : {
        "type" : "Point",
        "coordinates" : [
          121.511797,
          25.002932999999999
        ]
      }
    },
    {
      "id" : "1AF26E01-A800-46CC-9A10-4076EBEB4351",
      "properties" : {
        "name" : "18咖啡",
        "address" : "新北市石碇區北宜路五段78號"
      },
      "type" : "Feature",
      "geometry" : {
        "type" : "Point",
        "coordinates" : [
          121.645875,
          24.952015299999999
        ]
      }
    },
    {
      "id" : "C6FCE779-37F6-41D2-9ED8-302633E3BE41",
      "properties" : {
        "name" : "華新素食",
        "address" : "新北市中和區華新街30巷16號"
      },
      "type" : "Feature",
      "geometry" : {
        "type" : "Point",
        "coordinates" : [
          121.50688100000001,
          24.984483000000001
        ]
      }
    },
    {
      "id" : "A0B31D18-0BB4-439F-BE8F-08D9D6E881CE",
      "properties" : {
        "name" : "潮素主藝 Chaovegan",
        "address" : "新北市土城區裕生路21巷6弄14號"
      },
      "type" : "Feature",
      "geometry" : {
        "type" : "Point",
        "coordinates" : [
          121.448564,
          24.986825
        ]
      }
    },
    {
      "id" : "F61987EC-BB6C-485F-946A-CEF34A4D98CA",
      "properties" : {
        "name" : "太上道素食廚房",
        "address" : "新北市板橋區篤行路三段玉平巷76弄13號"
      },
      "type" : "Feature",
      "geometry" : {
        "type" : "Point",
        "coordinates" : [
          121.4272527,
          24.986008500000001
        ]
      }
    },
    {
      "id" : "3BC065AA-78DF-4692-9344-41374DBBE2DD",
      "properties" : {
        "name" : "梅園",
        "address" : "新北市淡水區民生路66號"
      },
      "type" : "Feature",
      "geometry" : {
        "type" : "Point",
        "coordinates" : [
          121.462346,
          25.137903000000001
        ]
      }
    },
    {
      "id" : "53E20759-E4BA-4CCF-899F-622F6B637D7F",
      "properties" : {
        "name" : "素食快餐便當",
        "address" : "新北市瑞芳區建基路一段66號"
      },
      "type" : "Feature",
      "geometry" : {
        "type" : "Point",
        "coordinates" : [
          121.8174626,
          25.127478799999999
        ]
      }
    },
    {
      "id" : "411B2E0A-E4B7-459D-99EB-95DCE0BFFF3C",
      "properties" : {
        "name" : "天慈素食店",
        "address" : "新北市泰山區泰林路二段283號"
      },
      "type" : "Feature",
      "geometry" : {
        "type" : "Point",
        "coordinates" : [
          121.43036499999999,
          25.062775999999999
        ]
      }
    },
    {
      "id" : "5789C627-535E-4F4E-A48D-2960E0482D71",
      "properties" : {
        "name" : "福德福素食",
        "address" : "新北市新莊區五工三路94巷4號"
      },
      "type" : "Feature",
      "geometry" : {
        "type" : "Point",
        "coordinates" : [
          121.458415,
          25.065602999999999
        ]
      }
    },
    {
      "id" : "6AC22112-F849-4431-B8BE-4AC9D8B2B411",
      "properties" : {
        "name" : "崇德發事業股份有限公司",
        "address" : "新北市中和區中山路二段407號"
      },
      "type" : "Feature",
      "geometry" : {
        "type" : "Point",
        "coordinates" : [
          121.486019,
          25.0045818
        ]
      }
    },
    {
      "id" : "A026FB4A-89D0-4DA0-B64A-76B9199EAA38",
      "properties" : {
        "name" : "美濃林家粄條",
        "address" : "新北市中和區員山路148巷15號"
      },
      "type" : "Feature",
      "geometry" : {
        "type" : "Point",
        "coordinates" : [
          121.48187,
          24.997218
        ]
      }
    },
    {
      "id" : "2014FFED-828E-413F-B0F6-EB3FFFF6489A",
      "properties" : {
        "name" : "法蘭素食",
        "address" : "新北市新莊區福樂街18號"
      },
      "type" : "Feature",
      "geometry" : {
        "type" : "Point",
        "coordinates" : [
          121.457966,
          25.045079000000001
        ]
      }
    },
    {
      "id" : "F11531E1-D161-43CA-A55D-2DE6376DBE14",
      "properties" : {
        "name" : "素食麵攤",
        "address" : "新北市三重區龍門路262號"
      },
      "type" : "Feature",
      "geometry" : {
        "type" : "Point",
        "coordinates" : [
          121.50115099999999,
          25.074047
        ]
      }
    },
    {
      "id" : "38C545B8-E650-4E34-B582-2107EEEBA864",
      "properties" : {
        "name" : "蔬福喜餃",
        "address" : "新北市板橋區德興街2-1號"
      },
      "type" : "Feature",
      "geometry" : {
        "type" : "Point",
        "coordinates" : [
          121.453254,
          24.994121100000001
        ]
      }
    },
    {
      "id" : "83305090-AC17-4766-9214-F2D9F8CB2EB5",
      "properties" : {
        "name" : "天香素食",
        "address" : "新北市新莊區建安街40巷2號"
      },
      "type" : "Feature",
      "geometry" : {
        "type" : "Point",
        "coordinates" : [
          121.42769199999999,
          25.025230000000001
        ]
      }
    },
    {
      "id" : "EFFEB648-1FDD-4EB1-8B4D-8B6919F48B64",
      "properties" : {
        "name" : "慈褆素食",
        "address" : "新北市瑞芳區民生街35巷2號"
      },
      "type" : "Feature",
      "geometry" : {
        "type" : "Point",
        "coordinates" : [
          121.8059373,
          25.106739099999999
        ]
      }
    },
    {
      "id" : "7E16831E-3BA7-493D-9709-DC225AF44FF4",
      "properties" : {
        "name" : "素食",
        "address" : "新北市中和區民享街71號"
      },
      "type" : "Feature",
      "geometry" : {
        "type" : "Point",
        "coordinates" : [
          121.47427500000001,
          25.002056
        ]
      }
    },
    {
      "id" : "1D511083-8184-4B4F-8BFB-624D8031ACDE",
      "properties" : {
        "name" : "燉點RISOTTO & WINE",
        "address" : "新北市汐止區新台五路一段99號"
      },
      "type" : "Feature",
      "geometry" : {
        "type" : "Point",
        "coordinates" : [
          121.64824900000001,
          25.061622
        ]
      }
    },
    {
      "id" : "3CC2F242-52EF-4EEF-B658-0C2436DE4D81",
      "properties" : {
        "name" : "彰化素食麵",
        "address" : "新北市永和區保平路30巷8號"
      },
      "type" : "Feature",
      "geometry" : {
        "type" : "Point",
        "coordinates" : [
          121.511805,
          25.007567999999999
        ]
      }
    },
    {
      "id" : "B6FEB080-8C78-4F75-B174-B354007AE678",
      "properties" : {
        "name" : "美味佳素食中心",
        "address" : "新北市泰山區全興路212號"
      },
      "type" : "Feature",
      "geometry" : {
        "type" : "Point",
        "coordinates" : [
          121.4336534,
          25.056130599999999
        ]
      }
    },
    {
      "id" : "C050E7F9-F4EE-4F5A-BDC6-E0C78F5427BD",
      "properties" : {
        "name" : "明德素食園",
        "address" : "新北市板橋區縣民大道二段7號"
      },
      "type" : "Feature",
      "geometry" : {
        "type" : "Point",
        "coordinates" : [
          121.46530370000001,
          25.0123356
        ]
      }
    },
    {
      "id" : "3BCA5DA0-59E9-4D6F-88F2-3219728FEBB9",
      "properties" : {
        "name" : "北辰素食",
        "address" : "新北市蘆洲區中正路185巷82號"
      },
      "type" : "Feature",
      "geometry" : {
        "type" : "Point",
        "coordinates" : [
          121.465748,
          25.084153000000001
        ]
      }
    },
    {
      "id" : "ABC57C3D-C05F-4FEF-9C11-DE4B654A0864",
      "properties" : {
        "name" : "全真素食火鍋鐵板燒",
        "address" : "新北市板橋區新海路129號"
      },
      "type" : "Feature",
      "geometry" : {
        "type" : "Point",
        "coordinates" : [
          121.4608676,
          25.0230739
        ]
      }
    },
    {
      "id" : "7B1DAE23-074F-499C-B450-BDD81FEB76B1",
      "properties" : {
        "name" : "素食",
        "address" : "新北市板橋區三民路二段202號"
      },
      "type" : "Feature",
      "geometry" : {
        "type" : "Point",
        "coordinates" : [
          121.47882799999999,
          25.013192
        ]
      }
    },
    {
      "id" : "2A221022-2E06-4C1E-978D-A789FF7E736E",
      "properties" : {
        "name" : "pizza olmo柴燒新義式烘焙餐廳",
        "address" : "新北市三芝區芝柏路46號"
      },
      "type" : "Feature",
      "geometry" : {
        "type" : "Point",
        "coordinates" : [
          121.5118583,
          25.255940800000001
        ]
      }
    },
    {
      "id" : "269BCD44-C834-42E2-B678-64C60175739C",
      "properties" : {
        "name" : "三角湧滷味",
        "address" : "新北市三峽區民權街129號"
      },
      "type" : "Feature",
      "geometry" : {
        "type" : "Point",
        "coordinates" : [
          121.36896900000001,
          24.931995000000001
        ]
      }
    },
    {
      "id" : "2C087797-9B05-4E9E-824A-4068AE509C74",
      "properties" : {
        "name" : "透早日頭-TOZAZTO ",
        "address" : "新北市新莊區和興街7號"
      },
      "type" : "Feature",
      "geometry" : {
        "type" : "Point",
        "coordinates" : [
          121.4474213,
          25.039015599999999
        ]
      }
    },
    {
      "id" : "339BC497-3313-4E32-8422-D90ACBE73A36",
      "properties" : {
        "name" : "大地素食早餐",
        "address" : "新北市板橋區篤行路三段玉平巷76弄18號"
      },
      "type" : "Feature",
      "geometry" : {
        "type" : "Point",
        "coordinates" : [
          121.4278693,
          24.9858133
        ]
      }
    },
    {
      "id" : "D7225F3F-6468-49E1-BC51-882400FBECA9",
      "properties" : {
        "name" : "波羅密早餐素食",
        "address" : "新北市新莊區福壽街138號"
      },
      "type" : "Feature",
      "geometry" : {
        "type" : "Point",
        "coordinates" : [
          121.457864,
          25.051684999999999
        ]
      }
    },
    {
      "id" : "B25E8295-FE2C-438D-9E9F-7F7750C5D6D4",
      "properties" : {
        "name" : "嬿姿養生素食",
        "address" : "新北市三峽區復興路147號"
      },
      "type" : "Feature",
      "geometry" : {
        "type" : "Point",
        "coordinates" : [
          121.370912,
          24.938123999999998
        ]
      }
    },
    {
      "id" : "B4483125-94C1-4F8A-B83E-831280D19F4B",
      "properties" : {
        "name" : "素蚵嗲",
        "address" : "新北市新莊區新樹路573號"
      },
      "type" : "Feature",
      "geometry" : {
        "type" : "Point",
        "coordinates" : [
          121.433015,
          25.007004999999999
        ]
      }
    },
    {
      "id" : "ABD138EA-E693-4D5C-AAC3-EF7B09DA3F33",
      "properties" : {
        "name" : "天緣小吃",
        "address" : "新北市中和區南華路74號"
      },
      "type" : "Feature",
      "geometry" : {
        "type" : "Point",
        "coordinates" : [
          121.50515849999999,
          24.997172200000001
        ]
      }
    },
    {
      "id" : "415588E9-5DD6-4015-B5D2-3B48B4D1154F",
      "properties" : {
        "name" : "蔬喜素食",
        "address" : "新北市新店區民權路116號"
      },
      "type" : "Feature",
      "geometry" : {
        "type" : "Point",
        "coordinates" : [
          121.53543500000001,
          24.983090000000001
        ]
      }
    },
    {
      "id" : "476C500E-5D12-4302-A787-DA5F809C7C1C",
      "properties" : {
        "name" : "淡水素食小舖",
        "address" : "新北市淡水區清水街30號"
      },
      "type" : "Feature",
      "geometry" : {
        "type" : "Point",
        "coordinates" : [
          121.44480900000001,
          25.170528999999998
        ]
      }
    },
    {
      "id" : "A6874371-5092-4C6F-8EE7-11FC3ED2B4D4",
      "properties" : {
        "name" : "素煎包",
        "address" : "新北市金山區中山路225號"
      },
      "type" : "Feature",
      "geometry" : {
        "type" : "Point",
        "coordinates" : [
          121.637479,
          25.221499999999999
        ]
      }
    },
    {
      "id" : "87127AC6-6365-40A0-8089-FC272FB417E2",
      "properties" : {
        "name" : "美味素食鍋貼",
        "address" : "新北市樹林區保安街一段22-2號"
      },
      "type" : "Feature",
      "geometry" : {
        "type" : "Point",
        "coordinates" : [
          121.42743,
          24.993521000000001
        ]
      }
    },
    {
      "id" : "9ED754E0-A5AB-4DC7-899A-83888F98B7C9",
      "properties" : {
        "name" : "海院素食小攤",
        "address" : "新北市淡水區濱海路三段150號"
      },
      "type" : "Feature",
      "geometry" : {
        "type" : "Point",
        "coordinates" : [
          121.425625,
          25.192067999999999
        ]
      }
    },
    {
      "id" : "8AA0311E-16B3-4EE5-8A7C-E59D0EFD36BB",
      "properties" : {
        "name" : "漢唐烘培坊咖啡",
        "address" : "新北市新莊區中榮街79號"
      },
      "type" : "Feature",
      "geometry" : {
        "type" : "Point",
        "coordinates" : [
          121.44555200000001,
          25.052638000000002
        ]
      }
    },
    {
      "id" : "5124F658-01E3-41F1-A5AF-839DCECC0195",
      "properties" : {
        "name" : "素越美食",
        "address" : "新北市三重區福德南路26號"
      },
      "type" : "Feature",
      "geometry" : {
        "type" : "Point",
        "coordinates" : [
          121.502864,
          25.063067
        ]
      }
    },
    {
      "id" : "7633A5C1-142B-4226-8691-5DC39E8BB62D",
      "properties" : {
        "name" : "紅橙黃綠蔬食食堂",
        "address" : "新北市新莊區建安街40巷22號"
      },
      "type" : "Feature",
      "geometry" : {
        "type" : "Point",
        "coordinates" : [
          121.42758000000001,
          25.025393000000001
        ]
      }
    },
    {
      "id" : "046DD84A-903E-4278-949C-99CEDD16564E",
      "properties" : {
        "name" : "依素吧 Eatsubar 海苔飯捲",
        "address" : "新北市板橋區大觀路二段148巷1-2號"
      },
      "type" : "Feature",
      "geometry" : {
        "type" : "Point",
        "coordinates" : [
          121.4417474,
          24.9991059
        ]
      }
    },
    {
      "id" : "686039CC-E0CB-4045-B5DD-3D5255CFF6EB",
      "properties" : {
        "name" : "我好幸福民宿",
        "address" : "新北市瑞芳區新山路16號"
      },
      "type" : "Feature",
      "geometry" : {
        "type" : "Point",
        "coordinates" : [
          121.851837,
          25.110019000000001
        ]
      }
    },
    {
      "id" : "94F3130D-4688-4781-91E8-BA9CD7A0460C",
      "properties" : {
        "name" : "呂得利商行",
        "address" : "新北市淡水區清水街29號"
      },
      "type" : "Feature",
      "geometry" : {
        "type" : "Point",
        "coordinates" : [
          121.443309,
          25.169986999999999
        ]
      }
    },
    {
      "id" : "5B561F8B-50DD-49AA-A8CF-7295314955D6",
      "properties" : {
        "name" : "許家園西餅蛋糕",
        "address" : "新北市金山區中山路287號"
      },
      "type" : "Feature",
      "geometry" : {
        "type" : "Point",
        "coordinates" : [
          121.635977,
          25.223161999999999
        ]
      }
    },
    {
      "id" : "39E55EDF-CA7A-4FD2-9966-C7E27C435BEE",
      "properties" : {
        "name" : "慧宇素食小吃",
        "address" : "新北市蘆洲區光華路87巷2號"
      },
      "type" : "Feature",
      "geometry" : {
        "type" : "Point",
        "coordinates" : [
          121.467671,
          25.082339999999999
        ]
      }
    },
    {
      "id" : "60BC9823-C145-41A0-9B8C-CFB4B2183EE8",
      "properties" : {
        "name" : "松如素食",
        "address" : "新北市樹林區太元街29號"
      },
      "type" : "Feature",
      "geometry" : {
        "type" : "Point",
        "coordinates" : [
          121.41839299999999,
          24.979828000000001
        ]
      }
    },
    {
      "id" : "BE8E9B05-FF1C-4F90-BF94-FBD9AE56875F",
      "properties" : {
        "name" : "素珍素食",
        "address" : "新北市中和區連城路23巷4號"
      },
      "type" : "Feature",
      "geometry" : {
        "type" : "Point",
        "coordinates" : [
          121.498887,
          25.001771999999999
        ]
      }
    },
    {
      "id" : "D1C8C082-ECC2-4928-985C-30502E4ACDE3",
      "properties" : {
        "name" : "仙侶奇緣",
        "address" : "新北市三峽區大勇路35-1號"
      },
      "type" : "Feature",
      "geometry" : {
        "type" : "Point",
        "coordinates" : [
          121.367357,
          24.936164999999999
        ]
      }
    },
    {
      "id" : "645D47E4-520E-474A-8543-FBAA3568A0D5",
      "properties" : {
        "name" : "靖姑素食自助餐",
        "address" : "新北市三重區溪尾街144號"
      },
      "type" : "Feature",
      "geometry" : {
        "type" : "Point",
        "coordinates" : [
          121.48902,
          25.079711
        ]
      }
    },
    {
      "id" : "C25EA4E5-575A-430A-A154-F24CCDB84F58",
      "properties" : {
        "name" : "素食麵攤",
        "address" : "新北市三重區永福街62-2號"
      },
      "type" : "Feature",
      "geometry" : {
        "type" : "Point",
        "coordinates" : [
          121.480996,
          25.077788000000002
        ]
      }
    },
    {
      "id" : "44B289F0-FFA9-4541-B18F-5E299CAC44E2",
      "properties" : {
        "name" : "江南里",
        "address" : "新北市三重區信義街47-1號"
      },
      "type" : "Feature",
      "geometry" : {
        "type" : "Point",
        "coordinates" : [
          121.50038739999999,
          25.0649145
        ]
      }
    },
    {
      "id" : "AF290441-3230-490C-A1EF-D7AE2A6A9BDC",
      "properties" : {
        "name" : "素食抓餅",
        "address" : "新北市永和區秀朗路一段209巷巷口"
      },
      "type" : "Feature",
      "geometry" : {
        "type" : "Point",
        "coordinates" : [
          121.5195325,
          25.003402000000001
        ]
      }
    },
    {
      "id" : "125F7283-C948-4E8D-B99C-C43C5F1A6258",
      "properties" : {
        "name" : "素食材料",
        "address" : "新北市三重區仁和街199號"
      },
      "type" : "Feature",
      "geometry" : {
        "type" : "Point",
        "coordinates" : [
          121.500467,
          25.074825000000001
        ]
      }
    },
    {
      "id" : "273B9CFD-8642-452F-B7ED-C139E42CCA9D",
      "properties" : {
        "name" : "狀元殿",
        "address" : "新北市中和區莒光路26號"
      },
      "type" : "Feature",
      "geometry" : {
        "type" : "Point",
        "coordinates" : [
          121.472083,
          25.004125999999999
        ]
      }
    },
    {
      "id" : "BA3397CA-6FEE-416E-91EC-1C7DCE114294",
      "properties" : {
        "name" : "養生素食",
        "address" : "新北市汐止區中興路282號"
      },
      "type" : "Feature",
      "geometry" : {
        "type" : "Point",
        "coordinates" : [
          121.628615,
          25.069399000000001
        ]
      }
    },
    {
      "id" : "2FB084A4-2B07-4F1E-8EC0-4FA85AA4A208",
      "properties" : {
        "name" : "慧素素食",
        "address" : "新北市板橋區大觀路二段277號"
      },
      "type" : "Feature",
      "geometry" : {
        "type" : "Point",
        "coordinates" : [
          121.442671,
          24.998856
        ]
      }
    },
    {
      "id" : "35CBCA2A-DADD-46A5-8457-33B58DC18FA5",
      "properties" : {
        "name" : "不二健康素食",
        "address" : "新北市三芝區中正路二段22號"
      },
      "type" : "Feature",
      "geometry" : {
        "type" : "Point",
        "coordinates" : [
          121.5044688,
          25.255133799999999
        ]
      }
    },
    {
      "id" : "D2D791D5-89BD-4B8A-AD43-2F019E9F81DC",
      "properties" : {
        "name" : "和合素食",
        "address" : "新北市永和區永利路64號"
      },
      "type" : "Feature",
      "geometry" : {
        "type" : "Point",
        "coordinates" : [
          121.519263,
          25.004899999999999
        ]
      }
    },
    {
      "id" : "08CBFBFB-FC6E-433D-A371-0D23F4EE8C5F",
      "properties" : {
        "name" : "Three Full 找3飽",
        "address" : "新北市土城區員林街61巷2弄8號"
      },
      "type" : "Feature",
      "geometry" : {
        "type" : "Point",
        "coordinates" : [
          121.444318,
          24.977474999999998
        ]
      }
    },
    {
      "id" : "64FD63C6-25DE-414C-8267-190485E3BCCA",
      "properties" : {
        "name" : "素食早餐店",
        "address" : "新北市新莊區中信街67巷4號"
      },
      "type" : "Feature",
      "geometry" : {
        "type" : "Point",
        "coordinates" : [
          121.448775,
          25.050892000000001
        ]
      }
    },
    {
      "id" : "C6D66EBF-9827-44D0-AE7A-55BA2FF8ACF5",
      "properties" : {
        "name" : "福星素食",
        "address" : "新北市板橋區民治街122號"
      },
      "type" : "Feature",
      "geometry" : {
        "type" : "Point",
        "coordinates" : [
          121.477985,
          25.031146
        ]
      }
    },
    {
      "id" : "211D4713-A298-4C2C-85BC-5359683839E7",
      "properties" : {
        "name" : "素食水煎包",
        "address" : "新北市新莊區化成路112號"
      },
      "type" : "Feature",
      "geometry" : {
        "type" : "Point",
        "coordinates" : [
          121.465538,
          25.044422999999998
        ]
      }
    },
    {
      "id" : "D9DE463F-34B4-4022-AD0A-BAD39FDC844E",
      "properties" : {
        "name" : "明善素食",
        "address" : "新北市板橋區江寧路三段79巷2號"
      },
      "type" : "Feature",
      "geometry" : {
        "type" : "Point",
        "coordinates" : [
          121.472347,
          25.032571000000001
        ]
      }
    },
    {
      "id" : "2A0208E6-7373-4115-B058-A5E85AF293FD",
      "properties" : {
        "name" : "二六素舍",
        "address" : "新北市新店區安民街360號"
      },
      "type" : "Feature",
      "geometry" : {
        "type" : "Point",
        "coordinates" : [
          121.51655700000001,
          24.976111
        ]
      }
    },
    {
      "id" : "3EFEE279-8F2B-4098-8978-6F699A8B2A76",
      "properties" : {
        "name" : "素食山藥餅",
        "address" : "新北市板橋區府中路123號"
      },
      "type" : "Feature",
      "geometry" : {
        "type" : "Point",
        "coordinates" : [
          121.45623999999999,
          25.009460000000001
        ]
      }
    },
    {
      "id" : "2CF60494-358D-433A-874B-1225F42399F6",
      "properties" : {
        "name" : "回家素麵食-Comehome&Eat",
        "address" : "新北市土城區員林街6號"
      },
      "type" : "Feature",
      "geometry" : {
        "type" : "Point",
        "coordinates" : [
          121.442657,
          24.977989000000001
        ]
      }
    },
    {
      "id" : "C8647F34-2712-490B-AF39-5C196BC9DEE3",
      "properties" : {
        "name" : "慈緣素食",
        "address" : "新北市中和區和平街72號"
      },
      "type" : "Feature",
      "geometry" : {
        "type" : "Point",
        "coordinates" : [
          121.50796099999999,
          24.991114
        ]
      }
    },
    {
      "id" : "C8BA5176-4912-4440-BAC2-EC88CBF33AB2",
      "properties" : {
        "name" : "澄祥素食",
        "address" : "新北市樹林區日新街164號"
      },
      "type" : "Feature",
      "geometry" : {
        "type" : "Point",
        "coordinates" : [
          121.420247,
          24.988219000000001
        ]
      }
    },
    {
      "id" : "E2F3E6EA-23A7-4494-A733-79B2D5973198",
      "properties" : {
        "name" : "早餐素食",
        "address" : "新北市汐止區秀峰路76號"
      },
      "type" : "Feature",
      "geometry" : {
        "type" : "Point",
        "coordinates" : [
          121.65977700000001,
          25.064247999999999
        ]
      }
    },
    {
      "id" : "293FACC8-0DA9-4A5D-B3B3-756BBFA7D109",
      "properties" : {
        "name" : "醇品咖啡素食坊",
        "address" : "新北市三峽區中正路二段421號"
      },
      "type" : "Feature",
      "geometry" : {
        "type" : "Point",
        "coordinates" : [
          121.3632635,
          24.9067583
        ]
      }
    },
    {
      "id" : "02DE19CA-151A-4083-8B86-F208754F3047",
      "properties" : {
        "name" : "維生好素食坊",
        "address" : "新北市林口區文化二路一段20巷23號"
      },
      "type" : "Feature",
      "geometry" : {
        "type" : "Point",
        "coordinates" : [
          121.3654221,
          25.067003199999998
        ]
      }
    },
    {
      "id" : "F711BC35-BB9D-4285-B13B-94C144BD03D7",
      "properties" : {
        "name" : "MiDo 米荳海苔飯捲",
        "address" : "新北市汐止區忠孝東路196號"
      },
      "type" : "Feature",
      "geometry" : {
        "type" : "Point",
        "coordinates" : [
          121.6617822,
          25.0660919
        ]
      }
    },
    {
      "id" : "B36945C9-12C9-401E-9D20-EF1488B3784A",
      "properties" : {
        "name" : "吉坊素食藝術蛋糕",
        "address" : "新北市三重區信義西街96號"
      },
      "type" : "Feature",
      "geometry" : {
        "type" : "Point",
        "coordinates" : [
          121.496492,
          25.064183
        ]
      }
    },
    {
      "id" : "34AB19ED-E3C2-46BD-844B-AE991D75A2EB",
      "properties" : {
        "name" : "多緣素健康蔬食",
        "address" : "新北市三重區中正北路25巷15號"
      },
      "type" : "Feature",
      "geometry" : {
        "type" : "Point",
        "coordinates" : [
          121.49298899999999,
          25.062255
        ]
      }
    },
    {
      "id" : "A008D445-33B3-49F0-B245-BB0E3394B868",
      "properties" : {
        "name" : "大胖素食",
        "address" : "新北市板橋區溪崑二街21號"
      },
      "type" : "Feature",
      "geometry" : {
        "type" : "Point",
        "coordinates" : [
          121.42879000000001,
          24.991256
        ]
      }
    },
    {
      "id" : "728B689C-EB06-4CF1-909E-DCDF5F171574",
      "properties" : {
        "name" : "大千素食",
        "address" : "新北市林口區文化一路一段135巷28號"
      },
      "type" : "Feature",
      "geometry" : {
        "type" : "Point",
        "coordinates" : [
          121.37917880000001,
          25.076127100000001
        ]
      }
    },
    {
      "id" : "F704D521-95A4-4FC6-B0D7-812076A57B0C",
      "properties" : {
        "name" : "晨蔬亭",
        "address" : "新北市新店區中正路43號"
      },
      "type" : "Feature",
      "geometry" : {
        "type" : "Point",
        "coordinates" : [
          121.544713,
          24.969701000000001
        ]
      }
    },
    {
      "id" : "52C0884C-DBB1-4B47-8FEE-772009F4E57E",
      "properties" : {
        "name" : "味美思素食店",
        "address" : "新北市板橋區光復街33巷1號"
      },
      "type" : "Feature",
      "geometry" : {
        "type" : "Point",
        "coordinates" : [
          121.481613,
          25.019086999999999
        ]
      }
    },
    {
      "id" : "AAEAF314-FAFB-4559-BB3F-D241FE3C28DD",
      "properties" : {
        "name" : "彌勒素食",
        "address" : "新北市三重區力行路一段91號"
      },
      "type" : "Feature",
      "geometry" : {
        "type" : "Point",
        "coordinates" : [
          121.486374,
          25.0681984
        ]
      }
    },
    {
      "id" : "BF210D93-E998-4F91-AC98-92364BB8CA6F",
      "properties" : {
        "name" : "菩提素食坊",
        "address" : "新北市三峽區有木里131-1號"
      },
      "type" : "Feature",
      "geometry" : {
        "type" : "Point",
        "coordinates" : [
          121.43478899999999,
          24.862905000000001
        ]
      }
    },
    {
      "id" : "01B593B1-10BD-4FEE-A757-3D6C53A22F12",
      "properties" : {
        "name" : "普門茶品",
        "address" : "新北市三峽區國際二街11號"
      },
      "type" : "Feature",
      "geometry" : {
        "type" : "Point",
        "coordinates" : [
          121.3736141,
          24.9437316
        ]
      }
    },
    {
      "id" : "8A160979-7016-4493-96E2-57BBDE9B5C71",
      "properties" : {
        "name" : "得來素蔬食連鎖餐飲",
        "address" : "新北市土城區廣興街5號"
      },
      "type" : "Feature",
      "geometry" : {
        "type" : "Point",
        "coordinates" : [
          121.4566851,
          24.9915901
        ]
      }
    },
    {
      "id" : "1662BBCE-DF64-4A30-873E-A1D05D42721D",
      "properties" : {
        "name" : "京席素食料理",
        "address" : "新北市永和區復興街65號"
      },
      "type" : "Feature",
      "geometry" : {
        "type" : "Point",
        "coordinates" : [
          121.517298,
          25.013864000000002
        ]
      }
    },
    {
      "id" : "C2AE71EF-8156-4BE2-86AE-14EB740B56BC",
      "properties" : {
        "name" : "金紀素食",
        "address" : "新北市淡水區水源街一段68號"
      },
      "type" : "Feature",
      "geometry" : {
        "type" : "Point",
        "coordinates" : [
          121.44516,
          25.172256000000001
        ]
      }
    },
    {
      "id" : "6642CAD8-8368-40A7-9FC9-A38FD5312249",
      "properties" : {
        "name" : "福記素食",
        "address" : "新北市三重區光興街134號"
      },
      "type" : "Feature",
      "geometry" : {
        "type" : "Point",
        "coordinates" : [
          121.4947238,
          25.059369799999999
        ]
      }
    },
    {
      "id" : "3DC03DCF-8F7E-4E81-B6E0-1F06748C3A18",
      "properties" : {
        "name" : "阿伯素食車輪餅",
        "address" : "新北市板橋區新海路1號"
      },
      "type" : "Feature",
      "geometry" : {
        "type" : "Point",
        "coordinates" : [
          121.4625616,
          25.020409999999998
        ]
      }
    },
    {
      "id" : "EC1A2A37-9E63-4BDE-A28D-A6410451C341",
      "properties" : {
        "name" : "心緣素食",
        "address" : "新北市淡水區北新路67號"
      },
      "type" : "Feature",
      "geometry" : {
        "type" : "Point",
        "coordinates" : [
          121.445977,
          25.178504
        ]
      }
    },
    {
      "id" : "4F5B219D-4DEA-4A88-B385-DFEA34B9FC19",
      "properties" : {
        "name" : "祥蓮素食",
        "address" : "新北市中和區興南路一段40號"
      },
      "type" : "Feature",
      "geometry" : {
        "type" : "Point",
        "coordinates" : [
          121.51100099999999,
          24.990805999999999
        ]
      }
    },
    {
      "id" : "CFEFB8CB-4819-4BD1-A957-0C5FDEE82953",
      "properties" : {
        "name" : "健康素食",
        "address" : "新北市板橋區民享街116巷1弄18號"
      },
      "type" : "Feature",
      "geometry" : {
        "type" : "Point",
        "coordinates" : [
          121.478308,
          25.016296000000001
        ]
      }
    },
    {
      "id" : "6FC28175-E120-47BC-81C8-F7D0733B6BCE",
      "properties" : {
        "name" : "蔬漫蔬食料理",
        "address" : "新北市淡水區博愛街47號"
      },
      "type" : "Feature",
      "geometry" : {
        "type" : "Point",
        "coordinates" : [
          121.44667099999999,
          25.169288000000002
        ]
      }
    },
    {
      "id" : "852FF5DB-72FC-4F84-B292-23DA9854F15A",
      "properties" : {
        "name" : "國祥素食",
        "address" : "新北市淡水區清水街67號"
      },
      "type" : "Feature",
      "geometry" : {
        "type" : "Point",
        "coordinates" : [
          121.44166199999999,
          25.169981
        ]
      }
    },
    {
      "id" : "88F324E4-1176-4A97-944D-5BC5E0EBA68D",
      "properties" : {
        "name" : "彤豐健康素食",
        "address" : "新北市三重區光復路一段68巷2號"
      },
      "type" : "Feature",
      "geometry" : {
        "type" : "Point",
        "coordinates" : [
          121.471783,
          25.049049
        ]
      }
    },
    {
      "id" : "2C643286-D5FD-46E4-8510-C330E21BFAD0",
      "properties" : {
        "name" : "彌勒齋素食路邊早餐攤",
        "address" : "新北市新店區建國路7號"
      },
      "type" : "Feature",
      "geometry" : {
        "type" : "Point",
        "coordinates" : [
          121.539705,
          24.973507000000001
        ]
      }
    },
    {
      "id" : "E663A6DC-762B-44F1-91C3-B68C046DC707",
      "properties" : {
        "name" : "香菇田園養生店",
        "address" : "新北市新莊區四維路152巷6號"
      },
      "type" : "Feature",
      "geometry" : {
        "type" : "Point",
        "coordinates" : [
          121.422607,
          25.023076
        ]
      }
    },
    {
      "id" : "8AE50A71-C9DE-4261-AAC1-10A8200D78B7",
      "properties" : {
        "name" : "小芽蔬食早午餐",
        "address" : "新北市新莊區中和街59巷24號"
      },
      "type" : "Feature",
      "geometry" : {
        "type" : "Point",
        "coordinates" : [
          121.44638399999999,
          25.046880000000002
        ]
      }
    },
    {
      "id" : "87F6AEE3-D67E-424C-8190-B71A1604EE8C",
      "properties" : {
        "name" : "比漾咖啡\/選物",
        "address" : "新北市永和區中山路一段238號"
      },
      "type" : "Feature",
      "geometry" : {
        "type" : "Point",
        "coordinates" : [
          121.5076461,
          25.0078365
        ]
      }
    },
    {
      "id" : "5A129EF6-8B33-4F47-A0FF-4CB0D3A70635",
      "properties" : {
        "name" : "樂香香義大利麵坊",
        "address" : "新北市永和區得和路103號"
      },
      "type" : "Feature",
      "geometry" : {
        "type" : "Point",
        "coordinates" : [
          121.518227,
          25.000328
        ]
      }
    },
    {
      "id" : "B99460E9-10DA-45F5-BCFD-8007DE28A677",
      "properties" : {
        "name" : "素食麵攤",
        "address" : "新北市土城區延吉街251號"
      },
      "type" : "Feature",
      "geometry" : {
        "type" : "Point",
        "coordinates" : [
          121.46758199999999,
          24.984867699999999
        ]
      }
    },
    {
      "id" : "E22AA9CF-A2DA-4206-8175-E6A64A754D0A",
      "properties" : {
        "name" : "菁桐崇德素食之家",
        "address" : "新北市平溪區菁桐街60號"
      },
      "type" : "Feature",
      "geometry" : {
        "type" : "Point",
        "coordinates" : [
          121.7227807,
          25.023528800000001
        ]
      }
    },
    {
      "id" : "330397CA-7298-4240-A8CE-C051AA0BE12C",
      "properties" : {
        "name" : "元素早餐",
        "address" : "新北市三重區光復路一段68巷29號"
      },
      "type" : "Feature",
      "geometry" : {
        "type" : "Point",
        "coordinates" : [
          121.47005299999999,
          25.049422
        ]
      }
    },
    {
      "id" : "0310C546-5FB7-4FFE-A548-9B4DCD3BF0C1",
      "properties" : {
        "name" : "王師傅素麵食館",
        "address" : "新北市板橋區莒光路165巷16號"
      },
      "type" : "Feature",
      "geometry" : {
        "type" : "Point",
        "coordinates" : [
          121.474216,
          25.024339999999999
        ]
      }
    },
    {
      "id" : "E6B4D9BB-A6F9-48DF-9E9D-C43871765BAB",
      "properties" : {
        "name" : "滋味多素食城",
        "address" : "新北市三重區重新路二段31號"
      },
      "type" : "Feature",
      "geometry" : {
        "type" : "Point",
        "coordinates" : [
          121.497592,
          25.062268
        ]
      }
    },
    {
      "id" : "92148114-1F0E-4C35-97DB-B71770C30E3C",
      "properties" : {
        "name" : "妙露素食",
        "address" : "新北市新店區中興路一段267-1號"
      },
      "type" : "Feature",
      "geometry" : {
        "type" : "Point",
        "coordinates" : [
          121.54479000000001,
          24.967670999999999
        ]
      }
    },
    {
      "id" : "E7C987F0-A2C1-4BBB-A3D8-22CB91F16BC7",
      "properties" : {
        "name" : "品香素食",
        "address" : "新北市樹林區保安街二段245號"
      },
      "type" : "Feature",
      "geometry" : {
        "type" : "Point",
        "coordinates" : [
          121.413044,
          25.004715999999998
        ]
      }
    },
    {
      "id" : "F201CB45-B4BF-4134-8AE1-2026983A588E",
      "properties" : {
        "name" : "越南素食館",
        "address" : "新北市三重區光興街106號"
      },
      "type" : "Feature",
      "geometry" : {
        "type" : "Point",
        "coordinates" : [
          121.49529200000001,
          25.059502999999999
        ]
      }
    },
    {
      "id" : "2F424D1B-B713-447B-8D4E-C175ABE530E6",
      "properties" : {
        "name" : "京進素食",
        "address" : "新北市鶯歌區仁愛路62號"
      },
      "type" : "Feature",
      "geometry" : {
        "type" : "Point",
        "coordinates" : [
          121.35392,
          24.955055000000002
        ]
      }
    },
    {
      "id" : "523AA8A2-DA58-486F-8A32-BE8C26C07F94",
      "properties" : {
        "name" : "德林歐式素食館",
        "address" : "新北市三峽區中山路284號"
      },
      "type" : "Feature",
      "geometry" : {
        "type" : "Point",
        "coordinates" : [
          121.36118500000001,
          24.938023000000001
        ]
      }
    },
    {
      "id" : "8D0D8522-CD6D-4998-BEC7-9F7F58BF4BC9",
      "properties" : {
        "name" : "尪某茶-假日茶棧",
        "address" : "新北市烏來區瀑布路6號"
      },
      "type" : "Feature",
      "geometry" : {
        "type" : "Point",
        "coordinates" : [
          121.5516034,
          24.848102099999998
        ]
      }
    },
    {
      "id" : "18075503-1B9C-4DC9-8F2B-93E14AEBD659",
      "properties" : {
        "name" : "喜悅健康食品行",
        "address" : "新北市板橋區大仁街65號"
      },
      "type" : "Feature",
      "geometry" : {
        "type" : "Point",
        "coordinates" : [
          121.45418600000001,
          25.016272000000001
        ]
      }
    },
    {
      "id" : "07DB0EE7-57F8-4A8F-8CEA-99B678315530",
      "properties" : {
        "name" : "愛的小屋",
        "address" : "新北市三重區貴陽街14號"
      },
      "type" : "Feature",
      "geometry" : {
        "type" : "Point",
        "coordinates" : [
          121.484144,
          25.061707999999999
        ]
      }
    },
    {
      "id" : "3FFF4E4D-8FFE-4C4B-AD20-EEE26AEB2795",
      "properties" : {
        "name" : "愛酵廚房素食",
        "address" : "新北市樹林區俊英街223巷"
      },
      "type" : "Feature",
      "geometry" : {
        "type" : "Point",
        "coordinates" : [
          121.4233498,
          25.0131999
        ]
      }
    },
    {
      "id" : "23BE5384-071A-4FBD-945C-8A5C8028278B",
      "properties" : {
        "name" : "千囍蔬食堂&Y Mo海燕窩鮮果汁",
        "address" : "新北市淡水區公明街73巷6號"
      },
      "type" : "Feature",
      "geometry" : {
        "type" : "Point",
        "coordinates" : [
          121.4439172,
          25.168589000000001
        ]
      }
    },
    {
      "id" : "F03C87F9-EC60-472F-ABF5-0EEB331B5779",
      "properties" : {
        "name" : "大千素食自助餐",
        "address" : "新北市新店區中華路48巷10號"
      },
      "type" : "Feature",
      "geometry" : {
        "type" : "Point",
        "coordinates" : [
          121.540228,
          24.968730000000001
        ]
      }
    },
    {
      "id" : "D999697F-E0B8-4E53-837A-4CC9A9B2F4F4",
      "properties" : {
        "name" : "萃花林 素食自助餐",
        "address" : "新北市板橋區溪崑二街101號"
      },
      "type" : "Feature",
      "geometry" : {
        "type" : "Point",
        "coordinates" : [
          121.426942,
          24.989017
        ]
      }
    },
    {
      "id" : "89C20EC6-5C8D-493D-8CCE-F7A7F2822F32",
      "properties" : {
        "name" : "慧德日式素食",
        "address" : "新北市蘆洲區長榮路46巷2號"
      },
      "type" : "Feature",
      "geometry" : {
        "type" : "Point",
        "coordinates" : [
          121.464326,
          25.081928999999999
        ]
      }
    },
    {
      "id" : "C513FCA9-4F00-4278-B592-CD4003B425C8",
      "properties" : {
        "name" : "至佳素食",
        "address" : "新北市中和區民享街89巷1號"
      },
      "type" : "Feature",
      "geometry" : {
        "type" : "Point",
        "coordinates" : [
          121.47451270000001,
          25.001695600000001
        ]
      }
    },
    {
      "id" : "3121BA35-5652-48C0-B34E-4299AB93DAF6",
      "properties" : {
        "name" : "苜樹芽手捲",
        "address" : "新北市三重區中央北路22號"
      },
      "type" : "Feature",
      "geometry" : {
        "type" : "Point",
        "coordinates" : [
          121.50084819999999,
          25.064211700000001
        ]
      }
    },
    {
      "id" : "9535D498-EA88-45B9-9F06-E00B38B7C618",
      "properties" : {
        "name" : "美食坊",
        "address" : "新北市金山區福德街9號"
      },
      "type" : "Feature",
      "geometry" : {
        "type" : "Point",
        "coordinates" : [
          121.63815959999999,
          25.220970999999999
        ]
      }
    },
    {
      "id" : "F8818CBD-387C-4A87-8CCC-2B77A1B57F0E",
      "properties" : {
        "name" : "養生素食坊",
        "address" : "新北市板橋區自由路51巷2號"
      },
      "type" : "Feature",
      "geometry" : {
        "type" : "Point",
        "coordinates" : [
          121.465317,
          25.023698
        ]
      }
    },
    {
      "id" : "5C831436-A587-4DE2-A838-82367631803E",
      "properties" : {
        "name" : "素食便當",
        "address" : "新北市淡水區北新路182巷5弄43號"
      },
      "type" : "Feature",
      "geometry" : {
        "type" : "Point",
        "coordinates" : [
          121.44905799999999,
          25.177050999999999
        ]
      }
    },
    {
      "id" : "F62E8010-CF67-4EFD-A2B9-250AA3D0E334",
      "properties" : {
        "name" : "發哥蔬食店",
        "address" : "新北市板橋區僑中一街102巷1弄9號"
      },
      "type" : "Feature",
      "geometry" : {
        "type" : "Point",
        "coordinates" : [
          121.44626599999999,
          25.011987000000001
        ]
      }
    },
    {
      "id" : "EC0476C7-C987-4F4D-91B4-02CDE4978BAC",
      "properties" : {
        "name" : "素食廟口三明治",
        "address" : "新北市鶯歌區中正三路205號"
      },
      "type" : "Feature",
      "geometry" : {
        "type" : "Point",
        "coordinates" : [
          121.3353925,
          24.9392374
        ]
      }
    },
    {
      "id" : "E3EC9B6E-0F83-46BE-A285-A63AA8E9BF60",
      "properties" : {
        "name" : "素食早餐",
        "address" : "新北市三重區力行路一段87號"
      },
      "type" : "Feature",
      "geometry" : {
        "type" : "Point",
        "coordinates" : [
          121.4867941,
          25.067913399999998
        ]
      }
    },
    {
      "id" : "C47DF16D-B0BB-4367-8977-444265CE36A3",
      "properties" : {
        "name" : "野夫咖啡",
        "address" : "新北市板橋區介壽街28號"
      },
      "type" : "Feature",
      "geometry" : {
        "type" : "Point",
        "coordinates" : [
          121.46787999999999,
          25.020114
        ]
      }
    },
    {
      "id" : "42AE718A-AC12-45A5-AC25-2D4D2EAEEE40",
      "properties" : {
        "name" : "歡喜心素食",
        "address" : "新北市三重區文化北路132巷5號"
      },
      "type" : "Feature",
      "geometry" : {
        "type" : "Point",
        "coordinates" : [
          121.498267,
          25.066759999999999
        ]
      }
    },
    {
      "id" : "951F9D67-5B55-4464-A2E6-FE66136C120F",
      "properties" : {
        "name" : "拉哥杏鮑菇燒",
        "address" : "新北市板橋區南雅東路16號"
      },
      "type" : "Feature",
      "geometry" : {
        "type" : "Point",
        "coordinates" : [
          121.45480499999999,
          25.006188999999999
        ]
      }
    },
    {
      "id" : "9392FE10-48BA-49EC-9C8E-7DC87CAD3D1C",
      "properties" : {
        "name" : "魯素義式滷味",
        "address" : "新北市新莊區中誠街138號"
      },
      "type" : "Feature",
      "geometry" : {
        "type" : "Point",
        "coordinates" : [
          121.448849,
          25.047640000000001
        ]
      }
    },
    {
      "id" : "1D966089-F5F0-410F-AFDD-56650546661B",
      "properties" : {
        "name" : "香香蔬香水餃\/特製紅燒麵",
        "address" : "新北市新莊區公園一路117號"
      },
      "type" : "Feature",
      "geometry" : {
        "type" : "Point",
        "coordinates" : [
          121.44513000000001,
          25.038162
        ]
      }
    },
    {
      "id" : "5A3C6D6B-1889-4156-9158-663C342B6BC5",
      "properties" : {
        "name" : "路邊攤",
        "address" : "新北市蘆洲區長安街178號"
      },
      "type" : "Feature",
      "geometry" : {
        "type" : "Point",
        "coordinates" : [
          121.458994,
          25.083569000000001
        ]
      }
    },
    {
      "id" : "725C5EE8-B54E-4031-8AAB-794A8918DE0F",
      "properties" : {
        "name" : "麵面俱到",
        "address" : "新北市新莊區中港一街85號"
      },
      "type" : "Feature",
      "geometry" : {
        "type" : "Point",
        "coordinates" : [
          121.44956000000001,
          25.045178
        ]
      }
    },
    {
      "id" : "47BC18F2-C864-4503-A824-065323F944AB",
      "properties" : {
        "name" : "九六素食坊",
        "address" : "新北市板橋區五權街10號"
      },
      "type" : "Feature",
      "geometry" : {
        "type" : "Point",
        "coordinates" : [
          121.46420500000001,
          24.994022000000001
        ]
      }
    },
    {
      "id" : "E5E29538-28A9-4007-B0C7-58A4E2E1AD34",
      "properties" : {
        "name" : "速素看蔬果雜糧屋",
        "address" : "新北市新莊區昌隆街58巷1弄1號"
      },
      "type" : "Feature",
      "geometry" : {
        "type" : "Point",
        "coordinates" : [
          121.45493999999999,
          25.0504
        ]
      }
    },
    {
      "id" : "ADAAFB51-DE58-49AE-A341-56B9E2603163",
      "properties" : {
        "name" : "健康素食",
        "address" : "新北市中和區保健路19巷1號"
      },
      "type" : "Feature",
      "geometry" : {
        "type" : "Point",
        "coordinates" : [
          121.508163,
          24.998369
        ]
      }
    },
    {
      "id" : "3310272B-BFA4-4B8A-B5D9-1C777A1AA942",
      "properties" : {
        "name" : "方格斯-手作·比薩·飲品",
        "address" : "新北市烏來區新烏路五段33號"
      },
      "type" : "Feature",
      "geometry" : {
        "type" : "Point",
        "coordinates" : [
          121.542742,
          24.881031
        ]
      }
    },
    {
      "id" : "ED2DA6ED-50E4-4AD2-93CE-68C787CA48D3",
      "properties" : {
        "name" : "路邊攤煎餃煎包",
        "address" : "新北市三峽區大勇路27號"
      },
      "type" : "Feature",
      "geometry" : {
        "type" : "Point",
        "coordinates" : [
          121.367335,
          24.936382999999999
        ]
      }
    },
    {
      "id" : "71394468-7228-4ACE-B43F-D9442885675A",
      "properties" : {
        "name" : "澎澎素食養生餐飲",
        "address" : "新北市板橋區大觀路二段19巷77號"
      },
      "type" : "Feature",
      "geometry" : {
        "type" : "Point",
        "coordinates" : [
          121.449004,
          25.002977999999999
        ]
      }
    },
    {
      "id" : "65CE5BB5-AC6C-4F60-9664-FF57FE753127",
      "properties" : {
        "name" : "天然素食自助餐",
        "address" : "新北市土城區承天路10-4號"
      },
      "type" : "Feature",
      "geometry" : {
        "type" : "Point",
        "coordinates" : [
          121.43706400000001,
          24.964648
        ]
      }
    },
    {
      "id" : "1FAE066A-22C5-4891-A911-E86C0A56E19B",
      "properties" : {
        "name" : "明德素食",
        "address" : "新北市土城區學府路一段248號"
      },
      "type" : "Feature",
      "geometry" : {
        "type" : "Point",
        "coordinates" : [
          121.45147900000001,
          24.984701000000001
        ]
      }
    },
    {
      "id" : "D17A6189-7D3D-4772-9026-C00498A2C28E",
      "properties" : {
        "name" : "山間倉房蔬食養生創意料理",
        "address" : "新北市中和區興南路二段399巷124號"
      },
      "type" : "Feature",
      "geometry" : {
        "type" : "Point",
        "coordinates" : [
          121.5010486,
          24.975345000000001
        ]
      }
    },
    {
      "id" : "0CF2A68B-48F4-438A-829C-BF8691B79D64",
      "properties" : {
        "name" : "彌陀素食",
        "address" : "新北市樹林區龍興街13巷15號"
      },
      "type" : "Feature",
      "geometry" : {
        "type" : "Point",
        "coordinates" : [
          121.403519,
          25.016705999999999
        ]
      }
    },
    {
      "id" : "B8FB69E3-89E5-42A4-8377-611A0C136C8A",
      "properties" : {
        "name" : "素食油飯",
        "address" : "新北市三重區中央北路183-1號"
      },
      "type" : "Feature",
      "geometry" : {
        "type" : "Point",
        "coordinates" : [
          121.50003049999999,
          25.067908599999999
        ]
      }
    },
    {
      "id" : "65D1B69D-9B3D-4FF5-A725-A3DBF3AC20E8",
      "properties" : {
        "name" : "慈善素食",
        "address" : "新北市土城區中央路二段278巷6-1號"
      },
      "type" : "Feature",
      "geometry" : {
        "type" : "Point",
        "coordinates" : [
          121.440597,
          24.974571999999998
        ]
      }
    },
    {
      "id" : "AEBB7086-A991-4C12-887E-9BCA91909FB6",
      "properties" : {
        "name" : "台北館前路葉媽媽蔬菜蛋餅",
        "address" : "新北市樹林區博愛一街33號"
      },
      "type" : "Feature",
      "geometry" : {
        "type" : "Point",
        "coordinates" : [
          121.42597000000001,
          24.991019999999999
        ]
      }
    },
    {
      "id" : "F3B53934-E896-4F63-ADF3-F443E875FD03",
      "properties" : {
        "name" : "生機素食早餐",
        "address" : "新北市新莊區化成路146號"
      },
      "type" : "Feature",
      "geometry" : {
        "type" : "Point",
        "coordinates" : [
          121.46548799999999,
          25.044885000000001
        ]
      }
    },
    {
      "id" : "78BC23BE-8867-4034-AB24-99B4E55FD808",
      "properties" : {
        "name" : "天地蔬菜素食",
        "address" : "新北市淡水區學府路51巷1弄2號"
      },
      "type" : "Feature",
      "geometry" : {
        "type" : "Point",
        "coordinates" : [
          121.447546,
          25.169464000000001
        ]
      }
    },
    {
      "id" : "854CC646-F225-4A16-99FA-6D632BA88AA4",
      "properties" : {
        "name" : "淨光素食小吃",
        "address" : "新北市新店區光明街164號"
      },
      "type" : "Feature",
      "geometry" : {
        "type" : "Point",
        "coordinates" : [
          121.5395369,
          24.961845799999999
        ]
      }
    },
    {
      "id" : "E51E4DCF-0628-4AB2-97A3-E88AA063C966",
      "properties" : {
        "name" : "黑水堂素食",
        "address" : "新北市板橋區成功路8號"
      },
      "type" : "Feature",
      "geometry" : {
        "type" : "Point",
        "coordinates" : [
          121.475578,
          25.016953999999998
        ]
      }
    },
    {
      "id" : "2EB126E5-D781-4BA2-B07B-61877BD30A76",
      "properties" : {
        "name" : "翰林茶館",
        "address" : "新北市永和區中山路一段238號"
      },
      "type" : "Feature",
      "geometry" : {
        "type" : "Point",
        "coordinates" : [
          121.5076461,
          25.0078365
        ]
      }
    },
    {
      "id" : "A2611FFC-904C-4E2B-A621-A24BC8C3685D",
      "properties" : {
        "name" : "健康素食",
        "address" : "新北市新莊區四維路131巷20號"
      },
      "type" : "Feature",
      "geometry" : {
        "type" : "Point",
        "coordinates" : [
          121.42355999999999,
          25.022227000000001
        ]
      }
    },
    {
      "id" : "2273D56D-CFCD-48B5-A601-D5DF14F71F77",
      "properties" : {
        "name" : "沐心蔬食",
        "address" : "新北市淡水區學府路51巷2弄15號"
      },
      "type" : "Feature",
      "geometry" : {
        "type" : "Point",
        "coordinates" : [
          121.447819,
          25.170059999999999
        ]
      }
    },
    {
      "id" : "E5935962-EB13-462E-A3CF-E9D2C465F6B3",
      "properties" : {
        "name" : "光明素食小吃",
        "address" : "新北市三峽區中華路40-1號"
      },
      "type" : "Feature",
      "geometry" : {
        "type" : "Point",
        "coordinates" : [
          121.37297599999999,
          24.931567000000001
        ]
      }
    },
    {
      "id" : "A2CB2F60-1303-47F1-8EF1-DF43E004C8A8",
      "properties" : {
        "name" : "味加料素食水煎包",
        "address" : "新北市中和區大仁街19巷4號"
      },
      "type" : "Feature",
      "geometry" : {
        "type" : "Point",
        "coordinates" : [
          121.51754800000001,
          24.993279000000001
        ]
      }
    },
    {
      "id" : "E9295ED9-801A-469B-9265-13CEA25C0109",
      "properties" : {
        "name" : "素食小吃",
        "address" : "新北市土城區中央路三段231號"
      },
      "type" : "Feature",
      "geometry" : {
        "type" : "Point",
        "coordinates" : [
          121.42856879999999,
          24.964086399999999
        ]
      }
    },
    {
      "id" : "B401E1D4-6F31-4C93-8971-A47AF167E669",
      "properties" : {
        "name" : "紫色蓮花素食園",
        "address" : "新北市新店區中正路340號"
      },
      "type" : "Feature",
      "geometry" : {
        "type" : "Point",
        "coordinates" : [
          121.536613,
          24.975155000000001
        ]
      }
    },
    {
      "id" : "F9ECE244-5D28-4B27-9C1D-5D2F6231B8C6",
      "properties" : {
        "name" : "瑞冠素食便當外送",
        "address" : "新北市新莊區中正路871巷9弄16號"
      },
      "type" : "Feature",
      "geometry" : {
        "type" : "Point",
        "coordinates" : [
          121.41909440000001,
          25.026989400000001
        ]
      }
    },
    {
      "id" : "E74B81A8-11F7-4E58-AD2A-26E476DF961F",
      "properties" : {
        "name" : "豆花",
        "address" : "新北市中和區中山路二段3巷20號"
      },
      "type" : "Feature",
      "geometry" : {
        "type" : "Point",
        "coordinates" : [
          121.50622,
          25.005341999999999
        ]
      }
    },
    {
      "id" : "A47B6DEE-7EFD-477A-B7AE-3E207F077AB0",
      "properties" : {
        "name" : "懷恩素食麵館",
        "address" : "新北市板橋區裕民街56巷2號"
      },
      "type" : "Feature",
      "geometry" : {
        "type" : "Point",
        "coordinates" : [
          121.46139599999999,
          25.028905000000002
        ]
      }
    },
    {
      "id" : "C2600DAB-5571-4F6B-BC99-A88EC8AE2B8E",
      "properties" : {
        "name" : "陳記素食蚵仔煎",
        "address" : "新北市土城區延吉街253巷口"
      },
      "type" : "Feature",
      "geometry" : {
        "type" : "Point",
        "coordinates" : [
          121.4716585,
          24.989856100000001
        ]
      }
    },
    {
      "id" : "ACA12553-FDE9-41C4-8A20-DB7DF620BC7D",
      "properties" : {
        "name" : "1+1素食",
        "address" : "新北市新莊區中港路425號"
      },
      "type" : "Feature",
      "geometry" : {
        "type" : "Point",
        "coordinates" : [
          121.452225,
          25.047751999999999
        ]
      }
    },
    {
      "id" : "29248D6F-8EFA-4175-9383-2AA8490B6B4F",
      "properties" : {
        "name" : "蔬園素食餐廳",
        "address" : "新北市板橋區中山路160-9號"
      },
      "type" : "Feature",
      "geometry" : {
        "type" : "Point",
        "coordinates" : [
          121.364752,
          24.936513999999999
        ]
      }
    },
    {
      "id" : "A9FD8ABB-C3D8-4543-AA04-B05B8013E562",
      "properties" : {
        "name" : "翌品齋",
        "address" : "新北市蘆洲區中正路185巷25弄1號"
      },
      "type" : "Feature",
      "geometry" : {
        "type" : "Point",
        "coordinates" : [
          121.466765,
          25.084461999999998
        ]
      }
    },
    {
      "id" : "A0028D60-F3E2-4644-9020-C7019211DE2A",
      "properties" : {
        "name" : "蓮心圓素食",
        "address" : "新北市永和區得和路105號"
      },
      "type" : "Feature",
      "geometry" : {
        "type" : "Point",
        "coordinates" : [
          121.5182554,
          25.000341500000001
        ]
      }
    },
    {
      "id" : "3F603E00-65C5-49B7-BFD5-F6D0F22E5C13",
      "properties" : {
        "name" : "棗慧素食",
        "address" : "新北市汐止區汐萬路二段53號"
      },
      "type" : "Feature",
      "geometry" : {
        "type" : "Point",
        "coordinates" : [
          121.6494142,
          25.0819337
        ]
      }
    },
    {
      "id" : "9B2FC2E0-5A0D-43B1-A8D3-D8458FB75FAB",
      "properties" : {
        "name" : "真善美",
        "address" : "新北市五股區四維路142巷1號"
      },
      "type" : "Feature",
      "geometry" : {
        "type" : "Point",
        "coordinates" : [
          121.4680228,
          25.0753357
        ]
      }
    },
    {
      "id" : "DCBB7DF5-AD5E-425A-935B-7B05B4069429",
      "properties" : {
        "name" : "葡吉手工製作包子",
        "address" : "新北市板橋區縣民大道二段7號"
      },
      "type" : "Feature",
      "geometry" : {
        "type" : "Point",
        "coordinates" : [
          121.46530370000001,
          25.0123356
        ]
      }
    },
    {
      "id" : "70B7A6B2-DFD0-44AF-BBB4-0D8D091182F7",
      "properties" : {
        "name" : "清心素食自助餐館",
        "address" : "新北市三重區碧華街295號"
      },
      "type" : "Feature",
      "geometry" : {
        "type" : "Point",
        "coordinates" : [
          121.490559,
          25.083863000000001
        ]
      }
    },
    {
      "id" : "4A81DF56-0731-48C6-8DB9-958A6DBECDB8",
      "properties" : {
        "name" : "美素園早午餐",
        "address" : "新北市新莊區成功街8號"
      },
      "type" : "Feature",
      "geometry" : {
        "type" : "Point",
        "coordinates" : [
          121.42550199999999,
          25.021485999999999
        ]
      }
    },
    {
      "id" : "EA0FD2C4-2E74-443F-9AC9-8EB5A077AEEC",
      "properties" : {
        "name" : "清香素食館",
        "address" : "新北市板橋區中山路二段318巷9號"
      },
      "type" : "Feature",
      "geometry" : {
        "type" : "Point",
        "coordinates" : [
          121.480204,
          25.018789999999999
        ]
      }
    },
    {
      "id" : "9A1621C3-63C3-48EE-8108-F7073E94360C",
      "properties" : {
        "name" : "波羅蜜素食館",
        "address" : "新北市中和區新生街27-1號"
      },
      "type" : "Feature",
      "geometry" : {
        "type" : "Point",
        "coordinates" : [
          121.48336,
          25.003727000000001
        ]
      }
    },
    {
      "id" : "CD4BE56C-D5A4-4377-834F-E66AD9611AA6",
      "properties" : {
        "name" : "Casa Buena Cafe",
        "address" : "新北市新莊區中正路377巷10號"
      },
      "type" : "Feature",
      "geometry" : {
        "type" : "Point",
        "coordinates" : [
          121.446228,
          25.034051999999999
        ]
      }
    },
    {
      "id" : "4B14AD7B-B105-4E6B-AB8D-AF699FCDEFFD",
      "properties" : {
        "name" : "金龍素食超市",
        "address" : "新北市新莊區裕民街38號"
      },
      "type" : "Feature",
      "geometry" : {
        "type" : "Point",
        "coordinates" : [
          121.418761,
          25.025095
        ]
      }
    },
    {
      "id" : "BF35C01D-4F7D-4BAD-A2E1-798370A63683",
      "properties" : {
        "name" : "里仁慈心食品有機蔬果",
        "address" : "新北市新莊區新泰路68號"
      },
      "type" : "Feature",
      "geometry" : {
        "type" : "Point",
        "coordinates" : [
          121.4491989,
          25.034947500000001
        ]
      }
    },
    {
      "id" : "E23A9225-349C-4CFC-9DF5-1DDEB0699E2D",
      "properties" : {
        "name" : "大觀素苑",
        "address" : "新北市三峽區大觀路102號"
      },
      "type" : "Feature",
      "geometry" : {
        "type" : "Point",
        "coordinates" : [
          121.37397919999999,
          24.946683400000001
        ]
      }
    },
    {
      "id" : "FCF8779B-AED5-439F-ADDC-50E6AA94B0CE",
      "properties" : {
        "name" : "阿金素食",
        "address" : "新北市蘆洲區中央路20巷1號"
      },
      "type" : "Feature",
      "geometry" : {
        "type" : "Point",
        "coordinates" : [
          121.4715237,
          25.0828354
        ]
      }
    },
    {
      "id" : "BF7825AB-4749-4FB2-90FB-289BF6463D1B",
      "properties" : {
        "name" : "松林齋素食餐館",
        "address" : "新北市中和區華順街37號"
      },
      "type" : "Feature",
      "geometry" : {
        "type" : "Point",
        "coordinates" : [
          121.467012,
          24.998539000000001
        ]
      }
    },
    {
      "id" : "B94CEDD9-30DE-45EA-9FAE-BBAAD6E5EDDD",
      "properties" : {
        "name" : "可口美食總匯",
        "address" : "新北市金山區金包里街105號"
      },
      "type" : "Feature",
      "geometry" : {
        "type" : "Point",
        "coordinates" : [
          121.6377174,
          25.222289199999999
        ]
      }
    },
    {
      "id" : "CE8D0131-B0C8-4FDB-9705-834EF1B3116C",
      "properties" : {
        "name" : "大頭素食",
        "address" : "新北市坪林區水柳腳路169號"
      },
      "type" : "Feature",
      "geometry" : {
        "type" : "Point",
        "coordinates" : [
          121.7022992,
          24.936789000000001
        ]
      }
    },
    {
      "id" : "F4C9E6A9-46EB-411E-A4CB-91B5B45317A0",
      "properties" : {
        "name" : "慈馨素料行",
        "address" : "新北市新店區中正路65巷5號"
      },
      "type" : "Feature",
      "geometry" : {
        "type" : "Point",
        "coordinates" : [
          121.54395100000001,
          24.969764000000001
        ]
      }
    },
    {
      "id" : "A3BCC624-D20B-4A93-A00C-28CA2FB5147B",
      "properties" : {
        "name" : "良耕健康蔬食",
        "address" : "新北市三峽區三峽拱橋邊"
      },
      "type" : "Feature",
      "geometry" : {
        "type" : "Point",
        "coordinates" : [
          121.367822,
          24.935347
        ]
      }
    },
    {
      "id" : "8812ECE3-E51E-47EE-BAB0-FB708EB061B9",
      "properties" : {
        "name" : "大學城素食",
        "address" : "新北市淡水區北新路182巷19號"
      },
      "type" : "Feature",
      "geometry" : {
        "type" : "Point",
        "coordinates" : [
          121.44902190000001,
          25.177654700000001
        ]
      }
    },
    {
      "id" : "A797FEF5-9CC5-4381-A89E-B9774DA7CBEF",
      "properties" : {
        "name" : "吳師姐素粽",
        "address" : "新北市板橋區金華街10巷12弄12號"
      },
      "type" : "Feature",
      "geometry" : {
        "type" : "Point",
        "coordinates" : [
          121.456384,
          25.019570999999999
        ]
      }
    },
    {
      "id" : "8DB66022-EB37-4F6D-A564-04E8E4132F64",
      "properties" : {
        "name" : "廣結緣健康素食",
        "address" : "新北市板橋區四川路一段304號"
      },
      "type" : "Feature",
      "geometry" : {
        "type" : "Point",
        "coordinates" : [
          121.458438,
          25.000499000000001
        ]
      }
    },
    {
      "id" : "34196F12-CE04-4CF6-9916-A9DAEBBF524F",
      "properties" : {
        "name" : "推車早餐店",
        "address" : "新北市三峽區中山路249號"
      },
      "type" : "Feature",
      "geometry" : {
        "type" : "Point",
        "coordinates" : [
          121.36254409999999,
          24.937170399999999
        ]
      }
    },
    {
      "id" : "596C4665-C377-46B2-9AAA-0C01B94AB7D2",
      "properties" : {
        "name" : "謝家素食",
        "address" : "新北市板橋區懷德街79號"
      },
      "type" : "Feature",
      "geometry" : {
        "type" : "Point",
        "coordinates" : [
          121.4779046,
          25.0321043
        ]
      }
    },
    {
      "id" : "4715F0D9-A385-4A28-B091-720B500FB6CF",
      "properties" : {
        "name" : "中西式素食早餐店",
        "address" : "新北市新莊區西盛街422號"
      },
      "type" : "Feature",
      "geometry" : {
        "type" : "Point",
        "coordinates" : [
          121.427083,
          25.012187000000001
        ]
      }
    },
    {
      "id" : "9E016D94-F237-447A-BA15-F6BF7C4A31C4",
      "properties" : {
        "name" : "彌勒素餐自助餐",
        "address" : "新北市蘆洲區三民路2號"
      },
      "type" : "Feature",
      "geometry" : {
        "type" : "Point",
        "coordinates" : [
          121.47605,
          25.081917
        ]
      }
    },
    {
      "id" : "E5048F4D-95F9-4CFE-9110-E419418D7CF6",
      "properties" : {
        "name" : "綠元素蔬食早午餐",
        "address" : "新北市鶯歌區光復街2號"
      },
      "type" : "Feature",
      "geometry" : {
        "type" : "Point",
        "coordinates" : [
          121.35198200000001,
          24.954948000000002
        ]
      }
    },
    {
      "id" : "AC7F1840-BD61-4005-8DA6-099A84494318",
      "properties" : {
        "name" : "婆依 Stella's Cafe",
        "address" : "新北市石碇區石碇東街87號"
      },
      "type" : "Feature",
      "geometry" : {
        "type" : "Point",
        "coordinates" : [
          121.659773,
          24.990803
        ]
      }
    },
    {
      "id" : "46DF8775-E452-4B0C-85D7-6937CC66BEE1",
      "properties" : {
        "name" : "草綠舍",
        "address" : "新北市蘆洲區中原路5巷19號"
      },
      "type" : "Feature",
      "geometry" : {
        "type" : "Point",
        "coordinates" : [
          121.4618452,
          25.0831199
        ]
      }
    },
    {
      "id" : "AD1D03C9-70C9-4792-9104-240EFB640756",
      "properties" : {
        "name" : "蔬福素食便當",
        "address" : "新北市土城區明峰街33號"
      },
      "type" : "Feature",
      "geometry" : {
        "type" : "Point",
        "coordinates" : [
          121.466086,
          24.986015999999999
        ]
      }
    },
    {
      "id" : "C9EF08B5-534B-4899-B8D0-C4D624C4B535",
      "properties" : {
        "name" : "素食水煎包",
        "address" : "新北市中和區員山路148巷24號"
      },
      "type" : "Feature",
      "geometry" : {
        "type" : "Point",
        "coordinates" : [
          121.48200199999999,
          24.996966
        ]
      }
    },
    {
      "id" : "AD6D1B65-FCB7-43A3-A33F-7713E8F23D50",
      "properties" : {
        "name" : "大眾健康素食",
        "address" : "新北市永和區成功南路1號"
      },
      "type" : "Feature",
      "geometry" : {
        "type" : "Point",
        "coordinates" : [
          121.515247,
          25.006900000000002
        ]
      }
    },
    {
      "id" : "3EA286C0-02AF-46A7-A9FF-3C8C16844738",
      "properties" : {
        "name" : "展苑素菜餐廳",
        "address" : "新北市板橋區館前東路152號"
      },
      "type" : "Feature",
      "geometry" : {
        "type" : "Point",
        "coordinates" : [
          121.46437899999999,
          25.007683
        ]
      }
    },
    {
      "id" : "5B29D1B4-07A0-4CB2-9B4A-3E41E2B8A34F",
      "properties" : {
        "name" : "素食早餐--巨林美而美",
        "address" : "新北市新莊區福壽街141號"
      },
      "type" : "Feature",
      "geometry" : {
        "type" : "Point",
        "coordinates" : [
          121.4579203,
          25.052817999999998
        ]
      }
    },
    {
      "id" : "19BAB0B6-B84B-49AE-926C-2694D5C73F45",
      "properties" : {
        "name" : "素食",
        "address" : "新北市樹林區俊興街282號"
      },
      "type" : "Feature",
      "geometry" : {
        "type" : "Point",
        "coordinates" : [
          121.41840070000001,
          25.0170244
        ]
      }
    },
    {
      "id" : "A841F97E-989D-4200-80C1-9EF21611F1EF",
      "properties" : {
        "name" : "吉仔麵線",
        "address" : "新北市三重區文化北路2號"
      },
      "type" : "Feature",
      "geometry" : {
        "type" : "Point",
        "coordinates" : [
          121.49980069999999,
          25.063083800000001
        ]
      }
    },
    {
      "id" : "46959E82-06C4-4EC3-BE69-C87BE860EA6D",
      "properties" : {
        "name" : "Ma Na Ru 麻辣蔬食滷味",
        "address" : "新北市新莊區復興路一段29號"
      },
      "type" : "Feature",
      "geometry" : {
        "type" : "Point",
        "coordinates" : [
          121.44627560000001,
          25.041996300000001
        ]
      }
    },
    {
      "id" : "B7A5F77C-4DB6-4C4E-8A94-3D4097D4E0A2",
      "properties" : {
        "name" : "素食早點",
        "address" : "新北市樹林區博愛一街10號"
      },
      "type" : "Feature",
      "geometry" : {
        "type" : "Point",
        "coordinates" : [
          121.425223,
          24.991016999999999
        ]
      }
    },
    {
      "id" : "26DD1374-E976-40DA-9809-6434DD51C853",
      "properties" : {
        "name" : "米樂蔬食早午餐",
        "address" : "新北市三重區重陽路三段5巷38號"
      },
      "type" : "Feature",
      "geometry" : {
        "type" : "Point",
        "coordinates" : [
          121.49190129999999,
          25.065068100000001
        ]
      }
    },
    {
      "id" : "5F3B79E7-9494-427A-9EA1-C406153198F2",
      "properties" : {
        "name" : "天祐素食小吃",
        "address" : "新北市新莊區民本街27巷內"
      },
      "type" : "Feature",
      "geometry" : {
        "type" : "Point",
        "coordinates" : [
          121.4285646,
          25.019741799999998
        ]
      }
    },
    {
      "id" : "54B20FEE-EFC7-4732-A753-16FBA92F51A9",
      "properties" : {
        "name" : "好素齋",
        "address" : "新北市新莊區泰順街82號"
      },
      "type" : "Feature",
      "geometry" : {
        "type" : "Point",
        "coordinates" : [
          121.448252,
          25.043202999999998
        ]
      }
    },
    {
      "id" : "D592C7C4-AE7E-428F-B873-601910946D1D",
      "properties" : {
        "name" : "金牛角麵包坊",
        "address" : "新北市三峽區大同路79號"
      },
      "type" : "Feature",
      "geometry" : {
        "type" : "Point",
        "coordinates" : [
          121.375097,
          24.927188000000001
        ]
      }
    },
    {
      "id" : "DB5AB276-0D83-47C8-AE84-1305B6AEE19D",
      "properties" : {
        "name" : "十方齋素食早餐",
        "address" : "新北市中和區圓通路252-4號"
      },
      "type" : "Feature",
      "geometry" : {
        "type" : "Point",
        "coordinates" : [
          121.4938367,
          24.991304299999999
        ]
      }
    },
    {
      "id" : "D9037E84-4F7C-45D9-8507-F25BD12D40BC",
      "properties" : {
        "name" : "素食",
        "address" : "新北市板橋區裕民街75巷2弄2號"
      },
      "type" : "Feature",
      "geometry" : {
        "type" : "Point",
        "coordinates" : [
          121.460903,
          25.028013999999999
        ]
      }
    },
    {
      "id" : "C08FE4C5-BF20-4EA3-9B4C-7BCA8001B5D2",
      "properties" : {
        "name" : "素食",
        "address" : "新北市板橋區裕民街88號"
      },
      "type" : "Feature",
      "geometry" : {
        "type" : "Point",
        "coordinates" : [
          121.460373,
          25.028278
        ]
      }
    },
    {
      "id" : "E7914E4C-651D-4AA0-A523-71B4EAC80289",
      "properties" : {
        "name" : "如來素食",
        "address" : "新北市三重區自強路五段105號"
      },
      "type" : "Feature",
      "geometry" : {
        "type" : "Point",
        "coordinates" : [
          121.49542529999999,
          25.082169700000001
        ]
      }
    },
    {
      "id" : "842339CB-AAE5-4BFD-97E2-91B6419968B6",
      "properties" : {
        "name" : "美養莊園",
        "address" : "新北市新店區二十張路11巷1-1號"
      },
      "type" : "Feature",
      "geometry" : {
        "type" : "Point",
        "coordinates" : [
          121.5357856,
          24.9790785
        ]
      }
    },
    {
      "id" : "EB038338-7E43-423D-97F5-355635267C7D",
      "properties" : {
        "name" : "亞洲風味素食園",
        "address" : "新北市永和區文化路66號"
      },
      "type" : "Feature",
      "geometry" : {
        "type" : "Point",
        "coordinates" : [
          121.514358,
          25.015272
        ]
      }
    },
    {
      "id" : "518EBB83-B02C-4DA7-B89D-7561EDF55CFC",
      "properties" : {
        "name" : "菩提素食商店",
        "address" : "新北市新莊區五工三路94巷32號"
      },
      "type" : "Feature",
      "geometry" : {
        "type" : "Point",
        "coordinates" : [
          121.459193,
          25.066486999999999
        ]
      }
    },
    {
      "id" : "8E679D76-EC73-422D-8DDC-93EFE955D253",
      "properties" : {
        "name" : "政鴻雙胞胎",
        "address" : "新北市八里區渡船頭街21巷30號"
      },
      "type" : "Feature",
      "geometry" : {
        "type" : "Point",
        "coordinates" : [
          121.433922,
          25.159527000000001
        ]
      }
    },
    {
      "id" : "A9A3DC32-46D7-420D-B23D-B5DE36015493",
      "properties" : {
        "name" : "阿蘭素食",
        "address" : "新北市樹林區保安街一段79號"
      },
      "type" : "Feature",
      "geometry" : {
        "type" : "Point",
        "coordinates" : [
          121.42659070000001,
          24.993457200000002
        ]
      }
    },
    {
      "id" : "19A1B4A8-0CFA-4262-8830-A4446B7D0F61",
      "properties" : {
        "name" : "素食",
        "address" : "新北市新店區文中路2號"
      },
      "type" : "Feature",
      "geometry" : {
        "type" : "Point",
        "coordinates" : [
          121.537441,
          24.956865000000001
        ]
      }
    },
    {
      "id" : "7F950085-2344-442D-9841-F99DAD1EB67B",
      "properties" : {
        "name" : "蘆洲成功素食",
        "address" : "新北市蘆洲區成功路115號"
      },
      "type" : "Feature",
      "geometry" : {
        "type" : "Point",
        "coordinates" : [
          121.47244600000001,
          25.081976000000001
        ]
      }
    },
    {
      "id" : "83E9729A-FD57-49F9-B4AB-ECAE7E453EF4",
      "properties" : {
        "name" : "綠食代健康養生素食",
        "address" : "新北市中和區景新街435號"
      },
      "type" : "Feature",
      "geometry" : {
        "type" : "Point",
        "coordinates" : [
          121.51308299999999,
          24.988987000000002
        ]
      }
    },
    {
      "id" : "6DDC77C2-6269-49D1-8602-6E43DA642AAF",
      "properties" : {
        "name" : "善齋素食材料",
        "address" : "新北市土城區永和街79-7號"
      },
      "type" : "Feature",
      "geometry" : {
        "type" : "Point",
        "coordinates" : [
          121.435924,
          24.958397000000001
        ]
      }
    },
    {
      "id" : "7C633976-B9C8-466E-A7A8-E3400FBF7603",
      "properties" : {
        "name" : "彌勒素食",
        "address" : "新北市蘆洲區民族路544號"
      },
      "type" : "Feature",
      "geometry" : {
        "type" : "Point",
        "coordinates" : [
          121.467861,
          25.089193000000002
        ]
      }
    },
    {
      "id" : "F396CDDA-E194-45B4-9001-1910F25D48B9",
      "properties" : {
        "name" : "耕心素食湧泉坊",
        "address" : "新北市三重區萬全街15號"
      },
      "type" : "Feature",
      "geometry" : {
        "type" : "Point",
        "coordinates" : [
          121.4995553,
          25.069577200000001
        ]
      }
    },
    {
      "id" : "3D512BBF-E923-446F-AD14-4D823BFCC028",
      "properties" : {
        "name" : "觀音緣素食",
        "address" : "新北市汐止區水源路一段121號"
      },
      "type" : "Feature",
      "geometry" : {
        "type" : "Point",
        "coordinates" : [
          121.65639,
          25.062854999999999
        ]
      }
    },
    {
      "id" : "F56D5720-CEA1-48D9-A578-2DE03E58BC83",
      "properties" : {
        "name" : "幸福市場素咖哩飯小吃",
        "address" : "新北市板橋區幸福路22號"
      },
      "type" : "Feature",
      "geometry" : {
        "type" : "Point",
        "coordinates" : [
          121.46186,
          25.020510000000002
        ]
      }
    },
    {
      "id" : "ECD54BD5-C518-43FA-B70E-B0DB85C1AF0C",
      "properties" : {
        "name" : "小吃攤",
        "address" : "新北市三重區三陽路125號"
      },
      "type" : "Feature",
      "geometry" : {
        "type" : "Point",
        "coordinates" : [
          121.48342599999999,
          25.059076999999998
        ]
      }
    },
    {
      "id" : "5C5D96A0-5B18-46A6-B1EC-C73C864B1B6B",
      "properties" : {
        "name" : "嵐迪義大利麵館",
        "address" : "新北市永和區信義路10-1號"
      },
      "type" : "Feature",
      "geometry" : {
        "type" : "Point",
        "coordinates" : [
          121.51461999999999,
          25.012162
        ]
      }
    },
    {
      "id" : "A586061C-1313-4DF1-A051-A98EC3F6D85B",
      "properties" : {
        "name" : "原味食素坊",
        "address" : "新北市新莊區富國路19巷2號"
      },
      "type" : "Feature",
      "geometry" : {
        "type" : "Point",
        "coordinates" : [
          121.41877100000001,
          25.026578000000001
        ]
      }
    },
    {
      "id" : "1B59D04A-9767-43C5-B7AE-48DB8325C04D",
      "properties" : {
        "name" : "養生素食",
        "address" : "新北市三重區大同南路97號"
      },
      "type" : "Feature",
      "geometry" : {
        "type" : "Point",
        "coordinates" : [
          121.496163,
          25.058814399999999
        ]
      }
    },
    {
      "id" : "09A96A44-163A-448A-BEFC-2906FF42A95F",
      "properties" : {
        "name" : "觀音素食",
        "address" : "新北市林口區中正路142號"
      },
      "type" : "Feature",
      "geometry" : {
        "type" : "Point",
        "coordinates" : [
          121.392903,
          25.077362000000001
        ]
      }
    },
    {
      "id" : "676C350B-1D68-4001-BD28-AC921DD4DF7A",
      "properties" : {
        "name" : "素食蚵仔煎",
        "address" : "新北市中和區新生街242巷1弄1號"
      },
      "type" : "Feature",
      "geometry" : {
        "type" : "Point",
        "coordinates" : [
          121.48340399999999,
          24.997776999999999
        ]
      }
    },
    {
      "id" : "141CE120-5714-4E42-8C05-AFD656AF8F45",
      "properties" : {
        "name" : "艾媽媽養生廚房",
        "address" : "新北市三峽區大觀路31號"
      },
      "type" : "Feature",
      "geometry" : {
        "type" : "Point",
        "coordinates" : [
          121.37515,
          24.944389999999999
        ]
      }
    },
    {
      "id" : "B0FA3D0C-D887-4781-A145-C0EF597E26B3",
      "properties" : {
        "name" : "蔡媽媽養生素食",
        "address" : "新北市永和區民族街81巷58號"
      },
      "type" : "Feature",
      "geometry" : {
        "type" : "Point",
        "coordinates" : [
          121.519976,
          24.996403999999998
        ]
      }
    },
    {
      "id" : "3F0D0B10-8DA2-4831-86AE-430A7C19DBE8",
      "properties" : {
        "name" : "蔬味佳素食",
        "address" : "新北市林口區文化二路一段68巷12-2號"
      },
      "type" : "Feature",
      "geometry" : {
        "type" : "Point",
        "coordinates" : [
          121.366241,
          25.068048000000001
        ]
      }
    },
    {
      "id" : "6C28DD73-85C2-4FF5-AB8E-A06CD918122D",
      "properties" : {
        "name" : "如睦素食館",
        "address" : "新北市三重區中正北路276巷1號"
      },
      "type" : "Feature",
      "geometry" : {
        "type" : "Point",
        "coordinates" : [
          121.480664,
          25.068462
        ]
      }
    },
    {
      "id" : "98A6204C-47D2-453B-B86C-C9583A2FD0FF",
      "properties" : {
        "name" : "滷滷米素食滷味",
        "address" : "新北市三重區三民街237號"
      },
      "type" : "Feature",
      "geometry" : {
        "type" : "Point",
        "coordinates" : [
          121.4801487,
          25.067437399999999
        ]
      }
    },
    {
      "id" : "4478E5DB-B835-4E31-AF77-19677A75FBCC",
      "properties" : {
        "name" : "新素代素食便當",
        "address" : "新北市汐止區福德一路392巷37弄29號"
      },
      "type" : "Feature",
      "geometry" : {
        "type" : "Point",
        "coordinates" : [
          121.625372,
          25.061705799999999
        ]
      }
    },
    {
      "id" : "525D6E69-3773-43F1-8C58-B0BF28EEC1E8",
      "properties" : {
        "name" : "幸福駅",
        "address" : "新北市蘆洲區民族路154號"
      },