{
  "type" : "FeatureCollection",
  "features" : [
    {
      "type" : "Feature",
      "geometry" : {
        "type" : "Point",
        "coordinates" : [
          121.4578922,
          25.0088829
        ]
      },
      "properties" : {
        "name" : "巢‧食蔬【Chào】",
        "address" : "新北市板橋區東門街18號"
      }
    },
    {
      "type" : "Feature",
      "geometry" : {
        "type" : "Point",
        "coordinates" : [
          121.5029997,
          24.9960193
        ]
      },
      "properties" : {
        "name" : "布拉德施維根廚房",
        "address" : "新北市中和區南華路29號"
      }
    },
    {
      "type" : "Feature",
      "geometry" : {
        "type" : "Point",
        "coordinates" : [
          121.54320300000001,
          24.976887999999999
        ]
      },
      "properties" : {
        "name" : "自然楓蔬活坊",
        "address" : "新北市新店區永華街7號"
      }
    },
    {
      "type" : "Feature",
      "geometry" : {
        "type" : "Point",
        "coordinates" : [
          121.45876,
          25.008633
        ]
      },
      "properties" : {
        "name" : "原素食府",
        "address" : "新北市板橋區府中路29-2號"
      }
    },
    {
      "type" : "Feature",
      "geometry" : {
        "type" : "Point",
        "coordinates" : [
          121.486161,
          25.072095999999998
        ]
      },
      "properties" : {
        "name" : "烤室苑",
        "address" : "新北市三重區後竹圍街163號"
      }
    },
    {
      "type" : "Feature",
      "geometry" : {
        "type" : "Point",
        "coordinates" : [
          121.4995553,
          25.069577200000001
        ]
      },
      "properties" : {
        "name" : "耕心蓮苑",
        "address" : "新北市三重區萬全街15號"
      }
    },
    {
      "type" : "Feature",
      "geometry" : {
        "type" : "Point",
        "coordinates" : [
          121.5010486,
          24.975345000000001
        ]
      },
      "properties" : {
        "name" : "山間倉房",
        "address" : "新北市中和區興南路二段399巷124號"
      }
    },
    {
      "type" : "Feature",
      "geometry" : {
        "type" : "Point",
        "coordinates" : [
          121.54102949999999,
          24.9821688
        ]
      },
      "properties" : {
        "name" : "小蔬杭",
        "address" : "新北市新店區北新路三段105巷2號"
      }
    },
    {
      "type" : "Feature",
      "geometry" : {
        "type" : "Point",
        "coordinates" : [
          121.540567,
          24.952822000000001
        ]
      },
      "properties" : {
        "name" : "米勒蔬苑",
        "address" : "新北市新店區新店路5號"
      }
    },
    {
      "type" : "Feature",
      "geometry" : {
        "type" : "Point",
        "coordinates" : [
          121.550467,
          24.957709999999999
        ]
      },
      "properties" : {
        "name" : "仙人居",
        "address" : "新北市新店區長春路45號"
      }
    },
    {
      "type" : "Feature",
      "geometry" : {
        "type" : "Point",
        "coordinates" : [
          121.5392521,
          24.968785
        ]
      },
      "properties" : {
        "name" : "金曙咖啡簡餐",
        "address" : "新北市新店區中華路85-97號"
      }
    },
    {
      "type" : "Feature",
      "geometry" : {
        "type" : "Point",
        "coordinates" : [
          121.53672229999999,
          24.985686600000001
        ]
      },
      "properties" : {
        "name" : "蔬食 Naan",
        "address" : "新北市新店區建國路289號"
      }
    },
    {
      "type" : "Feature",
      "geometry" : {
        "type" : "Point",
        "coordinates" : [
          121.5350107,
          24.971744900000001
        ]
      },
      "properties" : {
        "name" : "素食ㄉㄧ˙家",
        "address" : "新北市新店區三民路117巷1弄7號"
      }
    },
    {
      "type" : "Feature",
      "geometry" : {
        "type" : "Point",
        "coordinates" : [
          121.53837470000001,
          24.9524884
        ]
      },
      "properties" : {
        "name" : "佬天爺油飯",
        "address" : "新北市新店區新店路6-1號"
      }
    },
    {
      "type" : "Feature",
      "geometry" : {
        "type" : "Point",
        "coordinates" : [
          121.49783600000001,
          25.257784999999998
        ]
      },
      "properties" : {
        "name" : "小妹頭蔬食．Cafe",
        "address" : "新北市三芝區中興街一段32號"
      }
    },
    {
      "type" : "Feature",
      "geometry" : {
        "type" : "Point",
        "coordinates" : [
          121.46530370000001,
          25.0123356
        ]
      },
      "properties" : {
        "name" : "光泉素食",
        "address" : "新北市板橋區菜園街39號"
      }
    },
    {
      "type" : "Feature",
      "geometry" : {
        "type" : "Point",
        "coordinates" : [
          121.430522,
          25.054082999999999
        ]
      },
      "properties" : {
        "name" : "素食",
        "address" : "新北市泰山區明志路一段515號"
      }
    },
    {
      "type" : "Feature",
      "geometry" : {
        "type" : "Point",
        "coordinates" : [
          121.42154499999999,
          24.990818999999998
        ]
      },
      "properties" : {
        "name" : "道恩素食自助餐",
        "address" : "新北市樹林區鎮前街77-3號"
      }
    },
    {
      "type" : "Feature",
      "geometry" : {
        "type" : "Point",
        "coordinates" : [
          121.4556006,
          25.009372599999999
        ]
      },
      "properties" : {
        "name" : "阿茶素食店",
        "address" : "新北市板橋區倉後街20號"
      }
    },
    {
      "type" : "Feature",
      "geometry" : {
        "type" : "Point",
        "coordinates" : [
          121.4579203,
          25.052817999999998
        ]
      },
      "properties" : {
        "name" : "141素食麵線鹽酥Ｇ",
        "address" : "新北市新莊區福壽街141號"
      }
    },
    {
      "type" : "Feature",
      "geometry" : {
        "type" : "Point",
        "coordinates" : [
          121.41963320000001,
          25.026047200000001
        ]
      },
      "properties" : {
        "name" : "富國路素食早點",
        "address" : "新北市新莊區富國路62號"
      }
    },
    {
      "type" : "Feature",
      "geometry" : {
        "type" : "Point",
        "coordinates" : [
          121.4602524,
          25.0025029
        ]
      },
      "properties" : {
        "name" : "光明素食",
        "address" : "新北市板橋區光明街22號"
      }
    },
    {
      "type" : "Feature",
      "geometry" : {
        "type" : "Point",
        "coordinates" : [
          121.422678,
          25.022834
        ]
      },
      "properties" : {
        "name" : "秝苑養身素食餐廳",
        "address" : "新北市新莊區四維路152巷1號"
      }
    },
    {
      "type" : "Feature",
      "geometry" : {
        "type" : "Point",
        "coordinates" : [
          121.450186,
          25.050957
        ]
      },
      "properties" : {
        "name" : "素食羹麵 當歸麵",
        "address" : "新北市新莊區中信街34號"
      }
    },
    {
      "type" : "Feature",
      "geometry" : {
        "type" : "Point",
        "coordinates" : [
          121.477541,
          25.084731999999999
        ]
      },
      "properties" : {
        "name" : "大眾素食",
        "address" : "新北市蘆洲區民族路72號"
      }
    },
    {
      "type" : "Feature",
      "geometry" : {
        "type" : "Point",
        "coordinates" : [
          121.66079999999999,
          25.069898999999999
        ]
      },
      "properties" : {
        "name" : "健康素食",
        "address" : "新北市汐止區和平街118號"
      }
    },
    {
      "type" : "Feature",
      "geometry" : {
        "type" : "Point",
        "coordinates" : [
          121.439879,
          24.974872000000001
        ]
      },
      "properties" : {
        "name" : "緣素食",
        "address" : "新北市土城區中央路二段278巷11號"
      }
    },
    {
      "type" : "Feature",
      "geometry" : {
        "type" : "Point",
        "coordinates" : [
          121.466768,
          25.021470999999998
        ]
      },
      "properties" : {
        "name" : "秀羽素食館",
        "address" : "新北市板橋區陽明街1號"
      }
    },
    {
      "type" : "Feature",
      "geometry" : {
        "type" : "Point",
        "coordinates" : [
          121.459109,
          24.988318
        ]
      },
      "properties" : {
        "name" : "學府素食",
        "address" : "新北市土城區學府路一段3號"
      }
    },
    {
      "type" : "Feature",
      "geometry" : {
        "type" : "Point",
        "coordinates" : [
          121.452039,
          25.04731
        ]
      },
      "properties" : {
        "name" : "卡哇伊美食坊",
        "address" : "新北市新莊區中港路411號"
      }
    },
    {
      "type" : "Feature",
      "geometry" : {
        "type" : "Point",
        "coordinates" : [
          121.44762,
          25.038620000000002
        ]
      },
      "properties" : {
        "name" : "淨欣素食小吃",
        "address" : "新北市新莊區公園路8號"
      }
    },
    {
      "type" : "Feature",
      "geometry" : {
        "type" : "Point",
        "coordinates" : [
          121.466904,
          25.088101999999999
        ]
      },
      "properties" : {
        "name" : "銘春健康素食",
        "address" : "新北市蘆洲區中正路190號"
      }
    },
    {
      "type" : "Feature",
      "geometry" : {
        "type" : "Point",
        "coordinates" : [
          121.506933,
          24.991651000000001
        ]
      },
      "properties" : {
        "name" : "福大素食品",
        "address" : "新北市中和區和平街118號"
      }
    },
    {
      "type" : "Feature",
      "geometry" : {
        "type" : "Point",
        "coordinates" : [
          121.659706,
          25.062981000000001
        ]
      },
      "properties" : {
        "name" : "圓緣素饍",
        "address" : "新北市汐止區仁愛路20號"
      }
    },
    {
      "type" : "Feature",
      "geometry" : {
        "type" : "Point",
        "coordinates" : [
          121.350151,
          24.954304799999999
        ]
      },
      "properties" : {
        "name" : "天心素食",
        "address" : "新北市鶯歌區南雅路4號"
      }
    },
    {
      "type" : "Feature",
      "geometry" : {
        "type" : "Point",
        "coordinates" : [
          121.466666,
          24.996755
        ]
      },
      "properties" : {
        "name" : "張太太素食小吃",
        "address" : "新北市中和區華福街55號"
      }
    },
    {
      "type" : "Feature",
      "geometry" : {
        "type" : "Point",
        "coordinates" : [
          121.466379,
          25.084467
        ]
      },
      "properties" : {
        "name" : "慶香園",
        "address" : "新北市蘆洲區中正路185巷72號"
      }
    },
    {
      "type" : "Feature",
      "geometry" : {
        "type" : "Point",
        "coordinates" : [
          121.4659848,
          25.050193499999999
        ]
      },
      "properties" : {
        "name" : "愛素好滷",
        "address" : "新北市新莊區化成路386號"
      }
    },
    {
      "type" : "Feature",
      "geometry" : {
        "type" : "Point",
        "coordinates" : [
          121.44043000000001,
          25.174869000000001
        ]
      },
      "properties" : {
        "name" : "觀音素食自助餐",
        "address" : "新北市淡水區新生街49號"
      }
    },
    {
      "type" : "Feature",
      "geometry" : {
        "type" : "Point",
        "coordinates" : [
          121.5076461,
          25.0078365
        ]
      },
      "properties" : {
        "name" : "莫凡彼餐飲",
        "address" : "新北市永和區中山路一段238號"
      }
    },
    {
      "type" : "Feature",
      "geometry" : {
        "type" : "Point",
        "coordinates" : [
          121.49141400000001,
          25.057157
        ]
      },
      "properties" : {
        "name" : "嘉義素食",
        "address" : "新北市三重區重安街70-15號"
      }
    },
    {
      "type" : "Feature",
      "geometry" : {
        "type" : "Point",
        "coordinates" : [
          121.43905839999999,
          24.970165000000001
        ]
      },
      "properties" : {
        "name" : "知足常樂素食小吃館",
        "address" : "新北市土城區中央路三段4-5號"
      }
    },
    {
      "type" : "Feature",
      "geometry" : {
        "type" : "Point",
        "coordinates" : [
          121.46158699999999,
          25.02881
        ]
      },
      "properties" : {
        "name" : "黃奕樺養生素食坊",
        "address" : "新北市板橋區裕民街50號"
      }
    },
    {
      "type" : "Feature",
      "geometry" : {
        "type" : "Point",
        "coordinates" : [
          121.426226,
          25.028832999999999
        ]
      },
      "properties" : {
        "name" : "福霖素食自助餐",
        "address" : "新北市新莊區建福路22號"
      }
    },
    {
      "type" : "Feature",
      "geometry" : {
        "type" : "Point",
        "coordinates" : [
          121.51874100000001,
          25.005331000000002
        ]
      },
      "properties" : {
        "name" : "久安饅頭包子店",
        "address" : "新北市永和區永利路42號"
      }
    },
    {
      "type" : "Feature",
      "geometry" : {
        "type" : "Point",
        "coordinates" : [
          121.4456776,
          25.170318200000001
        ]
      },
      "properties" : {
        "name" : "沈家有機素食",
        "address" : "新北市淡水區英專路42號"
      }
    },
    {
      "type" : "Feature",
      "geometry" : {
        "type" : "Point",
        "coordinates" : [
          121.46637,
          25.052878400000001
        ]
      },
      "properties" : {
        "name" : "葉惠真素食小吃",
        "address" : "新北市新莊區化成路530號"
      }
    },
    {
      "type" : "Feature",
      "geometry" : {
        "type" : "Point",
        "coordinates" : [
          121.45455200000001,
          25.049149
        ]
      },
      "properties" : {
        "name" : "素食刈包與麵線",
        "address" : "新北市新莊區幸福路553號"
      }
    },
    {
      "type" : "Feature",
      "geometry" : {
        "type" : "Point",
        "coordinates" : [
          121.52031100000001,
          25.008309000000001
        ]
      },
      "properties" : {
        "name" : "妙真素食自助餐",
        "address" : "新北市永和區國光路7號"
      }
    },
    {
      "type" : "Feature",
      "geometry" : {
        "type" : "Point",
        "coordinates" : [
          121.455805,
          25.009249000000001
        ]
      },
      "properties" : {
        "name" : "素食特製紅燒麵",
        "address" : "新北市板橋區福德街2巷12號"
      }
    },
    {
      "type" : "Feature",
      "geometry" : {
        "type" : "Point",
        "coordinates" : [
          121.44982,
          25.045542999999999
        ]
      },
      "properties" : {
        "name" : "仁祥素食之家",
        "address" : "新北市新莊區中港一街72號"
      }
    },
    {
      "type" : "Feature",
      "geometry" : {
        "type" : "Point",
        "coordinates" : [
          121.625218,
          25.067084000000001
        ]
      },
      "properties" : {
        "name" : "阿福師素食小吃店",
        "address" : "新北市汐止區明峰街317號"
      }
    },
    {
      "type" : "Feature",
      "geometry" : {
        "type" : "Point",
        "coordinates" : [
          121.455039,
          25.048370999999999
        ]
      },
      "properties" : {
        "name" : "童心園素食",
        "address" : "新北市新莊區自信街55號"
      }
    },
    {
      "type" : "Feature",
      "geometry" : {
        "type" : "Point",
        "coordinates" : [
          121.54271199999999,
          24.975297999999999
        ]
      },
      "properties" : {
        "name" : "七張素食自助餐",
        "address" : "新北市新店區北新路二段131-1號"
      }
    },
    {
      "type" : "Feature",
      "geometry" : {
        "type" : "Point",
        "coordinates" : [
          121.49691,
          25.072776999999999
        ]
      },
      "properties" : {
        "name" : "妙辰素食",
        "address" : "新北市三重區龍門路74號"
      }
    },
    {
      "type" : "Feature",
      "geometry" : {
        "type" : "Point",
        "coordinates" : [
          121.523042,
          25.008704000000002
        ]
      },
      "properties" : {
        "name" : "東家壽司",
        "address" : "新北市永和區竹林路225巷56號"
      }
    },
    {
      "type" : "Feature",
      "geometry" : {
        "type" : "Point",
        "coordinates" : [
          121.541782,
          24.983782000000001
        ]
      },
      "properties" : {
        "name" : "原粹蔬食作",
        "address" : "新北市新店區寶安街58巷2號"
      }
    },
    {
      "type" : "Feature",
      "geometry" : {
        "type" : "Point",
        "coordinates" : [
          121.479967,
          24.998878999999999
        ]
      },
      "properties" : {
        "name" : "麻辣銘記素麵線",
        "address" : "新北市中和區民利街33號"
      }
    },
    {
      "type" : "Feature",
      "geometry" : {
        "type" : "Point",
        "coordinates" : [
          121.5903517,
          24.9518971
        ]
      },
      "properties" : {
        "name" : "藏仙庵",
        "address" : "新北市新店區北宜路三段210巷27-1號"
      }
    },
    {
      "type" : "Feature",
      "geometry" : {
        "type" : "Point",
        "coordinates" : [
          121.442008,
          25.180112000000001
        ]
      },
      "properties" : {
        "name" : "一口小吃店",
        "address" : "新北市淡水區新興街60號"
      }
    },
    {
      "type" : "Feature",
      "geometry" : {
        "type" : "Point",
        "coordinates" : [
          121.534156,
          24.956461999999998
        ]
      },
      "properties" : {
        "name" : "妙心素食",
        "address" : "新北市新店區碧潭路43號"
      }
    },
    {
      "type" : "Feature",
      "geometry" : {
        "type" : "Point",
        "coordinates" : [
          121.4836341,
          25.063351699999998
        ]
      },
      "properties" : {
        "name" : "全國",
        "address" : "新北市三重區中華路105號"
      }
    },
    {
      "type" : "Feature",
      "geometry" : {
        "type" : "Point",
        "coordinates" : [
          121.48564500000001,
          25.081468000000001
        ]
      },
      "properties" : {
        "name" : "花蓮玉里臭豆腐",
        "address" : "新北市三重區仁美街125號"
      }
    },
    {
      "type" : "Feature",
      "geometry" : {
        "type" : "Point",
        "coordinates" : [
          121.46151500000001,
          25.137725
        ]
      },
      "properties" : {
        "name" : "竹圍天然素食",
        "address" : "新北市淡水區民生路40號"
      }
    },
    {
      "type" : "Feature",
      "geometry" : {
        "type" : "Point",
        "coordinates" : [
          121.544417,
          24.970713
        ]
      },
      "properties" : {
        "name" : "蓮香素食小棧",
        "address" : "新北市永和區中正路66巷21號"
      }
    },
    {
      "type" : "Feature",
      "geometry" : {
        "type" : "Point",
        "coordinates" : [
          121.37450699999999,
          24.927136999999998
        ]
      },
      "properties" : {
        "name" : "元素蔬食早餐",
        "address" : "新北市三峽區大同路104號"
      }
    },
    {
      "type" : "Feature",
      "geometry" : {
        "type" : "Point",
        "coordinates" : [
          121.44540499999999,
          24.986470000000001
        ]
      },
      "properties" : {
        "name" : "吉禮鄉西餅屋",
        "address" : "新北市土城區中央路一段186-4號"
      }
    },
    {
      "type" : "Feature",
      "geometry" : {
        "type" : "Point",
        "coordinates" : [
          121.451718,
          25.050992999999998
        ]
      },
      "properties" : {
        "name" : "綠玟素食",
        "address" : "新北市新莊區中港路523號"
      }
    },
    {
      "type" : "Feature",
      "geometry" : {
        "type" : "Point",
        "coordinates" : [
          121.510775,
          25.002953000000002
        ]
      },
      "properties" : {
        "name" : "永安健康素食",
        "address" : "新北市永和區中和路519巷5號"
      }
    },
    {
      "type" : "Feature",
      "geometry" : {
        "type" : "Point",
        "coordinates" : [
          121.492727,
          25.005811999999999
        ]
      },
      "properties" : {
        "name" : "明德心靈書坊附設素食簡餐",
        "address" : "新北市中和區橋和路122號"
      }
    },
    {
      "type" : "Feature",
      "geometry" : {
        "type" : "Point",
        "coordinates" : [
          121.550467,
          24.957709999999999
        ]
      },
      "properties" : {
        "name" : "仙人居",
        "address" : "新北市新店區長春路45號"
      }
    },
    {
      "type" : "Feature",
      "geometry" : {
        "type" : "Point",
        "coordinates" : [
          121.511797,
          25.002932999999999
        ]
      },
      "properties" : {
        "name" : "日日滿素食",
        "address" : "新北市中和區新興街1號"
      }
    },
    {
      "type" : "Feature",
      "geometry" : {
        "type" : "Point",
        "coordinates" : [
          121.645875,
          24.952015299999999
        ]
      },
      "properties" : {
        "name" : "18咖啡",
        "address" : "新北市石碇區北宜路五段78號"
      }
    },
    {
      "type" : "Feature",
      "geometry" : {
        "type" : "Point",
        "coordinates" : [
          121.50688100000001,
          24.984483000000001
        ]
      },
      "properties" : {
        "name" : "華新素食",
        "address" : "新北市中和區華新街30巷16號"
      }
    },
    {
      "type" : "Feature",
      "geometry" : {
        "type" : "Point",
        "coordinates" : [
          121.448564,
          24.986825
        ]
      },
      "properties" : {
        "name" : "潮素主藝 Chaovegan",
        "address" : "新北市土城區裕生路21巷6弄14號"
      }
    },
    {
      "type" : "Feature",
      "geometry" : {
        "type" : "Point",
        "coordinates" : [
          121.4272527,
          24.986008500000001
        ]
      },
      "properties" : {
        "name" : "太上道素食廚房",
        "address" : "新北市板橋區篤行路三段玉平巷76弄13號"
      }
    },
    {
      "type" : "Feature",
      "geometry" : {
        "type" : "Point",
        "coordinates" : [
          121.462346,
          25.137903000000001
        ]
      },
      "properties" : {
        "name" : "梅園",
        "address" : "新北市淡水區民生路66號"
      }
    },
    {
      "type" : "Feature",
      "geometry" : {
        "type" : "Point",
        "coordinates" : [
          121.8174626,
          25.127478799999999
        ]
      },
      "properties" : {
        "name" : "素食快餐便當",
        "address" : "新北市瑞芳區建基路一段66號"
      }
    },
    {
      "type" : "Feature",
      "geometry" : {
        "type" : "Point",
        "coordinates" : [
          121.43036499999999,
          25.062775999999999
        ]
      },
      "properties" : {
        "name" : "天慈素食店",
        "address" : "新北市泰山區泰林路二段283號"
      }
    },
    {
      "type" : "Feature",
      "geometry" : {
        "type" : "Point",
        "coordinates" : [
          121.458415,
          25.065602999999999
        ]
      },
      "properties" : {
        "name" : "福德福素食",
        "address" : "新北市新莊區五工三路94巷4號"
      }
    },
    {
      "type" : "Feature",
      "geometry" : {
        "type" : "Point",
        "coordinates" : [
          121.486019,
          25.0045818
        ]
      },
      "properties" : {
        "name" : "崇德發事業股份有限公司",
        "address" : "新北市中和區中山路二段407號"
      }
    },
    {
      "type" : "Feature",
      "geometry" : {
        "type" : "Point",
        "coordinates" : [
          121.48187,
          24.997218
        ]
      },
      "properties" : {
        "name" : "美濃林家粄條",
        "address" : "新北市中和區員山路148巷15號"
      }
    },
    {
      "type" : "Feature",
      "geometry" : {
        "type" : "Point",
        "coordinates" : [
          121.457966,
          25.045079000000001
        ]
      },
      "properties" : {
        "name" : "法蘭素食",
        "address" : "新北市新莊區福樂街18號"
      }
    },
    {
      "type" : "Feature",
      "geometry" : {
        "type" : "Point",
        "coordinates" : [
          121.50115099999999,
          25.074047
        ]
      },
      "properties" : {
        "name" : "素食麵攤",
        "address" : "新北市三重區龍門路262號"
      }
    },
    {
      "type" : "Feature",
      "geometry" : {
        "type" : "Point",
        "coordinates" : [
          121.453254,
          24.994121100000001
        ]
      },
      "properties" : {
        "name" : "蔬福喜餃",
        "address" : "新北市板橋區德興街2-1號"
      }
    },
    {
      "type" : "Feature",
      "geometry" : {
        "type" : "Point",
        "coordinates" : [
          121.42769199999999,
          25.025230000000001
        ]
      },
      "properties" : {
        "name" : "天香素食",
        "address" : "新北市新莊區建安街40巷2號"
      }
    },
    {
      "type" : "Feature",
      "geometry" : {
        "type" : "Point",
        "coordinates" : [
          121.8059373,
          25.106739099999999
        ]
      },
      "properties" : {
        "name" : "慈褆素食",
        "address" : "新北市瑞芳區民生街35巷2號"
      }
    },
    {
      "type" : "Feature",
      "geometry" : {
        "type" : "Point",
        "coordinates" : [
          121.47427500000001,
          25.002056
        ]
      },
      "properties" : {
        "name" : "素食",
        "address" : "新北市中和區民享街71號"
      }
    },
    {
      "type" : "Feature",
      "geometry" : {
        "type" : "Point",
        "coordinates" : [
          121.64824900000001,
          25.061622
        ]
      },
      "properties" : {
        "name" : "燉點RISOTTO & WINE",
        "address" : "新北市汐止區新台五路一段99號"
      }
    },
    {
      "type" : "Feature",
      "geometry" : {
        "type" : "Point",
        "coordinates" : [
          121.511805,
          25.007567999999999
        ]
      },
      "properties" : {
        "name" : "彰化素食麵",
        "address" : "新北市永和區保平路30巷8號"
      }
    },
    {
      "type" : "Feature",
      "geometry" : {
        "type" : "Point",
        "coordinates" : [
          121.4336534,
          25.056130599999999
        ]
      },
      "properties" : {
        "name" : "美味佳素食中心",
        "address" : "新北市泰山區全興路212號"
      }
    },
    {
      "type" : "Feature",
      "geometry" : {
        "type" : "Point",
        "coordinates" : [
          121.46530370000001,
          25.0123356
        ]
      },
      "properties" : {
        "name" : "明德素食園",
        "address" : "新北市板橋區縣民大道二段7號"
      }
    },
    {
      "type" : "Feature",
      "geometry" : {
        "type" : "Point",
        "coordinates" : [
          121.465748,
          25.084153000000001
        ]
      },
      "properties" : {
        "name" : "北辰素食",
        "address" : "新北市蘆洲區中正路185巷82號"
      }
    },
    {
      "type" : "Feature",
      "geometry" : {
        "type" : "Point",
        "coordinates" : [
          121.4608676,
          25.0230739
        ]
      },
      "properties" : {
        "name" : "全真素食火鍋鐵板燒",
        "address" : "新北市板橋區新海路129號"
      }
    },
    {
      "type" : "Feature",
      "geometry" : {
        "type" : "Point",
        "coordinates" : [
          121.47882799999999,
          25.013192
        ]
      },
      "properties" : {
        "name" : "素食",
        "address" : "新北市板橋區三民路二段202號"
      }
    },
    {
      "type" : "Feature",
      "geometry" : {
        "type" : "Point",
        "coordinates" : [
          121.5118583,
          25.255940800000001
        ]
      },
      "properties" : {
        "name" : "pizza olmo柴燒新義式烘焙餐廳",
        "address" : "新北市三芝區芝柏路46號"
      }
    },
    {
      "type" : "Feature",
      "geometry" : {
        "type" : "Point",
        "coordinates" : [
          121.36896900000001,
          24.931995000000001
        ]
      },
      "properties" : {
        "name" : "三角湧滷味",
        "address" : "新北市三峽區民權街129號"
      }
    },
    {
      "type" : "Feature",
      "geometry" : {
        "type" : "Point",
        "coordinates" : [
          121.4474213,
          25.039015599999999
        ]
      },
      "properties" : {
        "name" : "透早日頭-TOZAZTO ",
        "address" : "新北市新莊區和興街7號"
      }
    },
    {
      "type" : "Feature",
      "geometry" : {
        "type" : "Point",
        "coordinates" : [
          121.4278693,
          24.9858133
        ]
      },
      "properties" : {
        "name" : "大地素食早餐",
        "address" : "新北市板橋區篤行路三段玉平巷76弄18號"
      }
    },
    {
      "type" : "Feature",
      "geometry" : {
        "type" : "Point",
        "coordinates" : [
          121.457864,
          25.051684999999999
        ]
      },
      "properties" : {
        "name" : "波羅密早餐素食",
        "address" : "新北市新莊區福壽街138號"
      }
    },
    {
      "type" : "Feature",
      "geometry" : {
        "type" : "Point",
        "coordinates" : [
          121.370912,
          24.938123999999998
        ]
      },
      "properties" : {
        "name" : "嬿姿養生素食",
        "address" : "新北市三峽區復興路147號"
      }
    },
    {
      "type" : "Feature",
      "geometry" : {
        "type" : "Point",
        "coordinates" : [
          121.433015,
          25.007004999999999
        ]
      },
      "properties" : {
        "name" : "素蚵嗲",
        "address" : "新北市新莊區新樹路573號"
      }
    },
    {
      "type" : "Feature",
      "geometry" : {
        "type" : "Point",
        "coordinates" : [
          121.50515849999999,
          24.997172200000001
        ]
      },
      "properties" : {
        "name" : "天緣小吃",
        "address" : "新北市中和區南華路74號"
      }
    },
    {
      "type" : "Feature",
      "geometry" : {
        "type" : "Point",
        "coordinates" : [
          121.53543500000001,
          24.983090000000001
        ]
      },
      "properties" : {
        "name" : "蔬喜素食",
        "address" : "新北市新店區民權路116號"
      }
    },
    {
      "type" : "Feature",
      "geometry" : {
        "type" : "Point",
        "coordinates" : [
          121.44480900000001,
          25.170528999999998
        ]
      },
      "properties" : {
        "name" : "淡水素食小舖",
        "address" : "新北市淡水區清水街30號"
      }
    },
    {
      "type" : "Feature",
      "geometry" : {
        "type" : "Point",
        "coordinates" : [
          121.637479,
          25.221499999999999
        ]
      },
      "properties" : {
        "name" : "素煎包",
        "address" : "新北市金山區中山路225號"
      }
    },
    {
      "type" : "Feature",
      "geometry" : {
        "type" : "Point",
        "coordinates" : [
          121.42743,
          24.993521000000001
        ]
      },
      "properties" : {
        "name" : "美味素食鍋貼",
        "address" : "新北市樹林區保安街一段22-2號"
      }
    },
    {
      "type" : "Feature",
      "geometry" : {
        "type" : "Point",
        "coordinates" : [
          121.425625,
          25.192067999999999
        ]
      },
      "properties" : {
        "name" : "海院素食小攤",
        "address" : "新北市淡水區濱海路三段150號"
      }
    },
    {
      "type" : "Feature",
      "geometry" : {
        "type" : "Point",
        "coordinates" : [
          121.44555200000001,
          25.052638000000002
        ]
      },
      "properties" : {
        "name" : "漢唐烘培坊咖啡",
        "address" : "新北市新莊區中榮街79號"
      }
    },
    {
      "type" : "Feature",
      "geometry" : {
        "type" : "Point",
        "coordinates" : [
          121.502864,
          25.063067
        ]
      },
      "properties" : {
        "name" : "素越美食",
        "address" : "新北市三重區福德南路26號"
      }
    },
    {
      "type" : "Feature",
      "geometry" : {
        "type" : "Point",
        "coordinates" : [
          121.42758000000001,
          25.025393000000001
        ]
      },
      "properties" : {
        "name" : "紅橙黃綠蔬食食堂",
        "address" : "新北市新莊區建安街40巷22號"
      }
    },
    {
      "type" : "Feature",
      "geometry" : {
        "type" : "Point",
        "coordinates" : [
          121.4417474,
          24.9991059
        ]
      },
      "properties" : {
        "name" : "依素吧 Eatsubar 海苔飯捲",
        "address" : "新北市板橋區大觀路二段148巷1-2號"
      }
    },
    {
      "type" : "Feature",
      "geometry" : {
        "type" : "Point",
        "coordinates" : [
          121.851837,
          25.110019000000001
        ]
      },
      "properties" : {
        "name" : "我好幸福民宿",
        "address" : "新北市瑞芳區新山路16號"
      }
    },
    {
      "type" : "Feature",
      "geometry" : {
        "type" : "Point",
        "coordinates" : [
          121.443309,
          25.169986999999999
        ]
      },
      "properties" : {
        "name" : "呂得利商行",
        "address" : "新北市淡水區清水街29號"
      }
    },
    {
      "type" : "Feature",
      "geometry" : {
        "type" : "Point",
        "coordinates" : [
          121.635977,
          25.223161999999999
        ]
      },
      "properties" : {
        "name" : "許家園西餅蛋糕",
        "address" : "新北市金山區中山路287號"
      }
    },
    {
      "type" : "Feature",
      "geometry" : {
        "type" : "Point",
        "coordinates" : [
          121.467671,
          25.082339999999999
        ]
      },
      "properties" : {
        "name" : "慧宇素食小吃",
        "address" : "新北市蘆洲區光華路87巷2號"
      }
    },
    {
      "type" : "Feature",
      "geometry" : {
        "type" : "Point",
        "coordinates" : [
          121.41839299999999,
          24.979828000000001
        ]
      },
      "properties" : {
        "name" : "松如素食",
        "address" : "新北市樹林區太元街29號"
      }
    },
    {
      "type" : "Feature",
      "geometry" : {
        "type" : "Point",
        "coordinates" : [
          121.498887,
          25.001771999999999
        ]
      },
      "properties" : {
        "name" : "素珍素食",
        "address" : "新北市中和區連城路23巷4號"
      }
    },
    {
      "type" : "Feature",
      "geometry" : {
        "type" : "Point",
        "coordinates" : [
          121.367357,
          24.936164999999999
        ]
      },
      "properties" : {
        "name" : "仙侶奇緣",
        "address" : "新北市三峽區大勇路35-1號"
      }
    },
    {
      "type" : "Feature",
      "geometry" : {
        "type" : "Point",
        "coordinates" : [
          121.48902,
          25.079711
        ]
      },
      "properties" : {
        "name" : "靖姑素食自助餐",
        "address" : "新北市三重區溪尾街144號"
      }
    },
    {
      "type" : "Feature",
      "geometry" : {
        "type" : "Point",
        "coordinates" : [
          121.480996,
          25.077788000000002
        ]
      },
      "properties" : {
        "name" : "素食麵攤",
        "address" : "新北市三重區永福街62-2號"
      }
    },
    {
      "type" : "Feature",
      "geometry" : {
        "type" : "Point",
        "coordinates" : [
          121.50038739999999,
          25.0649145
        ]
      },
      "properties" : {
        "name" : "江南里",
        "address" : "新北市三重區信義街47-1號"
      }
    },
    {
      "type" : "Feature",
      "geometry" : {
        "type" : "Point",
        "coordinates" : [
          121.5195325,
          25.003402000000001
        ]
      },
      "properties" : {
        "name" : "素食抓餅",
        "address" : "新北市永和區秀朗路一段209巷巷口"
      }
    },
    {
      "type" : "Feature",
      "geometry" : {
        "type" : "Point",
        "coordinates" : [
          121.500467,
          25.074825000000001
        ]
      },
      "properties" : {
        "name" : "素食材料",
        "address" : "新北市三重區仁和街199號"
      }
    },
    {
      "type" : "Feature",
      "geometry" : {
        "type" : "Point",
        "coordinates" : [
          121.472083,
          25.004125999999999
        ]
      },
      "properties" : {
        "name" : "狀元殿",
        "address" : "新北市中和區莒光路26號"
      }
    },
    {
      "type" : "Feature",
      "geometry" : {
        "type" : "Point",
        "coordinates" : [
          121.628615,
          25.069399000000001
        ]
      },
      "properties" : {
        "name" : "養生素食",
        "address" : "新北市汐止區中興路282號"
      }
    },
    {
      "type" : "Feature",
      "geometry" : {
        "type" : "Point",
        "coordinates" : [
          121.442671,
          24.998856
        ]
      },
      "properties" : {
        "name" : "慧素素食",
        "address" : "新北市板橋區大觀路二段277號"
      }
    },
    {
      "type" : "Feature",
      "geometry" : {
        "type" : "Point",
        "coordinates" : [
          121.5044688,
          25.255133799999999
        ]
      },
      "properties" : {
        "name" : "不二健康素食",
        "address" : "新北市三芝區中正路二段22號"
      }
    },
    {
      "type" : "Feature",
      "geometry" : {
        "type" : "Point",
        "coordinates" : [
          121.519263,
          25.004899999999999
        ]
      },
      "properties" : {
        "name" : "和合素食",
        "address" : "新北市永和區永利路64號"
      }
    },
    {
      "type" : "Feature",
      "geometry" : {
        "type" : "Point",
        "coordinates" : [
          121.444318,
          24.977474999999998
        ]
      },
      "properties" : {
        "name" : "Three Full 找3飽",
        "address" : "新北市土城區員林街61巷2弄8號"
      }
    },
    {
      "type" : "Feature",
      "geometry" : {
        "type" : "Point",
        "coordinates" : [
          121.448775,
          25.050892000000001
        ]
      },
      "properties" : {
        "name" : "素食早餐店",
        "address" : "新北市新莊區中信街67巷4號"
      }
    },
    {
      "type" : "Feature",
      "geometry" : {
        "type" : "Point",
        "coordinates" : [
          121.477985,
          25.031146
        ]
      },
      "properties" : {
        "name" : "福星素食",
        "address" : "新北市板橋區民治街122號"
      }
    },
    {
      "type" : "Feature",
      "geometry" : {
        "type" : "Point",
        "coordinates" : [
          121.465538,
          25.044422999999998
        ]
      },
      "properties" : {
        "name" : "素食水煎包",
        "address" : "新北市新莊區化成路112號"
      }
    },
    {
      "type" : "Feature",
      "geometry" : {
        "type" : "Point",
        "coordinates" : [
          121.472347,
          25.032571000000001
        ]
      },
      "properties" : {
        "name" : "明善素食",
        "address" : "新北市板橋區江寧路三段79巷2號"
      }
    },
    {
      "type" : "Feature",
      "geometry" : {
        "type" : "Point",
        "coordinates" : [
          121.51655700000001,
          24.976111
        ]
      },
      "properties" : {
        "name" : "二六素舍",
        "address" : "新北市新店區安民街360號"
      }
    },
    {
      "type" : "Feature",
      "geometry" : {
        "type" : "Point",
        "coordinates" : [
          121.45623999999999,
          25.009460000000001
        ]
      },
      "properties" : {
        "name" : "素食山藥餅",
        "address" : "新北市板橋區府中路123號"
      }
    },
    {
      "type" : "Feature",
      "geometry" : {
        "type" : "Point",
        "coordinates" : [
          121.442657,
          24.977989000000001
        ]
      },
      "properties" : {
        "name" : "回家素麵食-Comehome&Eat",
        "address" : "新北市土城區員林街6號"
      }
    },
    {
      "type" : "Feature",
      "geometry" : {
        "type" : "Point",
        "coordinates" : [
          121.50796099999999,
          24.991114
        ]
      },
      "properties" : {
        "name" : "慈緣素食",
        "address" : "新北市中和區和平街72號"
      }
    },
    {
      "type" : "Feature",
      "geometry" : {
        "type" : "Point",
        "coordinates" : [
          121.420247,
          24.988219000000001
        ]
      },
      "properties" : {
        "name" : "澄祥素食",
        "address" : "新北市樹林區日新街164號"
      }
    },
    {
      "type" : "Feature",
      "geometry" : {
        "type" : "Point",
        "coordinates" : [
          121.65977700000001,
          25.064247999999999
        ]
      },
      "properties" : {
        "name" : "早餐素食",
        "address" : "新北市汐止區秀峰路76號"
      }
    },
    {
      "type" : "Feature",
      "geometry" : {
        "type" : "Point",
        "coordinates" : [
          121.3632635,
          24.9067583
        ]
      },
      "properties" : {
        "name" : "醇品咖啡素食坊",
        "address" : "新北市三峽區中正路二段421號"
      }
    },
    {
      "type" : "Feature",
      "geometry" : {
        "type" : "Point",
        "coordinates" : [
          121.3654221,
          25.067003199999998
        ]
      },
      "properties" : {
        "name" : "維生好素食坊",
        "address" : "新北市林口區文化二路一段20巷23號"
      }
    },
    {
      "type" : "Feature",
      "geometry" : {
        "type" : "Point",
        "coordinates" : [
          121.6617822,
          25.0660919
        ]
      },
      "properties" : {
        "name" : "MiDo 米荳海苔飯捲",
        "address" : "新北市汐止區忠孝東路196號"
      }
    },
    {
      "type" : "Feature",
      "geometry" : {
        "type" : "Point",
        "coordinates" : [
          121.496492,
          25.064183
        ]
      },
      "properties" : {
        "name" : "吉坊素食藝術蛋糕",
        "address" : "新北市三重區信義西街96號"
      }
    },
    {
      "type" : "Feature",
      "geometry" : {
        "type" : "Point",
        "coordinates" : [
          121.49298899999999,
          25.062255
        ]
      },
      "properties" : {
        "name" : "多緣素健康蔬食",
        "address" : "新北市三重區中正北路25巷15號"
      }
    },
    {
      "type" : "Feature",
      "geometry" : {
        "type" : "Point",
        "coordinates" : [
          121.42879000000001,
          24.991256
        ]
      },
      "properties" : {
        "name" : "大胖素食",
        "address" : "新北市板橋區溪崑二街21號"
      }
    },
    {
      "type" : "Feature",
      "geometry" : {
        "type" : "Point",
        "coordinates" : [
          121.37917880000001,
          25.076127100000001
        ]
      },
      "properties" : {
        "name" : "大千素食",
        "address" : "新北市林口區文化一路一段135巷28號"
      }
    },
    {
      "type" : "Feature",
      "geometry" : {
        "type" : "Point",
        "coordinates" : [
          121.544713,
          24.969701000000001
        ]
      },
      "properties" : {
        "name" : "晨蔬亭",
        "address" : "新北市新店區中正路43號"
      }
    },
    {
      "type" : "Feature",
      "geometry" : {
        "type" : "Point",
        "coordinates" : [
          121.481613,
          25.019086999999999
        ]
      },
      "properties" : {
        "name" : "味美思素食店",
        "address" : "新北市板橋區光復街33巷1號"
      }
    },
    {
      "type" : "Feature",
      "geometry" : {
        "type" : "Point",
        "coordinates" : [
          121.486374,
          25.0681984
        ]
      },
      "properties" : {
        "name" : "彌勒素食",
        "address" : "新北市三重區力行路一段91號"
      }
    },
    {
      "type" : "Feature",
      "geometry" : {
        "type" : "Point",
        "coordinates" : [
          121.43478899999999,
          24.862905000000001
        ]
      },
      "properties" : {
        "name" : "菩提素食坊",
        "address" : "新北市三峽區有木里131-1號"
      }
    },
    {
      "type" : "Feature",
      "geometry" : {
        "type" : "Point",
        "coordinates" : [
          121.3736141,
          24.9437316
        ]
      },
      "properties" : {
        "name" : "普門茶品",
        "address" : "新北市三峽區國際二街11號"
      }
    },
    {
      "type" : "Feature",
      "geometry" : {
        "type" : "Point",
        "coordinates" : [
          121.4566851,
          24.9915901
        ]
      },
      "properties" : {
        "name" : "得來素蔬食連鎖餐飲",
        "address" : "新北市土城區廣興街5號"
      }
    },
    {
      "type" : "Feature",
      "geometry" : {
        "type" : "Point",
        "coordinates" : [
          121.517298,
          25.013864000000002
        ]
      },
      "properties" : {
        "name" : "京席素食料理",
        "address" : "新北市永和區復興街65號"
      }
    },
    {
      "type" : "Feature",
      "geometry" : {
        "type" : "Point",
        "coordinates" : [
          121.44516,
          25.172256000000001
        ]
      },
      "properties" : {
        "name" : "金紀素食",
        "address" : "新北市淡水區水源街一段68號"
      }
    },
    {
      "type" : "Feature",
      "geometry" : {
        "type" : "Point",
        "coordinates" : [
          121.4947238,
          25.059369799999999
        ]
      },
      "properties" : {
        "name" : "福記素食",
        "address" : "新北市三重區光興街134號"
      }
    },
    {
      "type" : "Feature",
      "geometry" : {
        "type" : "Point",
        "coordinates" : [
          121.4625616,
          25.020409999999998
        ]
      },
      "properties" : {
        "name" : "阿伯素食車輪餅",
        "address" : "新北市板橋區新海路1號"
      }
    },
    {
      "type" : "Feature",
      "geometry" : {
        "type" : "Point",
        "coordinates" : [
          121.445977,
          25.178504
        ]
      },
      "properties" : {
        "name" : "心緣素食",
        "address" : "新北市淡水區北新路67號"
      }
    },
    {
      "type" : "Feature",
      "geometry" : {
        "type" : "Point",
        "coordinates" : [
          121.51100099999999,
          24.990805999999999
        ]
      },
      "properties" : {
        "name" : "祥蓮素食",
        "address" : "新北市中和區興南路一段40號"
      }
    },
    {
      "type" : "Feature",
      "geometry" : {
        "type" : "Point",
        "coordinates" : [
          121.478308,
          25.016296000000001
        ]
      },
      "properties" : {
        "name" : "健康素食",
        "address" : "新北市板橋區民享街116巷1弄18號"
      }
    },
    {
      "type" : "Feature",
      "geometry" : {
        "type" : "Point",
        "coordinates" : [
          121.44667099999999,
          25.169288000000002
        ]
      },
      "properties" : {
        "name" : "蔬漫蔬食料理",
        "address" : "新北市淡水區博愛街47號"
      }
    },
    {
      "type" : "Feature",
      "geometry" : {
        "type" : "Point",
        "coordinates" : [
          121.44166199999999,
          25.169981
        ]
      },
      "properties" : {
        "name" : "國祥素食",
        "address" : "新北市淡水區清水街67號"
      }
    },
    {
      "type" : "Feature",
      "geometry" : {
        "type" : "Point",
        "coordinates" : [
          121.471783,
          25.049049
        ]
      },
      "properties" : {
        "name" : "彤豐健康素食",
        "address" : "新北市三重區光復路一段68巷2號"
      }
    },
    {
      "type" : "Feature",
      "geometry" : {
        "type" : "Point",
        "coordinates" : [
          121.539705,
          24.973507000000001
        ]
      },
      "properties" : {
        "name" : "彌勒齋素食路邊早餐攤",
        "address" : "新北市新店區建國路7號"
      }
    },
    {
      "type" : "Feature",
      "geometry" : {
        "type" : "Point",
        "coordinates" : [
          121.422607,
          25.023076
        ]
      },
      "properties" : {
        "name" : "香菇田園養生店",
        "address" : "新北市新莊區四維路152巷6號"
      }
    },
    {
      "type" : "Feature",
      "geometry" : {
        "type" : "Point",
        "coordinates" : [
          121.44638399999999,
          25.046880000000002
        ]
      },
      "properties" : {
        "name" : "小芽蔬食早午餐",
        "address" : "新北市新莊區中和街59巷24號"
      }
    },
    {
      "type" : "Feature",
      "geometry" : {
        "type" : "Point",
        "coordinates" : [
          121.5076461,
          25.0078365
        ]
      },
      "properties" : {
        "name" : "比漾咖啡\/選物",
        "address" : "新北市永和區中山路一段238號"
      }
    },
    {
      "type" : "Feature",
      "geometry" : {
        "type" : "Point",
        "coordinates" : [
          121.518227,
          25.000328
        ]
      },
      "properties" : {
        "name" : "樂香香義大利麵坊",
        "address" : "新北市永和區得和路103號"
      }
    },
    {
      "type" : "Feature",
      "geometry" : {
        "type" : "Point",
        "coordinates" : [
          121.46758199999999,
          24.984867699999999
        ]
      },
      "properties" : {
        "name" : "素食麵攤",
        "address" : "新北市土城區延吉街251號"
      }
    },
    {
      "type" : "Feature",
      "geometry" : {
        "type" : "Point",
        "coordinates" : [
          121.7227807,
          25.023528800000001
        ]
      },
      "properties" : {
        "name" : "菁桐崇德素食之家",
        "address" : "新北市平溪區菁桐街60號"
      }
    },
    {
      "type" : "Feature",
      "geometry" : {
        "type" : "Point",
        "coordinates" : [
          121.47005299999999,
          25.049422
        ]
      },
      "properties" : {
        "name" : "元素早餐",
        "address" : "新北市三重區光復路一段68巷29號"
      }
    },
    {
      "type" : "Feature",
      "geometry" : {
        "type" : "Point",
        "coordinates" : [
          121.474216,
          25.024339999999999
        ]
      },
      "properties" : {
        "name" : "王師傅素麵食館",
        "address" : "新北市板橋區莒光路165巷16號"
      }
    },
    {
      "type" : "Feature",
      "geometry" : {
        "type" : "Point",
        "coordinates" : [
          121.497592,
          25.062268
        ]
      },
      "properties" : {
        "name" : "滋味多素食城",
        "address" : "新北市三重區重新路二段31號"
      }
    },
    {
      "type" : "Feature",
      "geometry" : {
        "type" : "Point",
        "coordinates" : [
          121.54479000000001,
          24.967670999999999
        ]
      },
      "properties" : {
        "name" : "妙露素食",
        "address" : "新北市新店區中興路一段267-1號"
      }
    },
    {
      "type" : "Feature",
      "geometry" : {
        "type" : "Point",
        "coordinates" : [
          121.413044,
          25.004715999999998
        ]
      },
      "properties" : {
        "name" : "品香素食",
        "address" : "新北市樹林區保安街二段245號"
      }
    },
    {
      "type" : "Feature",
      "geometry" : {
        "type" : "Point",
        "coordinates" : [
          121.49529200000001,
          25.059502999999999
        ]
      },
      "properties" : {
        "name" : "越南素食館",
        "address" : "新北市三重區光興街106號"
      }
    },
    {
      "type" : "Feature",
      "geometry" : {
        "type" : "Point",
        "coordinates" : [
          121.35392,
          24.955055000000002
        ]
      },
      "properties" : {
        "name" : "京進素食",
        "address" : "新北市鶯歌區仁愛路62號"
      }
    },
    {
      "type" : "Feature",
      "geometry" : {
        "type" : "Point",
        "coordinates" : [
          121.36118500000001,
          24.938023000000001
        ]
      },
      "properties" : {
        "name" : "德林歐式素食館",
        "address" : "新北市三峽區中山路284號"
      }
    },
    {
      "type" : "Feature",
      "geometry" : {
        "type" : "Point",
        "coordinates" : [
          121.5516034,
          24.848102099999998
        ]
      },
      "properties" : {
        "name" : "尪某茶-假日茶棧",
        "address" : "新北市烏來區瀑布路6號"
      }
    },
    {
      "type" : "Feature",
      "geometry" : {
        "type" : "Point",
        "coordinates" : [
          121.45418600000001,
          25.016272000000001
        ]
      },
      "properties" : {
        "name" : "喜悅健康食品行",
        "address" : "新北市板橋區大仁街65號"
      }
    },
    {
      "type" : "Feature",
      "geometry" : {
        "type" : "Point",
        "coordinates" : [
          121.484144,
          25.061707999999999
        ]
      },
      "properties" : {
        "name" : "愛的小屋",
        "address" : "新北市三重區貴陽街14號"
      }
    },
    {
      "type" : "Feature",
      "geometry" : {
        "type" : "Point",
        "coordinates" : [
          121.4233498,
          25.0131999
        ]
      },
      "properties" : {
        "name" : "愛酵廚房素食",
        "address" : "新北市樹林區俊英街223巷"
      }
    },
    {
      "type" : "Feature",
      "geometry" : {
        "type" : "Point",
        "coordinates" : [
          121.4439172,
          25.168589000000001
        ]
      },
      "properties" : {
        "name" : "千囍蔬食堂&Y Mo海燕窩鮮果汁",
        "address" : "新北市淡水區公明街73巷6號"
      }
    },
    {
      "type" : "Feature",
      "geometry" : {
        "type" : "Point",
        "coordinates" : [
          121.540228,
          24.968730000000001
        ]
      },
      "properties" : {
        "name" : "大千素食自助餐",
        "address" : "新北市新店區中華路48巷10號"
      }
    },
    {
      "type" : "Feature",
      "geometry" : {
        "type" : "Point",
        "coordinates" : [
          121.426942,
          24.989017
        ]
      },
      "properties" : {
        "name" : "萃花林 素食自助餐",
        "address" : "新北市板橋區溪崑二街101號"
      }
    },
    {
      "type" : "Feature",
      "geometry" : {
        "type" : "Point",
        "coordinates" : [
          121.464326,
          25.081928999999999
        ]
      },
      "properties" : {
        "name" : "慧德日式素食",
        "address" : "新北市蘆洲區長榮路46巷2號"
      }
    },
    {
      "type" : "Feature",
      "geometry" : {
        "type" : "Point",
        "coordinates" : [
          121.47451270000001,
          25.001695600000001
        ]
      },
      "properties" : {
        "name" : "至佳素食",
        "address" : "新北市中和區民享街89巷1號"
      }
    },
    {
      "type" : "Feature",
      "geometry" : {
        "type" : "Point",
        "coordinates" : [
          121.50084819999999,
          25.064211700000001
        ]
      },
      "properties" : {
        "name" : "苜樹芽手捲",
        "address" : "新北市三重區中央北路22號"
      }
    },
    {
      "type" : "Feature",
      "geometry" : {
        "type" : "Point",
        "coordinates" : [
          121.63815959999999,
          25.220970999999999
        ]
      },
      "properties" : {
        "name" : "美食坊",
        "address" : "新北市金山區福德街9號"
      }
    },
    {
      "type" : "Feature",
      "geometry" : {
        "type" : "Point",
        "coordinates" : [
          121.465317,
          25.023698
        ]
      },
      "properties" : {
        "name" : "養生素食坊",
        "address" : "新北市板橋區自由路51巷2號"
      }
    },
    {
      "type" : "Feature",
      "geometry" : {
        "type" : "Point",
        "coordinates" : [
          121.44905799999999,
          25.177050999999999
        ]
      },
      "properties" : {
        "name" : "素食便當",
        "address" : "新北市淡水區北新路182巷5弄43號"
      }
    },
    {
      "type" : "Feature",
      "geometry" : {
        "type" : "Point",
        "coordinates" : [
          121.44626599999999,
          25.011987000000001
        ]
      },
      "properties" : {
        "name" : "發哥蔬食店",
        "address" : "新北市板橋區僑中一街102巷1弄9號"
      }
    },
    {
      "type" : "Feature",
      "geometry" : {
        "type" : "Point",
        "coordinates" : [
          121.3353925,
          24.9392374
        ]
      },
      "properties" : {
        "name" : "素食廟口三明治",
        "address" : "新北市鶯歌區中正三路205號"
      }
    },
    {
      "type" : "Feature",
      "geometry" : {
        "type" : "Point",
        "coordinates" : [
          121.4867941,
          25.067913399999998
        ]
      },
      "properties" : {
        "name" : "素食早餐",
        "address" : "新北市三重區力行路一段87號"
      }
    },
    {
      "type" : "Feature",
      "geometry" : {
        "type" : "Point",
        "coordinates" : [
          121.46787999999999,
          25.020114
        ]
      },
      "properties" : {
        "name" : "野夫咖啡",
        "address" : "新北市板橋區介壽街28號"
      }
    },
    {
      "type" : "Feature",
      "geometry" : {
        "type" : "Point",
        "coordinates" : [
          121.498267,
          25.066759999999999
        ]
      },
      "properties" : {
        "name" : "歡喜心素食",
        "address" : "新北市三重區文化北路132巷5號"
      }
    },
    {
      "type" : "Feature",
      "geometry" : {
        "type" : "Point",
        "coordinates" : [
          121.45480499999999,
          25.006188999999999
        ]
      },
      "properties" : {
        "name" : "拉哥杏鮑菇燒",
        "address" : "新北市板橋區南雅東路16號"
      }
    },
    {
      "type" : "Feature",
      "geometry" : {
        "type" : "Point",
        "coordinates" : [
          121.448849,
          25.047640000000001
        ]
      },
      "properties" : {
        "name" : "魯素義式滷味",
        "address" : "新北市新莊區中誠街138號"
      }
    },
    {
      "type" : "Feature",
      "geometry" : {
        "type" : "Point",
        "coordinates" : [
          121.44513000000001,
          25.038162
        ]
      },
      "properties" : {
        "name" : "香香蔬香水餃\/特製紅燒麵",
        "address" : "新北市新莊區公園一路117號"
      }
    },
    {
      "type" : "Feature",
      "geometry" : {
        "type" : "Point",
        "coordinates" : [
          121.458994,
          25.083569000000001
        ]
      },
      "properties" : {
        "name" : "路邊攤",
        "address" : "新北市蘆洲區長安街178號"
      }
    },
    {
      "type" : "Feature",
      "geometry" : {
        "type" : "Point",
        "coordinates" : [
          121.44956000000001,
          25.045178
        ]
      },
      "properties" : {
        "name" : "麵面俱到",
        "address" : "新北市新莊區中港一街85號"
      }
    },
    {
      "type" : "Feature",
      "geometry" : {
        "type" : "Point",
        "coordinates" : [
          121.46420500000001,
          24.994022000000001
        ]
      },
      "properties" : {
        "name" : "九六素食坊",
        "address" : "新北市板橋區五權街10號"
      }
    },
    {
      "type" : "Feature",
      "geometry" : {
        "type" : "Point",
        "coordinates" : [
          121.45493999999999,
          25.0504
        ]
      },
      "properties" : {
        "name" : "速素看蔬果雜糧屋",
        "address" : "新北市新莊區昌隆街58巷1弄1號"
      }
    },
    {
      "type" : "Feature",
      "geometry" : {
        "type" : "Point",
        "coordinates" : [
          121.508163,
          24.998369
        ]
      },
      "properties" : {
        "name" : "健康素食",
        "address" : "新北市中和區保健路19巷1號"
      }
    },
    {
      "type" : "Feature",
      "geometry" : {
        "type" : "Point",
        "coordinates" : [
          121.542742,
          24.881031
        ]
      },
      "properties" : {
        "name" : "方格斯-手作·比薩·飲品",
        "address" : "新北市烏來區新烏路五段33號"
      }
    },
    {
      "type" : "Feature",
      "geometry" : {
        "type" : "Point",
        "coordinates" : [
          121.367335,
          24.936382999999999
        ]
      },
      "properties" : {
        "name" : "路邊攤煎餃煎包",
        "address" : "新北市三峽區大勇路27號"
      }
    },
    {
      "type" : "Feature",
      "geometry" : {
        "type" : "Point",
        "coordinates" : [
          121.449004,
          25.002977999999999
        ]
      },
      "properties" : {
        "name" : "澎澎素食養生餐飲",
        "address" : "新北市板橋區大觀路二段19巷77號"
      }
    },
    {
      "type" : "Feature",
      "geometry" : {
        "type" : "Point",
        "coordinates" : [
          121.43706400000001,
          24.964648
        ]
      },
      "properties" : {
        "name" : "天然素食自助餐",
        "address" : "新北市土城區承天路10-4號"
      }
    },
    {
      "type" : "Feature",
      "geometry" : {
        "type" : "Point",
        "coordinates" : [
          121.45147900000001,
          24.984701000000001
        ]
      },
      "properties" : {
        "name" : "明德素食",
        "address" : "新北市土城區學府路一段248號"
      }
    },
    {
      "type" : "Feature",
      "geometry" : {
        "type" : "Point",
        "coordinates" : [
          121.5010486,
          24.975345000000001
        ]
      },
      "properties" : {
        "name" : "山間倉房蔬食養生創意料理",
        "address" : "新北市中和區興南路二段399巷124號"
      }
    },
    {
      "type" : "Feature",
      "geometry" : {
        "type" : "Point",
        "coordinates" : [
          121.403519,
          25.016705999999999
        ]
      },
      "properties" : {
        "name" : "彌陀素食",
        "address" : "新北市樹林區龍興街13巷15號"
      }
    },
    {
      "type" : "Feature",
      "geometry" : {
        "type" : "Point",
        "coordinates" : [
          121.50003049999999,
          25.067908599999999
        ]
      },
      "properties" : {
        "name" : "素食油飯",
        "address" : "新北市三重區中央北路183-1號"
      }
    },
    {
      "type" : "Feature",
      "geometry" : {
        "type" : "Point",
        "coordinates" : [
          121.440597,
          24.974571999999998
        ]
      },
      "properties" : {
        "name" : "慈善素食",
        "address" : "新北市土城區中央路二段278巷6-1號"
      }
    },
    {
      "type" : "Feature",
      "geometry" : {
        "type" : "Point",
        "coordinates" : [
          121.42597000000001,
          24.991019999999999
        ]
      },
      "properties" : {
        "name" : "台北館前路葉媽媽蔬菜蛋餅",
        "address" : "新北市樹林區博愛一街33號"
      }
    },
    {
      "type" : "Feature",
      "geometry" : {
        "type" : "Point",
        "coordinates" : [
          121.46548799999999,
          25.044885000000001
        ]
      },
      "properties" : {
        "name" : "生機素食早餐",
        "address" : "新北市新莊區化成路146號"
      }
    },
    {
      "type" : "Feature",
      "geometry" : {
        "type" : "Point",
        "coordinates" : [
          121.447546,
          25.169464000000001
        ]
      },
      "properties" : {
        "name" : "天地蔬菜素食",
        "address" : "新北市淡水區學府路51巷1弄2號"
      }
    },
    {
      "type" : "Feature",
      "geometry" : {
        "type" : "Point",
        "coordinates" : [
          121.5395369,
          24.961845799999999
        ]
      },
      "properties" : {
        "name" : "淨光素食小吃",
        "address" : "新北市新店區光明街164號"
      }
    },
    {
      "type" : "Feature",
      "geometry" : {
        "type" : "Point",
        "coordinates" : [
          121.475578,
          25.016953999999998
        ]
      },
      "properties" : {
        "name" : "黑水堂素食",
        "address" : "新北市板橋區成功路8號"
      }
    },
    {
      "type" : "Feature",
      "geometry" : {
        "type" : "Point",
        "coordinates" : [
          121.5076461,
          25.0078365
        ]
      },
      "properties" : {
        "name" : "翰林茶館",
        "address" : "新北市永和區中山路一段238號"
      }
    },
    {
      "type" : "Feature",
      "geometry" : {
        "type" : "Point",
        "coordinates" : [
          121.42355999999999,
          25.022227000000001
        ]
      },
      "properties" : {
        "name" : "健康素食",
        "address" : "新北市新莊區四維路131巷20號"
      }
    },
    {
      "type" : "Feature",
      "geometry" : {
        "type" : "Point",
        "coordinates" : [
          121.447819,
          25.170059999999999
        ]
      },
      "properties" : {
        "name" : "沐心蔬食",
        "address" : "新北市淡水區學府路51巷2弄15號"
      }
    },
    {
      "type" : "Feature",
      "geometry" : {
        "type" : "Point",
        "coordinates" : [
          121.37297599999999,
          24.931567000000001
        ]
      },
      "properties" : {
        "name" : "光明素食小吃",
        "address" : "新北市三峽區中華路40-1號"
      }
    },
    {
      "type" : "Feature",
      "geometry" : {
        "type" : "Point",
        "coordinates" : [
          121.51754800000001,
          24.993279000000001
        ]
      },
      "properties" : {
        "name" : "味加料素食水煎包",
        "address" : "新北市中和區大仁街19巷4號"
      }
    },
    {
      "type" : "Feature",
      "geometry" : {
        "type" : "Point",
        "coordinates" : [
          121.42856879999999,
          24.964086399999999
        ]
      },
      "properties" : {
        "name" : "素食小吃",
        "address" : "新北市土城區中央路三段231號"
      }
    },
    {
      "type" : "Feature",
      "geometry" : {
        "type" : "Point",
        "coordinates" : [
          121.536613,
          24.975155000000001
        ]
      },
      "properties" : {
        "name" : "紫色蓮花素食園",
        "address" : "新北市新店區中正路340號"
      }
    },
    {
      "type" : "Feature",
      "geometry" : {
        "type" : "Point",
        "coordinates" : [
          121.41909440000001,
          25.026989400000001
        ]
      },
      "properties" : {
        "name" : "瑞冠素食便當外送",
        "address" : "新北市新莊區中正路871巷9弄16號"
      }
    },
    {
      "type" : "Feature",
      "geometry" : {
        "type" : "Point",
        "coordinates" : [
          121.50622,
          25.005341999999999
        ]
      },
      "properties" : {
        "name" : "豆花",
        "address" : "新北市中和區中山路二段3巷20號"
      }
    },
    {
      "type" : "Feature",
      "geometry" : {
        "type" : "Point",
        "coordinates" : [
          121.46139599999999,
          25.028905000000002
        ]
      },
      "properties" : {
        "name" : "懷恩素食麵館",
        "address" : "新北市板橋區裕民街56巷2號"
      }
    },
    {
      "type" : "Feature",
      "geometry" : {
        "type" : "Point",
        "coordinates" : [
          121.4716585,
          24.989856100000001
        ]
      },
      "properties" : {
        "name" : "陳記素食蚵仔煎",
        "address" : "新北市土城區延吉街253巷口"
      }
    },
    {
      "type" : "Feature",
      "geometry" : {
        "type" : "Point",
        "coordinates" : [
          121.452225,
          25.047751999999999
        ]
      },
      "properties" : {
        "name" : "1+1素食",
        "address" : "新北市新莊區中港路425號"
      }
    },
    {
      "type" : "Feature",
      "geometry" : {
        "type" : "Point",
        "coordinates" : [
          121.364752,
          24.936513999999999
        ]
      },
      "properties" : {
        "name" : "蔬園素食餐廳",
        "address" : "新北市板橋區中山路160-9號"
      }
    },
    {
      "type" : "Feature",
      "geometry" : {
        "type" : "Point",
        "coordinates" : [
          121.466765,
          25.084461999999998
        ]
      },
      "properties" : {
        "name" : "翌品齋",
        "address" : "新北市蘆洲區中正路185巷25弄1號"
      }
    },
    {
      "type" : "Feature",
      "geometry" : {
        "type" : "Point",
        "coordinates" : [
          121.5182554,
          25.000341500000001
        ]
      },
      "properties" : {
        "name" : "蓮心圓素食",
        "address" : "新北市永和區得和路105號"
      }
    },
    {
      "type" : "Feature",
      "geometry" : {
        "type" : "Point",
        "coordinates" : [
          121.6494142,
          25.0819337
        ]
      },
      "properties" : {
        "name" : "棗慧素食",
        "address" : "新北市汐止區汐萬路二段53號"
      }
    },
    {
      "type" : "Feature",
      "geometry" : {
        "type" : "Point",
        "coordinates" : [
          121.4680228,
          25.0753357
        ]
      },
      "properties" : {
        "name" : "真善美",
        "address" : "新北市五股區四維路142巷1號"
      }
    },
    {
      "type" : "Feature",
      "geometry" : {
        "type" : "Point",
        "coordinates" : [
          121.46530370000001,
          25.0123356
        ]
      },
      "properties" : {
        "name" : "葡吉手工製作包子",
        "address" : "新北市板橋區縣民大道二段7號"
      }
    },
    {
      "type" : "Feature",
      "geometry" : {
        "type" : "Point",
        "coordinates" : [
          121.490559,
          25.083863000000001
        ]
      },
      "properties" : {
        "name" : "清心素食自助餐館",
        "address" : "新北市三重區碧華街295號"
      }
    },
    {
      "type" : "Feature",
      "geometry" : {
        "type" : "Point",
        "coordinates" : [
          121.42550199999999,
          25.021485999999999
        ]
      },
      "properties" : {
        "name" : "美素園早午餐",
        "address" : "新北市新莊區成功街8號"
      }
    },
    {
      "type" : "Feature",
      "geometry" : {
        "type" : "Point",
        "coordinates" : [
          121.480204,
          25.018789999999999
        ]
      },
      "properties" : {
        "name" : "清香素食館",
        "address" : "新北市板橋區中山路二段318巷9號"
      }
    },
    {
      "type" : "Feature",
      "geometry" : {
        "type" : "Point",
        "coordinates" : [
          121.48336,
          25.003727000000001
        ]
      },
      "properties" : {
        "name" : "波羅蜜素食館",
        "address" : "新北市中和區新生街27-1號"
      }
    },
    {
      "type" : "Feature",
      "geometry" : {
        "type" : "Point",
        "coordinates" : [
          121.446228,
          25.034051999999999
        ]
      },
      "properties" : {
        "name" : "Casa Buena Cafe",
        "address" : "新北市新莊區中正路377巷10號"
      }
    },
    {
      "type" : "Feature",
      "geometry" : {
        "type" : "Point",
        "coordinates" : [
          121.418761,
          25.025095
        ]
      },
      "properties" : {
        "name" : "金龍素食超市",
        "address" : "新北市新莊區裕民街38號"
      }
    },
    {
      "type" : "Feature",
      "geometry" : {
        "type" : "Point",
        "coordinates" : [
          121.4491989,
          25.034947500000001
        ]
      },
      "properties" : {
        "name" : "里仁慈心食品有機蔬果",
        "address" : "新北市新莊區新泰路68號"
      }
    },
    {
      "type" : "Feature",
      "geometry" : {
        "type" : "Point",
        "coordinates" : [
          121.37397919999999,
          24.946683400000001
        ]
      },
      "properties" : {
        "name" : "大觀素苑",
        "address" : "新北市三峽區大觀路102號"
      }
    },
    {
      "type" : "Feature",
      "geometry" : {
        "type" : "Point",
        "coordinates" : [
          121.47388100000001,
          25.082764000000001
        ]
      },
      "properties" : {
        "name" : "阿金素食",
        "address" : "新北市蘆洲區中央路20巷6號"
      }
    },
    {
      "type" : "Feature",
      "geometry" : {
        "type" : "Point",
        "coordinates" : [
          121.467012,
          24.998539000000001
        ]
      },
      "properties" : {
        "name" : "松林齋素食餐館",
        "address" : "新北市中和區華順街37號"
      }
    },
    {
      "type" : "Feature",
      "geometry" : {
        "type" : "Point",
        "coordinates" : [
          121.6377174,
          25.222289199999999
        ]
      },
      "properties" : {
        "name" : "可口美食總匯",
        "address" : "新北市金山區金包里街105號"
      }
    },
    {
      "type" : "Feature",
      "geometry" : {
        "type" : "Point",
        "coordinates" : [
          121.7022992,
          24.936789000000001
        ]
      },
      "properties" : {
        "name" : "大頭素食",
        "address" : "新北市坪林區水柳腳路169號"
      }
    },
    {
      "type" : "Feature",
      "geometry" : {
        "type" : "Point",
        "coordinates" : [
          121.54395100000001,
          24.969764000000001
        ]
      },
      "properties" : {
        "name" : "慈馨素料行",
        "address" : "新北市新店區中正路65巷5號"
      }
    },
    {
      "type" : "Feature",
      "geometry" : {
        "type" : "Point",
        "coordinates" : [
          121.367822,
          24.935347
        ]
      },
      "properties" : {
        "name" : "良耕健康蔬食",
        "address" : "新北市三峽區三峽拱橋邊"
      }
    },
    {
      "type" : "Feature",
      "geometry" : {
        "type" : "Point",
        "coordinates" : [
          121.44902190000001,
          25.177654700000001
        ]
      },
      "properties" : {
        "name" : "大學城素食",
        "address" : "新北市淡水區北新路182巷19號"
      }
    },
    {
      "type" : "Feature",
      "geometry" : {
        "type" : "Point",
        "coordinates" : [
          121.456384,
          25.019570999999999
        ]
      },
      "properties" : {
        "name" : "吳師姐素粽",
        "address" : "新北市板橋區金華街10巷12弄12號"
      }
    },
    {
      "type" : "Feature",
      "geometry" : {
        "type" : "Point",
        "coordinates" : [
          121.458438,
          25.000499000000001
        ]
      },
      "properties" : {
        "name" : "廣結緣健康素食",
        "address" : "新北市板橋區四川路一段304號"
      }
    },
    {
      "type" : "Feature",
      "geometry" : {
        "type" : "Point",
        "coordinates" : [
          121.36254409999999,
          24.937170399999999
        ]
      },
      "properties" : {
        "name" : "推車早餐店",
        "address" : "新北市三峽區中山路249號"
      }
    },
    {
      "type" : "Feature",
      "geometry" : {
        "type" : "Point",
        "coordinates" : [
          121.4779046,
          25.0321043
        ]
      },
      "properties" : {
        "name" : "謝家素食",
        "address" : "新北市板橋區懷德街79號"
      }
    },
    {
      "type" : "Feature",
      "geometry" : {
        "type" : "Point",
        "coordinates" : [
          121.427083,
          25.012187000000001
        ]
      },
      "properties" : {
        "name" : "中西式素食早餐店",
        "address" : "新北市新莊區西盛街422號"
      }
    },
    {
      "type" : "Feature",
      "geometry" : {
        "type" : "Point",
        "coordinates" : [
          121.475004,
          25.078977999999999
        ]
      },
      "properties" : {
        "name" : "彌勒素餐自助餐",
        "address" : "新北市蘆洲區民生街24號"
      }
    },
    {
      "type" : "Feature",
      "geometry" : {
        "type" : "Point",
        "coordinates" : [
          121.35198200000001,
          24.954948000000002
        ]
      },
      "properties" : {
        "name" : "綠元素蔬食早午餐",
        "address" : "新北市鶯歌區光復街2號"
      }
    },
    {
      "type" : "Feature",
      "geometry" : {
        "type" : "Point",
        "coordinates" : [
          121.659773,
          24.990803
        ]
      },
      "properties" : {
        "name" : "婆依 Stella's Cafe",
        "address" : "新北市石碇區石碇東街87號"
      }
    },
    {
      "type" : "Feature",
      "geometry" : {
        "type" : "Point",
        "coordinates" : [
          121.4618452,
          25.0831199
        ]
      },
      "properties" : {
        "name" : "草綠舍",
        "address" : "新北市蘆洲區中原路5巷19號"
      }
    },
    {
      "type" : "Feature",
      "geometry" : {
        "type" : "Point",
        "coordinates" : [
          121.466086,
          24.986015999999999
        ]
      },
      "properties" : {
        "name" : "蔬福素食便當",
        "address" : "新北市土城區明峰街33號"
      }
    },
    {
      "type" : "Feature",
      "geometry" : {
        "type" : "Point",
        "coordinates" : [
          121.48200199999999,
          24.996966
        ]
      },
      "properties" : {
        "name" : "素食水煎包",
        "address" : "新北市中和區員山路148巷24號"
      }
    },
    {
      "type" : "Feature",
      "geometry" : {
        "type" : "Point",
        "coordinates" : [
          121.515247,
          25.006900000000002
        ]
      },
      "properties" : {
        "name" : "大眾健康素食",
        "address" : "新北市永和區成功南路1號"
      }
    },
    {
      "type" : "Feature",
      "geometry" : {
        "type" : "Point",
        "coordinates" : [
          121.46437899999999,
          25.007683
        ]
      },
      "properties" : {
        "name" : "展苑素菜餐廳",
        "address" : "新北市板橋區館前東路152號"
      }
    },
    {
      "type" : "Feature",
      "geometry" : {
        "type" : "Point",
        "coordinates" : [
          121.4579203,
          25.052817999999998
        ]
      },
      "properties" : {
        "name" : "素食早餐--巨林美而美",
        "address" : "新北市新莊區福壽街141號"
      }
    },
    {
      "type" : "Feature",
      "geometry" : {
        "type" : "Point",
        "coordinates" : [
          121.41840070000001,
          25.0170244
        ]
      },
      "properties" : {
        "name" : "素食",
        "address" : "新北市樹林區俊興街282號"
      }
    },
    {
      "type" : "Feature",
      "geometry" : {
        "type" : "Point",
        "coordinates" : [
          121.49980069999999,
          25.063083800000001
        ]
      },
      "properties" : {
        "name" : "吉仔麵線",
        "address" : "新北市三重區文化北路2號"
      }
    },
    {
      "type" : "Feature",
      "geometry" : {
        "type" : "Point",
        "coordinates" : [
          121.44627560000001,
          25.041996300000001
        ]
      },
      "properties" : {
        "name" : "Ma Na Ru 麻辣蔬食滷味",
        "address" : "新北市新莊區復興路一段29號"
      }
    },
    {
      "type" : "Feature",
      "geometry" : {
        "type" : "Point",
        "coordinates" : [
          121.425223,
          24.991016999999999
        ]
      },
      "properties" : {
        "name" : "素食早點",
        "address" : "新北市樹林區博愛一街10號"
      }
    },
    {
      "type" : "Feature",
      "geometry" : {
        "type" : "Point",
        "coordinates" : [
          121.49190129999999,
          25.065068100000001
        ]
      },
      "properties" : {
        "name" : "米樂蔬食早午餐",
        "address" : "新北市三重區重陽路三段5巷38號"
      }
    },
    {
      "type" : "Feature",
      "geometry" : {
        "type" : "Point",
        "coordinates" : [
          121.4285646,
          25.019741799999998
        ]
      },
      "properties" : {
        "name" : "天祐素食小吃",
        "address" : "新北市新莊區民本街27巷內"
      }
    },
    {
      "type" : "Feature",
      "geometry" : {
        "type" : "Point",
        "coordinates" : [
          121.448252,
          25.043202999999998
        ]
      },
      "properties" : {
        "name" : "好素齋",
        "address" : "新北市新莊區泰順街82號"
      }
    },
    {
      "type" : "Feature",
      "geometry" : {
        "type" : "Point",
        "coordinates" : [
          121.375097,
          24.927188000000001
        ]
      },
      "properties" : {
        "name" : "金牛角麵包坊",
        "address" : "新北市三峽區大同路79號"
      }
    },
    {
      "type" : "Feature",
      "geometry" : {
        "type" : "Point",
        "coordinates" : [
          121.4938367,
          24.991304299999999
        ]
      },
      "properties" : {
        "name" : "十方齋素食早餐",
        "address" : "新北市中和區圓通路252-4號"
      }
    },
    {
      "type" : "Feature",
      "geometry" : {
        "type" : "Point",
        "coordinates" : [
          121.460903,
          25.028013999999999
        ]
      },
      "properties" : {
        "name" : "素食",
        "address" : "新北市板橋區裕民街75巷2弄2號"
      }
    },
    {
      "type" : "Feature",
      "geometry" : {
        "type" : "Point",
        "coordinates" : [
          121.460373,
          25.028278
        ]
      },
      "properties" : {
        "name" : "素食",
        "address" : "新北市板橋區裕民街88號"
      }
    },
    {
      "type" : "Feature",
      "geometry" : {
        "type" : "Point",
        "coordinates" : [
          121.49542529999999,
          25.082169700000001
        ]
      },
      "properties" : {
        "name" : "如來素食",
        "address" : "新北市三重區自強路五段105號"
      }
    },
    {
      "type" : "Feature",
      "geometry" : {
        "type" : "Point",
        "coordinates" : [
          121.5357856,
          24.9790785
        ]
      },
      "properties" : {
        "name" : "美養莊園",
        "address" : "新北市新店區二十張路11巷1-1號"
      }
    },
    {
      "type" : "Feature",
      "geometry" : {
        "type" : "Point",
        "coordinates" : [
          121.514358,
          25.015272
        ]
      },
      "properties" : {
        "name" : "亞洲風味素食園",
        "address" : "新北市永和區文化路66號"
      }
    },
    {
      "type" : "Feature",
      "geometry" : {
        "type" : "Point",
        "coordinates" : [
          121.459193,
          25.066486999999999
        ]
      },
      "properties" : {
        "name" : "菩提素食商店",
        "address" : "新北市新莊區五工三路94巷32號"
      }
    },
    {
      "type" : "Feature",
      "geometry" : {
        "type" : "Point",
        "coordinates" : [
          121.433922,
          25.159527000000001
        ]
      },
      "properties" : {
        "name" : "政鴻雙胞胎",
        "address" : "新北市八里區渡船頭街21巷30號"
      }
    },
    {
      "type" : "Feature",
      "geometry" : {
        "type" : "Point",
        "coordinates" : [
          121.42659070000001,
          24.993457200000002
        ]
      },
      "properties" : {
        "name" : "阿蘭素食",
        "address" : "新北市樹林區保安街一段79號"
      }
    },
    {
      "type" : "Feature",
      "geometry" : {
        "type" : "Point",
        "coordinates" : [
          121.537441,
          24.956865000000001
        ]
      },
      "properties" : {
        "name" : "素食",
        "address" : "新北市新店區文中路2號"
      }
    },
    {
      "type" : "Feature",
      "geometry" : {
        "type" : "Point",
        "coordinates" : [
          121.47244600000001,
          25.081976000000001
        ]
      },
      "properties" : {
        "name" : "蘆洲成功素食",
        "address" : "新北市蘆洲區成功路115號"
      }
    },
    {
      "type" : "Feature",
      "geometry" : {
        "type" : "Point",
        "coordinates" : [
          121.51308299999999,
          24.988987000000002
        ]
      },
      "properties" : {
        "name" : "綠食代健康養生素食",
        "address" : "新北市中和區景新街435號"
      }
    },
    {
      "type" : "Feature",
      "geometry" : {
        "type" : "Point",
        "coordinates" : [
          121.435924,
          24.958397000000001
        ]
      },
      "properties" : {
        "name" : "善齋素食材料",
        "address" : "新北市土城區永和街79-7號"
      }
    },
    {
      "type" : "Feature",
      "geometry" : {
        "type" : "Point",
        "coordinates" : [
          121.467861,
          25.089193000000002
        ]
      },
      "properties" : {
        "name" : "彌勒素食",
        "address" : "新北市蘆洲區民族路544號"
      }
    },
    {
      "type" : "Feature",
      "geometry" : {
        "type" : "Point",
        "coordinates" : [
          121.4995553,
          25.069577200000001
        ]
      },
      "properties" : {
        "name" : "耕心素食湧泉坊",
        "address" : "新北市三重區萬全街15號"
      }
    },
    {
      "type" : "Feature",
      "geometry" : {
        "type" : "Point",
        "coordinates" : [
          121.65639,
          25.062854999999999
        ]
      },
      "properties" : {
        "name" : "觀音緣素食",
        "address" : "新北市汐止區水源路一段121號"
      }
    },
    {
      "type" : "Feature",
      "geometry" : {
        "type" : "Point",
        "coordinates" : [
          121.46186,
          25.020510000000002
        ]
      },
      "properties" : {
        "name" : "幸福市場素咖哩飯小吃",
        "address" : "新北市板橋區幸福路22號"
      }
    },
    {
      "type" : "Feature",
      "geometry" : {
        "type" : "Point",
        "coordinates" : [
          121.48342599999999,
          25.059076999999998
        ]
      },
      "properties" : {
        "name" : "小吃攤",
        "address" : "新北市三重區三陽路125號"
      }
    },
    {
      "type" : "Feature",
      "geometry" : {
        "type" : "Point",
        "coordinates" : [
          121.51461999999999,
          25.012162
        ]
      },
      "properties" : {
        "name" : "嵐迪義大利麵館",
        "address" : "新北市永和區信義路10-1號"
      }
    },
    {
      "type" : "Feature",
      "geometry" : {
        "type" : "Point",
        "coordinates" : [
          121.41877100000001,
          25.026578000000001
        ]
      },
      "properties" : {
        "name" : "原味食素坊",
        "address" : "新北市新莊區富國路19巷2號"
      }
    },
    {
      "type" : "Feature",
      "geometry" : {
        "type" : "Point",
        "coordinates" : [
          121.496163,
          25.058814399999999
        ]
      },
      "properties" : {
        "name" : "養生素食",
        "address" : "新北市三重區大同南路97號"
      }
    },
    {
      "type" : "Feature",
      "geometry" : {
        "type" : "Point",
        "coordinates" : [
          121.392903,
          25.077362000000001
        ]
      },
      "properties" : {
        "name" : "觀音素食",
        "address" : "新北市林口區中正路142號"
      }
    },
    {
      "type" : "Feature",
      "geometry" : {
        "type" : "Point",
        "coordinates" : [
          121.48340399999999,
          24.997776999999999
        ]
      },
      "properties" : {
        "name" : "素食蚵仔煎",
        "address" : "新北市中和區新生街242巷1弄1號"
      }
    },
    {
      "type" : "Feature",
      "geometry" : {
        "type" : "Point",
        "coordinates" : [
          121.37515,
          24.944389999999999
        ]
      },
      "properties" : {
        "name" : "艾媽媽養生廚房",
        "address" : "新北市三峽區大觀路31號"
      }
    },
    {
      "type" : "Feature",
      "geometry" : {
        "type" : "Point",
        "coordinates" : [
          121.519976,
          24.996403999999998
        ]
      },
      "properties" : {
        "name" : "蔡媽媽養生素食",
        "address" : "新北市永和區民族街81巷58號"
      }
    },
    {
      "type" : "Feature",
      "geometry" : {
        "type" : "Point",
        "coordinates" : [
          121.366241,
          25.068048000000001
        ]
      },
      "properties" : {
        "name" : "蔬味佳素食",
        "address" : "新北市林口區文化二路一段68巷12-2號"
      }
    },
    {
      "type" : "Feature",
      "geometry" : {
        "type" : "Point",
        "coordinates" : [
          121.480664,
          25.068462
        ]
      },
      "properties" : {
        "name" : "如睦素食館",
        "address" : "新北市三重區中正北路276巷1號"
      }
    },
    {
      "type" : "Feature",
      "geometry" : {
        "type" : "Point",
        "coordinates" : [
          121.4801487,
          25.067437399999999
        ]
      },
      "properties" : {
        "name" : "滷滷米素食滷味",
        "address" : "新北市三重區三民街237號"
      }
    },
    {
      "type" : "Feature",
      "geometry" : {
        "type" : "Point",
        "coordinates" : [
          121.625372,
          25.061705799999999
        ]
      },
      "properties" : {
        "name" : "新素代素食便當",
        "address" : "新北市汐止區福德一路392巷37弄29號"
      }
    },
    {
      "type" : "Feature",
      "geometry" : {
        "type" : "Point",
        "coordinates" : [
          121.479612,
          25.086114999999999
        ]
      },
      "properties" : {
        "name" : "幸福駅",
        "address" : "新北市蘆洲區民族路154號"
      }
    },
    {
      "type" : "Feature",
      "geometry" : {
        "type" : "Point",
        "coordinates" : [
          121.4904763,
          25.058876099999999
        ]
      },
      "properties" : {
        "name" : "菜根香素食",
        "address" : "新北市三重區重新路三段188號"
      }
    },
    {
      "type" : "Feature",
      "geometry" : {
        "type" : "Point",
        "coordinates" : [
          121.59821530000001,
          25.0046152
        ]
      },
      "properties" : {
        "name" : "合記素食自助餐",
        "address" : "新北市深坑區北深路三段297號"
      }
    },
    {
      "type" : "Feature",
      "geometry" : {
        "type" : "Point",
        "coordinates" : [
          121.42797400000001,
          25.016497999999999
        ]
      },
      "properties" : {
        "name" : "上頂皇家水煎包",
        "address" : "新北市新莊區西盛街228號"
      }
    },
    {
      "type" : "Feature",
      "geometry" : {
        "type" : "Point",
        "coordinates" : [
          121.492966,
          25.066949999999999
        ]
      },
      "properties" : {
        "name" : "弘林素食",
        "address" : "新北市三重區大智街116號"
      }
    },
    {
      "type" : "Feature",
      "geometry" : {
        "type" : "Point",
        "coordinates" : [
          121.539891,
          24.971857
        ]
      },
      "properties" : {
        "name" : "宣德素食",
        "address" : "新北市新店區中正路189巷16弄11號"
      }
    },
    {
      "type" : "Feature",
      "geometry" : {
        "type" : "Point",
        "coordinates" : [
          121.4663274,
          25.0214383
        ]
      },
      "properties" : {
        "name" : "阿耀臭豆腐",
        "address" : "新北市板橋區陽明街23巷1號"
      }
    },
    {
      "type" : "Feature",
      "geometry" : {
        "type" : "Point",
        "coordinates" : [
          121.450985,
          25.102958999999998
        ]
      },
      "properties" : {
        "name" : "香緣素食",
        "address" : "新北市五股區成泰路三段577巷39號"
      }
    },
    {
      "type" : "Feature",
      "geometry" : {
        "type" : "Point",
        "coordinates" : [
          121.517214,
          24.997979999999998
        ]
      },
      "properties" : {
        "name" : "皇家蔬食學園",
        "address" : "新北市永和區智光街53號"
      }
    },
    {
      "type" : "Feature",
      "geometry" : {
        "type" : "Point",
        "coordinates" : [
          121.46486830000001,
          25.025607300000001
        ]
      },
      "properties" : {
        "name" : "慈光緣素食坊",
        "address" : "新北市板橋區四維路151號"
      }
    },
    {
      "type" : "Feature",
      "geometry" : {
        "type" : "Point",
        "coordinates" : [
          121.457734,
          24.988292000000001
        ]
      },
      "properties" : {
        "name" : "素膳坊",
        "address" : "新北市土城區學府路一段41號"
      }
    },
    {
      "type" : "Feature",
      "geometry" : {
        "type" : "Point",
        "coordinates" : [
          121.427584,
          24.993856999999998
        ]
      },
      "properties" : {
        "name" : "阿蘭素食",
        "address" : "新北市樹林區保安街一段20巷9號"
      }
    },
    {
      "type" : "Feature",
      "geometry" : {
        "type" : "Point",
        "coordinates" : [
          121.47906,
          25.031428999999999
        ]
      },
      "properties" : {
        "name" : "素食早點",
        "address" : "新北市板橋區民治街103號"
      }
    },
    {
      "type" : "Feature",
      "geometry" : {
        "type" : "Point",
        "coordinates" : [
          121.448055,
          25.045262999999998
        ]
      },
      "properties" : {
        "name" : "腐玉飄香",
        "address" : "新北市新莊區中港一街138號"
      }
    },
    {
      "type" : "Feature",
      "geometry" : {
        "type" : "Point",
        "coordinates" : [
          121.370119,
          24.934069000000001
        ]
      },
      "properties" : {
        "name" : "香草蔬菜餅",
        "address" : "新北市三峽區民權街33號"
      }
    },
    {
      "type" : "Feature",
      "geometry" : {
        "type" : "Point",
        "coordinates" : [
          121.488963,
          24.996067
        ]
      },
      "properties" : {
        "name" : "蔬園趣味素食",
        "address" : "新北市中和區連城路323號"
      }
    },
    {
      "type" : "Feature",
      "geometry" : {
        "type" : "Point",
        "coordinates" : [
          121.372561,
          24.934764999999999
        ]
      },
      "properties" : {
        "name" : "三峽素食店",
        "address" : "新北市三峽區民生街165號"
      }
    },
    {
      "type" : "Feature",
      "geometry" : {
        "type" : "Point",
        "coordinates" : [
          121.347976,
          24.954011999999999
        ]
      },
      "properties" : {
        "name" : "阿琴姨素食",
        "address" : "新北市鶯歌區南雅路400號"
      }
    },
    {
      "type" : "Feature",
      "geometry" : {
        "type" : "Point",
        "coordinates" : [
          121.66165100000001,
          25.069151999999999
        ]
      },
      "properties" : {
        "name" : "大熊蔬食Pizza",
        "address" : "新北市汐止區大同路二段527號"
      }
    },
    {
      "type" : "Feature",
      "geometry" : {
        "type" : "Point",
        "coordinates" : [
          121.40874169999999,
          25.016961299999998
        ]
      },
      "properties" : {
        "name" : "素食攤",
        "address" : "新北市樹林區三福街16號"
      }
    },
    {
      "type" : "Feature",
      "geometry" : {
        "type" : "Point",
        "coordinates" : [
          121.662825,
          25.067042000000001
        ]
      },
      "properties" : {
        "name" : "隨喜素食",
        "address" : "新北市汐止區新台五路二段41巷21號"
      }
    },
    {
      "type" : "Feature",
      "geometry" : {
        "type" : "Point",
        "coordinates" : [
          121.434577,
          24.965188999999999
        ]
      },
      "properties" : {
        "name" : "素味香早餐店",
        "address" : "新北市土城區永和街3號"
      }
    },
    {
      "type" : "Feature",
      "geometry" : {
        "type" : "Point",
        "coordinates" : [
          121.42308,
          25.022763000000001
        ]
      },
      "properties" : {
        "name" : "素食攤",
        "address" : "新北市新莊區四維路127號"
      }
    },
    {
      "type" : "Feature",
      "geometry" : {
        "type" : "Point",
        "coordinates" : [
          121.49296699999999,
          25.080715999999999
        ]
      },
      "properties" : {
        "name" : "元美素食",
        "address" : "新北市三重區自強路五段19號"
      }
    },
    {
      "type" : "Feature",
      "geometry" : {
        "type" : "Point",
        "coordinates" : [
          121.45634,
          25.045314999999999
        ]
      },
      "properties" : {
        "name" : "自然食哉早午餐麵包坊",
        "address" : "新北市新莊區自立街188號"
      }
    },
    {
      "type" : "Feature",
      "geometry" : {
        "type" : "Point",
        "coordinates" : [
          121.3882447,
          24.954493200000002
        ]
      },
      "properties" : {
        "name" : "佳園素食",
        "address" : "新北市樹林區佳園路三段23號"
      }
    },
    {
      "type" : "Feature",
      "geometry" : {
        "type" : "Point",
        "coordinates" : [
          121.47642399999999,
          25.071117000000001
        ]
      },
      "properties" : {
        "name" : "百禮陽",
        "address" : "新北市三重區中正北路193巷35弄14號"
      }
    },
    {
      "type" : "Feature",
      "geometry" : {
        "type" : "Point",
        "coordinates" : [
          121.469427,
          25.083154
        ]
      },
      "properties" : {
        "name" : "鈺見",
        "address" : "新北市蘆洲區光華路25號"
      }
    },
    {
      "type" : "Feature",
      "geometry" : {
        "type" : "Point",
        "coordinates" : [
          121.4347272,
          25.158535499999999
        ]
      },
      "properties" : {
        "name" : "素食大溪滷味",
        "address" : "新北市八里區渡船頭街15號"
      }
    },
    {
      "type" : "Feature",
      "geometry" : {
        "type" : "Point",
        "coordinates" : [
          121.37185599999999,
          24.935648
        ]
      },
      "properties" : {
        "name" : "仁道素食",
        "address" : "新北市三峽區文化路65巷7號"
      }
    },
    {
      "type" : "Feature",
      "geometry" : {
        "type" : "Point",
        "coordinates" : [
          121.412614,
          25.00563
        ]
      },
      "properties" : {
        "name" : "吉發素餅",
        "address" : "新北市樹林區保安街二段275-1號"
      }
    },
    {
      "type" : "Feature",
      "geometry" : {
        "type" : "Point",
        "coordinates" : [
          121.512856,
          24.998702999999999
        ]
      },
      "properties" : {
        "name" : "晶彩素食料理館",
        "address" : "新北市中和區安平路170號"
      }
    },
    {
      "type" : "Feature",
      "geometry" : {
        "type" : "Point",
        "coordinates" : [
          121.375302,
          24.936814999999999
        ]
      },
      "properties" : {
        "name" : "怡心園素食餐廳",
        "address" : "新北市三峽區國光街27號"
      }
    },
    {
      "type" : "Feature",
      "geometry" : {
        "type" : "Point",
        "coordinates" : [
          121.427713,
          24.993358000000001
        ]
      },
      "properties" : {
        "name" : "阿蜜利多有機園",
        "address" : "新北市樹林區保安街一段18-2號"
      }
    },
    {
      "type" : "Feature",
      "geometry" : {
        "type" : "Point",
        "coordinates" : [
          121.425815,
          24.991009999999999
        ]
      },
      "properties" : {
        "name" : "三禾緣",
        "address" : "新北市樹林區博愛一街31號"
      }
    },
    {
      "type" : "Feature",
      "geometry" : {
        "type" : "Point",
        "coordinates" : [
          121.46530370000001,
          25.0123356
        ]
      },
      "properties" : {
        "name" : "世發素食舖",
        "address" : "新北市板橋區南興街20號"
      }
    },
    {
      "type" : "Feature",
      "geometry" : {
        "type" : "Point",
        "coordinates" : [
          121.467355,
          25.046631000000001
        ]
      },
      "properties" : {
        "name" : "忙裡偷閒小站",
        "address" : "新北市三重區重新路五段609巷16-4號"
      }
    },
    {
      "type" : "Feature",
      "geometry" : {
        "type" : "Point",
        "coordinates" : [
          121.4589716,
          24.972205200000001
        ]
      },
      "properties" : {
        "name" : "淘喜地素食養生烘培",
        "address" : "新北市土城區青雲路561號"
      }
    },
    {
      "type" : "Feature",
      "geometry" : {
        "type" : "Point",
        "coordinates" : [
          121.48336,
          25.000603000000002
        ]
      },
      "properties" : {
        "name" : "廣緣素食店",
        "address" : "新北市中和區新生街148巷3號"
      }
    },
    {
      "type" : "Feature",
      "geometry" : {
        "type" : "Point",
        "coordinates" : [
          121.433307,
          25.059659
        ]
      },
      "properties" : {
        "name" : "養生素食店",
        "address" : "新北市泰山區福泰街24巷2弄1號"
      }
    },
    {
      "type" : "Feature",
      "geometry" : {
        "type" : "Point",
        "coordinates" : [
          121.38308000000001,
          24.946127000000001
        ]
      },
      "properties" : {
        "name" : "禾和蔬食",
        "address" : "新北市樹林區學成路718號"
      }
    },
    {
      "type" : "Feature",
      "geometry" : {
        "type" : "Point",
        "coordinates" : [
          121.4724799,
          25.006777100000001
        ]
      },
      "properties" : {
        "name" : "里仁",
        "address" : "新北市中和區漢民路423號"
      }
    },
    {
      "type" : "Feature",
      "geometry" : {
        "type" : "Point",
        "coordinates" : [
          121.54416000000001,
          24.970303000000001
        ]
      },
      "properties" : {
        "name" : "養心齋素食",
        "address" : "新北市新店區中正路68號"
      }
    },
    {
      "type" : "Feature",
      "geometry" : {
        "type" : "Point",
        "coordinates" : [
          121.4696689,
          24.9865192
        ]
      },
      "properties" : {
        "name" : "弘德素料行",
        "address" : "新北市土城區峰廷街35號"
      }
    },
    {
      "type" : "Feature",
      "geometry" : {
        "type" : "Point",
        "coordinates" : [
          121.4605901,
          25.004651599999999
        ]
      },
      "properties" : {
        "name" : "歡喜素食館",
        "address" : "新北市板橋區成都街14號"
      }
    },
    {
      "type" : "Feature",
      "geometry" : {
        "type" : "Point",
        "coordinates" : [
          121.490769,
          25.052198000000001
        ]
      },
      "properties" : {
        "name" : "素食小吃店",
        "address" : "新北市三重區成功路41巷40號"
      }
    },
    {
      "type" : "Feature",
      "geometry" : {
        "type" : "Point",
        "coordinates" : [
          121.54410799999999,
          24.970827
        ]
      },
      "properties" : {
        "name" : "不一樣臭豆腐",
        "address" : "新北市新店區中正路76巷5弄2-1號"
      }
    },
    {
      "type" : "Feature",
      "geometry" : {
        "type" : "Point",
        "coordinates" : [
          121.44522600000001,
          25.170362000000001
        ]
      },
      "properties" : {
        "name" : "素食麵",
        "address" : "新北市淡水區清水街11號"
      }
    },
    {
      "type" : "Feature",
      "geometry" : {
        "type" : "Point",
        "coordinates" : [
          121.483216,
          24.997945000000001
        ]
      },
      "properties" : {
        "name" : "圓素小吃",
        "address" : "新北市中和區新生街220巷1弄12號"
      }
    },
    {
      "type" : "Feature",
      "geometry" : {
        "type" : "Point",
        "coordinates" : [
          121.66323250000001,
          25.0673557
        ]
      },
      "properties" : {
        "name" : "天恩素食",
        "address" : "新北市汐止區南昌街28號"
      }
    },
    {
      "type" : "Feature",
      "geometry" : {
        "type" : "Point",
        "coordinates" : [
          121.421516,
          24.989021000000001
        ]
      },
      "properties" : {
        "name" : "中都素食館",
        "address" : "新北市樹林區育英街25號"
      }
    },
    {
      "type" : "Feature",
      "geometry" : {
        "type" : "Point",
        "coordinates" : [
          121.470365,
          25.053107300000001
        ]
      },
      "properties" : {
        "name" : "素饌",
        "address" : "新北市三重區興德路129號"
      }
    },
    {
      "type" : "Feature",
      "geometry" : {
        "type" : "Point",
        "coordinates" : [
          121.4332941,
          24.993344
        ]
      },
      "properties" : {
        "name" : "素食早餐店",
        "address" : "新北市板橋區金門街與存德街丁字路口"
      }
    },
    {
      "type" : "Feature",
      "geometry" : {
        "type" : "Point",
        "coordinates" : [
          121.35238099999999,
          24.953289999999999
        ]
      },
      "properties" : {
        "name" : "鶯歌小吃攤",
        "address" : "新北市鶯歌區中正一路62巷27號"
      }
    },
    {
      "type" : "Feature",
      "geometry" : {
        "type" : "Point",
        "coordinates" : [
          121.810282,
          25.108789000000002
        ]
      },
      "properties" : {
        "name" : "阿美素食",
        "address" : "新北市瑞芳區瑞芳第一市場內側40攤位"
      }
    },
    {
      "type" : "Feature",
      "geometry" : {
        "type" : "Point",
        "coordinates" : [
          121.459913,
          25.002405
        ]
      },
      "properties" : {
        "name" : "彌勒素食早餐",
        "address" : "新北市板橋區光明街4號"
      }
    },
    {
      "type" : "Feature",
      "geometry" : {
        "type" : "Point",
        "coordinates" : [
          121.6324872,
          25.064769200000001
        ]
      },
      "properties" : {
        "name" : "大環境有機蔬果專賣店",
        "address" : "新北市汐止區中興路152-號"
      }
    },
    {
      "type" : "Feature",
      "geometry" : {
        "type" : "Point",
        "coordinates" : [
          121.422938,
          24.989388999999999
        ]
      },
      "properties" : {
        "name" : "十方苑養生御膳",
        "address" : "新北市樹林區中山路一段137巷14號"
      }
    },
    {
      "type" : "Feature",
      "geometry" : {
        "type" : "Point",
        "coordinates" : [
          121.4924333,
          25.064213200000001
        ]
      },