{
  "type" : "FeatureCollection",
  "areaCode" : 880,
  "features" : [
    {
      "id" : "42A37FDC-5ED9-40BB-A045-161FEE32B81C",
      "properties" : {
        "name" : "澎湖煎餅",
        "address" : "澎湖縣馬公市民權路70-2號"
      },
      "type" : "Feature",
      "geometry" : {
        "type" : "Point",
        "coordinates" : [
          119.56774,
          23.565947999999999
        ]
      }
    },
    {
      "id" : "9CD266A0-E13E-4ADB-BCA3-4453F27C0920",
      "properties" : {
        "name" : "津旺素食店",
        "address" : "澎湖縣馬公市三民路46號"
      },
      "type" : "Feature",
      "geometry" : {
        "type" : "Point",
        "coordinates" : [
          119.568139,
          23.567401
        ]
      }
    },
    {
      "id" : "96D4E94D-C0DE-466B-8AAA-8FF0B756926B",
      "properties" : {
        "name" : "巧儷素食坊",
        "address" : "澎湖縣馬公市三多路353號"
      },
      "type" : "Feature",
      "geometry" : {
        "type" : "Point",
        "coordinates" : [
          119.572778,
          23.576955000000002
        ]
      }
    },
    {
      "id" : "E346BEE0-7BD9-4B5E-8FDF-FBAAAA663B6C",
      "properties" : {
        "name" : "素食炸春卷炸米糕",
        "address" : "澎湖縣馬公市民權路70號"
      },
      "type" : "Feature",
      "geometry" : {
        "type" : "Point",
        "coordinates" : [
          119.56774,
          23.565947999999999
        ]
      }
    },
    {
      "id" : "4537D3EA-5C2D-4643-9863-88DCF78E942C",
      "properties" : {
        "name" : "遇見‧秘境",
        "address" : "澎湖縣白沙鄉港子村1-6號"
      },
      "type" : "Feature",
      "geometry" : {
        "type" : "Point",
        "coordinates" : [
          119.59402300000001,
          23.648323999999999
        ]
      }
    },
    {
      "id" : "1A15C4E2-C25C-4A45-A093-9D3DAFA46A2D",
      "properties" : {
        "name" : "香廚素食",
        "address" : "澎湖縣馬公市文化路11號"
      },
      "type" : "Feature",
      "geometry" : {
        "type" : "Point",
        "coordinates" : [
          119.567302,
          23.567879000000001
        ]
      }
    },
    {
      "id" : "85A3908E-1B3D-4B15-8963-EE6AB1066418",
      "properties" : {
        "name" : "永達素食館",
        "address" : "澎湖縣馬公市新生路27號"
      },
      "type" : "Feature",
      "geometry" : {
        "type" : "Point",
        "coordinates" : [
          119.56868900000001,
          23.568090999999999
        ]
      }
    },
    {
      "id" : "38C18ACD-7FB9-4383-BBEB-F3DF3CD3A247",
      "properties" : {
        "name" : "蔬脆蛋餅",
        "address" : "澎湖縣馬公市光明路45號"
      },
      "type" : "Feature",
      "geometry" : {
        "type" : "Point",
        "coordinates" : [
          119.565124,
          23.566306999999998
        ]
      }
    },
    {
      "id" : "02A5C3E3-16B4-4BCE-8E2C-97340BBB9A1F",
      "properties" : {
        "name" : "澎湖海冰冰",
        "address" : "澎湖縣馬公市樹德路3號"
      },
      "type" : "Feature",
      "geometry" : {
        "type" : "Point",
        "coordinates" : [
          119.569244,
          23.568557999999999
        ]
      }
    },
    {
      "id" : "95930A68-338C-48E5-A298-4F6BBA05AE6D",
      "properties" : {
        "name" : "春天素食",
        "address" : "澎湖縣馬公市大仁街13號"
      },
      "type" : "Feature",
      "geometry" : {
        "type" : "Point",
        "coordinates" : [
          119.571979,
          23.571217999999998
        ]
      }
    },
    {
      "id" : "FF81AF2C-D181-4CFE-9B97-2D2EC4990E21",
      "properties" : {
        "name" : "喜結緣素食",
        "address" : "澎湖縣馬公市中華路49-3號"
      },
      "type" : "Feature",
      "geometry" : {
        "type" : "Point",
        "coordinates" : [
          119.569557,
          23.569344000000001
        ]
      }
    },
    {
      "id" : "71AAD8CC-E989-43F1-A7AF-A7D0A41FF80D",
      "properties" : {
        "name" : "明月堂麵包店",
        "address" : "澎湖縣馬公市縣府新村25號"
      },
      "type" : "Feature",
      "geometry" : {
        "type" : "Point",
        "coordinates" : [
          119.5666737,
          23.569914799999999
        ]
      }
    },
    {
      "id" : "126F35D3-A511-43B6-9790-6D93D0808299",
      "properties" : {
        "name" : "菜菜仔丸子燒",
        "address" : "澎湖縣馬公市光復路110號"
      },
      "type" : "Feature",
      "geometry" : {
        "type" : "Point",
        "coordinates" : [
          119.57156999999999,
          23.572627000000001
        ]
      }
    },
    {
      "id" : "E9727589-5505-4537-9FE1-4F97474BEAA7",
      "properties" : {
        "name" : "乾益堂藥膳蛋",
        "address" : "澎湖縣馬公市中央街42號"
      },
      "type" : "Feature",
      "geometry" : {
        "type" : "Point",
        "coordinates" : [
          119.564869,
          23.565132999999999
        ]
      }
    },
    {
      "id" : "E4ED5DAC-B85D-4843-B707-7018B72F348F",
      "properties" : {
        "name" : "夏至23.5攝影文創咖啡",
        "address" : "澎湖縣馬公市惠民路71號"
      },
      "type" : "Feature",
      "geometry" : {
        "type" : "Point",
        "coordinates" : [
          119.56449499999999,
          23.564826
        ]
      }
    },
    {
      "id" : "6C3A7E48-9172-4F05-A438-71D52547F5CA",
      "properties" : {
        "name" : "美英素食",
        "address" : "澎湖縣馬公市大智街30號"
      },
      "type" : "Feature",
      "geometry" : {
        "type" : "Point",
        "coordinates" : [
          119.57082800000001,
          23.571232999999999
        ]
      }
    },
    {
      "id" : "6CE834B0-07C5-4DE6-9B66-8647DD161709",
      "properties" : {
        "name" : "興德素食",
        "address" : "澎湖縣馬公市陽明路62號"
      },
      "type" : "Feature",
      "geometry" : {
        "type" : "Point",
        "coordinates" : [
          119.57225,
          23.573315999999998
        ]
      }
    },
    {
      "id" : "1A253CE6-5D2B-4DC3-9551-94F063B68E57",
      "properties" : {
        "name" : "長壽齋養生蔬食",
        "address" : "澎湖縣馬公市六合路41巷6號"
      },
      "type" : "Feature",
      "geometry" : {
        "type" : "Point",
        "coordinates" : [
          119.58051399999999,
          23.574079000000001
        ]
      }
    },
    {
      "id" : "CAD98370-A49B-4B01-9571-9916B7DD8045",
      "properties" : {
        "name" : "覺乙 蔬食坊",
        "address" : "澎湖縣馬公市朝陽路113號"
      },
      "type" : "Feature",
      "geometry" : {
        "type" : "Point",
        "coordinates" : [
          119.576464,
          23.573471000000001
        ]
      }
    },
    {
      "id" : "6A6B5B6D-984C-492E-8AA1-D94028F17A0D",
      "properties" : {
        "name" : "和慶光明企業社",
        "address" : "澎湖縣馬公市光復路273-2號"
      },
      "type" : "Feature",
      "geometry" : {
        "type" : "Point",
        "coordinates" : [
          119.574117,
          23.575192000000001
        ]
      }
    },
    {
      "id" : "FEAF0C06-738F-4234-81E2-3C7BBF59A899",
      "properties" : {
        "name" : "蔡記饡蔬食坊",
        "address" : "澎湖縣馬公市文昌街11號"
      },
      "type" : "Feature",
      "geometry" : {
        "type" : "Point",
        "coordinates" : [
          119.578952,
          23.573616000000001
        ]
      }
    },
    {
      "id" : "8C06AFEE-2438-406D-B757-3791FE57B99F",
      "properties" : {
        "name" : "家味健康素食",
        "address" : "澎湖縣馬公市中正路7巷2號"
      },
      "type" : "Feature",
      "geometry" : {
        "type" : "Point",
        "coordinates" : [
          119.56524,
          23.566153
        ]
      }
    },
    {
      "id" : "0E77C8CE-CBC2-4FB0-8B7A-24E726FAFA3F",
      "properties" : {
        "name" : "永興素食館",
        "address" : "澎湖縣馬公市大智街18巷20弄20號"
      },
      "type" : "Feature",
      "geometry" : {
        "type" : "Point",
        "coordinates" : [
          119.571966,
          23.570865999999999
        ]
      }
    },
    {
      "id" : "B9AC6F92-21BA-4421-9124-962CA95FD3BD",
      "properties" : {
        "name" : "萌 師傅 蔬食料理",
        "address" : "澎湖縣馬公市中華路29-3號"
      },
      "type" : "Feature",
      "geometry" : {
        "type" : "Point",
        "coordinates" : [
          119.568798,
          23.568560999999999
        ]
      }
    },
    {
      "id" : "12B19265-485B-4BF6-A915-3150094E845F",
      "properties" : {
        "name" : "張太太素食饅頭店",
        "address" : "澎湖縣馬公市朝陽路62號"
      },
      "type" : "Feature",
      "geometry" : {
        "type" : "Point",
        "coordinates" : [
          119.57791400000001,
          23.573340999999999
        ]
      }
    },
    {
      "id" : "4BA33CC1-357E-4CD1-9A78-17458BA30C82",
      "properties" : {
        "name" : "水巷茶弄",
        "address" : "澎湖縣馬公市海埔路28號"
      },
      "type" : "Feature",
      "geometry" : {
        "type" : "Point",
        "coordinates" : [
          119.57205039999999,
          23.568524199999999
        ]
      }
    },
    {
      "id" : "3AD2535E-D390-4C68-ABE3-C51DC69376BB",
      "properties" : {
        "name" : "愛家天堂島純素民宿",
        "address" : "澎湖縣湖西鄉成功村港底125號"
      },
      "type" : "Feature",
      "geometry" : {
        "type" : "Point",
        "coordinates" : [
          119.6210073,
          23.581078600000001
        ]
      }
    },
    {
      "id" : "5C3D0DC5-210E-40A0-B1E8-920501499C82",
      "properties" : {
        "name" : "Loving Hut",
        "address" : "澎湖縣馬公市三多路320號"
      },
      "type" : "Feature",
      "geometry" : {
        "type" : "Point",
        "coordinates" : [
          119.572232,
          23.577309
        ]
      }
    }
  ]
}