{
  "type" : "FeatureCollection",
  "areaCode" : 400,
  "features" : [
    {
      "id" : "D3E487E2-1AF9-44C7-BA6B-811703A60D17",
      "properties" : {
        "name" : "築夢",
        "address" : "台中市豐原區信義街169號"
      },
      "type" : "Feature",
      "geometry" : {
        "type" : "Point",
        "coordinates" : [
          120.718568,
          24.253198999999999
        ]
      }
    },
    {
      "id" : "DE53DEA5-A4A3-4D81-B9E1-8681CA90DD3F",
      "properties" : {
        "name" : "品心素食",
        "address" : "台中市潭子區潭子街二段94號"
      },
      "type" : "Feature",
      "geometry" : {
        "type" : "Point",
        "coordinates" : [
          120.707066,
          24.213197999999998
        ]
      }
    },
    {
      "id" : "CCF818AF-1D89-4F91-814F-8AAD0982AE38",
      "properties" : {
        "name" : "陶然左岸蔬食buffet",
        "address" : "台中市北屯區松竹路一段468-1號"
      },
      "type" : "Feature",
      "geometry" : {
        "type" : "Point",
        "coordinates" : [
          120.7134155,
          24.182541400000002
        ]
      }
    },
    {
      "id" : "2D0BA1BA-2A49-4E77-A6B6-594B9F0F43EF",
      "properties" : {
        "name" : "蔬食如意 Lucky Vegetrian",
        "address" : "台中市北屯區崇德十路一段407號"
      },
      "type" : "Feature",
      "geometry" : {
        "type" : "Point",
        "coordinates" : [
          120.68884,
          24.188117999999999
        ]
      }
    },
    {
      "id" : "3D7F5965-8837-4977-8B95-E9F8406F1791",
      "properties" : {
        "name" : "Veganday Cafe 瑪登布魯",
        "address" : "台中市西區民權路53巷3-1號"
      },
      "type" : "Feature",
      "geometry" : {
        "type" : "Point",
        "coordinates" : [
          120.680854,
          24.136534999999999
        ]
      }
    },
    {
      "id" : "C1CEB4E6-B99C-4E02-8369-0A2BCBEDDE57",
      "properties" : {
        "name" : "久安饅頭",
        "address" : "台中市南屯區黎明路一段1028號"
      },
      "type" : "Feature",
      "geometry" : {
        "type" : "Point",
        "coordinates" : [
          120.637958,
          24.138725999999998
        ]
      }
    },
    {
      "id" : "629255A6-5E47-465B-A9A3-A3FAA732A7BD",
      "properties" : {
        "name" : "不二心素食",
        "address" : "台中市南區合作街47號"
      },
      "type" : "Feature",
      "geometry" : {
        "type" : "Point",
        "coordinates" : [
          120.681963,
          24.128824999999999
        ]
      }
    },
    {
      "id" : "10784099-50EE-4378-AB8F-943C37693C3F",
      "properties" : {
        "name" : "楊老爹素食",
        "address" : "台中市西屯區永福路22巷28號"
      },
      "type" : "Feature",
      "geometry" : {
        "type" : "Point",
        "coordinates" : [
          120.638868,
          24.181218999999999
        ]
      }
    },
    {
      "id" : "F2412E68-AB98-461B-82B7-847EC01ACCAB",
      "properties" : {
        "name" : "天沁園素食",
        "address" : "台中市西屯區中工三路243號"
      },
      "type" : "Feature",
      "geometry" : {
        "type" : "Point",
        "coordinates" : [
          120.617683,
          24.175332000000001
        ]
      }
    },
    {
      "id" : "663C4E38-1743-4B10-AF0C-ED0CB87D02FC",
      "properties" : {
        "name" : "元合亞蔬食房",
        "address" : "台中市太平區永豐路9號"
      },
      "type" : "Feature",
      "geometry" : {
        "type" : "Point",
        "coordinates" : [
          120.71362999999999,
          24.124876
        ]
      }
    },
    {
      "id" : "DCCBFBA1-117C-4067-825D-AD7B56BCBE4E",
      "properties" : {
        "name" : "越南素食風味",
        "address" : "台中市北屯區進化北路8號"
      },
      "type" : "Feature",
      "geometry" : {
        "type" : "Point",
        "coordinates" : [
          120.690544,
          24.163207
        ]
      }
    },
    {
      "id" : "00DBBA8A-14C9-481F-AADF-8981100CE6ED",
      "properties" : {
        "name" : "東林青草行",
        "address" : "台中市豐原區成功路265號"
      },
      "type" : "Feature",
      "geometry" : {
        "type" : "Point",
        "coordinates" : [
          120.707351,
          24.246821000000001
        ]
      }
    },
    {
      "id" : "206A681B-D67B-4BC4-9268-726C2478BCE6",
      "properties" : {
        "name" : "原素小麵館",
        "address" : "台中市東區建德街92號"
      },
      "type" : "Feature",
      "geometry" : {
        "type" : "Point",
        "coordinates" : [
          120.687809,
          24.129397999999998
        ]
      }
    },
    {
      "id" : "6C978E38-A0B2-4FBB-9924-DB3CA8034CE6",
      "properties" : {
        "name" : "Veg Funky 填飽胃蔬食",
        "address" : "台中市南屯區南屯路二段426號"
      },
      "type" : "Feature",
      "geometry" : {
        "type" : "Point",
        "coordinates" : [
          120.644943,
          24.138066999999999
        ]
      }
    },
    {
      "id" : "FECD9210-B0DE-4F11-9525-440B3BDEAAB7",
      "properties" : {
        "name" : "澄心蔬食小館",
        "address" : "台中市南區工學路6-7號"
      },
      "type" : "Feature",
      "geometry" : {
        "type" : "Point",
        "coordinates" : [
          120.66805600000001,
          24.117025999999999
        ]
      }
    },
    {
      "id" : "DDA54728-C749-4246-BFA4-B91F8FEAF395",
      "properties" : {
        "name" : "大樹下 十方素食",
        "address" : "台中市北屯區四平路24號"
      },
      "type" : "Feature",
      "geometry" : {
        "type" : "Point",
        "coordinates" : [
          120.6701829,
          24.177658600000001
        ]
      }
    },
    {
      "id" : "C174F784-8C38-4802-B23B-AF222259D504",
      "properties" : {
        "name" : "一如我見",
        "address" : "台中市豐原區中正路307號"
      },
      "type" : "Feature",
      "geometry" : {
        "type" : "Point",
        "coordinates" : [
          120.71554399999999,
          24.251064
        ]
      }
    },
    {
      "id" : "32E4992F-2B7D-4A73-8AC9-523EC16FE8A8",
      "properties" : {
        "name" : "萬人素食館",
        "address" : "台中市西屯區青海路二段193巷6號"
      },
      "type" : "Feature",
      "geometry" : {
        "type" : "Point",
        "coordinates" : [
          120.645949,
          24.169295000000002
        ]
      }
    },
    {
      "id" : "13EF772C-FB7B-43DA-8F39-2C933169615C",
      "properties" : {
        "name" : "大光明健康養生蔬食館",
        "address" : "台中市西屯區黎明路三段6號"
      },
      "type" : "Feature",
      "geometry" : {
        "type" : "Point",
        "coordinates" : [
          120.636921,
          24.171303000000002
        ]
      }
    },
    {
      "id" : "5656AEE5-8314-486E-A819-6693488C67EE",
      "properties" : {
        "name" : "幸福小丸子",
        "address" : "台中市北區一中街145號"
      },
      "type" : "Feature",
      "geometry" : {
        "type" : "Point",
        "coordinates" : [
          120.685661,
          24.151157000000001
        ]
      }
    },
    {
      "id" : "658C6F7D-E388-45AA-ADA0-6D439E31FDDD",
      "properties" : {
        "name" : "老芋仔芋圓",
        "address" : "台中市北屯區東山路二段37號"
      },
      "type" : "Feature",
      "geometry" : {
        "type" : "Point",
        "coordinates" : [
          120.740193,
          24.179400999999999
        ]
      }
    },
    {
      "id" : "A3E6211C-FE8F-4F26-AA3E-7C9BC05B580A",
      "properties" : {
        "name" : "富吉健康素食",
        "address" : "台中市南屯區東興路二段6號"
      },
      "type" : "Feature",
      "geometry" : {
        "type" : "Point",
        "coordinates" : [
          120.653238,
          24.135998000000001
        ]
      }
    },
    {
      "id" : "C70A601D-807D-49B5-9C6A-068A07413E00",
      "properties" : {
        "name" : "Veges M 饗蔬職人",
        "address" : "台中市西屯區烈美街108號"
      },
      "type" : "Feature",
      "geometry" : {
        "type" : "Point",
        "coordinates" : [
          120.642562,
          24.179473000000002
        ]
      }
    },
    {
      "id" : "5C98130B-1C5A-49BE-90A7-738610C14A3C",
      "properties" : {
        "name" : "亮亮冰&Bling Bling",
        "address" : "台中市豐原區新生北路80號"
      },
      "type" : "Feature",
      "geometry" : {
        "type" : "Point",
        "coordinates" : [
          120.719641,
          24.252420999999998
        ]
      }
    },
    {
      "id" : "075F7902-349C-4A74-9C7B-8CDC84BD18C7",
      "properties" : {
        "name" : "素胃王蔬食關東煮、米糕",
        "address" : "台中市豐原區中正路167巷2號"
      },
      "type" : "Feature",
      "geometry" : {
        "type" : "Point",
        "coordinates" : [
          120.71918700000001,
          24.251465
        ]
      }
    },
    {
      "id" : "152A86B1-7A63-42E2-8978-68DFC4C019BA",
      "properties" : {
        "name" : "怡香健康素食館",
        "address" : "台中市西屯區中工三路126號"
      },
      "type" : "Feature",
      "geometry" : {
        "type" : "Point",
        "coordinates" : [
          120.61830399999999,
          24.178087000000001
        ]
      }
    },
    {
      "id" : "2BF03CB1-18ED-4A83-9676-5DE27202BB71",
      "properties" : {
        "name" : "紅品素炸屋",
        "address" : "台中市烏日區興祥街58號"
      },
      "type" : "Feature",
      "geometry" : {
        "type" : "Point",
        "coordinates" : [
          120.63852199999999,
          24.106857999999999
        ]
      }
    },
    {
      "id" : "DF58BD8A-D31D-493F-912D-AC6AD9C0E3D4",
      "properties" : {
        "name" : "圓明素食",
        "address" : "台中市潭子區潭興路二段426號"
      },
      "type" : "Feature",
      "geometry" : {
        "type" : "Point",
        "coordinates" : [
          120.70848599999999,
          24.210846
        ]
      }
    },
    {
      "id" : "AF672641-88ED-4341-8726-F59C2170A4D9",
      "properties" : {
        "name" : "易素緣",
        "address" : "台中市南區台中路40號"
      },
      "type" : "Feature",
      "geometry" : {
        "type" : "Point",
        "coordinates" : [
          120.68265100000001,
          24.134708
        ]
      }
    },
    {
      "id" : "73068FC2-0854-4F0A-B2DF-2CBB021F2969",
      "properties" : {
        "name" : "UGE呷飯店",
        "address" : "台中市沙鹿區文昌街133號"
      },
      "type" : "Feature",
      "geometry" : {
        "type" : "Point",
        "coordinates" : [
          120.562192,
          24.239736000000001
        ]
      }
    },
    {
      "id" : "07E9D091-4C63-43C1-B60F-6F4D4381DA92",
      "properties" : {
        "name" : "給足麵子創意素食",
        "address" : "台中市西屯區台灣大道四段850號"
      },
      "type" : "Feature",
      "geometry" : {
        "type" : "Point",
        "coordinates" : [
          120.61944200000001,
          24.181372
        ]
      }
    },
    {
      "id" : "2C8D7803-3042-49E0-8588-CE82E2977833",
      "properties" : {
        "name" : "華陀素食",
        "address" : "台中市北屯區太原路三段135號"
      },
      "type" : "Feature",
      "geometry" : {
        "type" : "Point",
        "coordinates" : [
          120.68971999999999,
          24.165061000000001
        ]
      }
    },
    {
      "id" : "87F13913-1BA8-402A-A3FC-32CC065D27D9",
      "properties" : {
        "name" : "弘翎蔬食屋",
        "address" : "台中市大里區永興路146號"
      },
      "type" : "Feature",
      "geometry" : {
        "type" : "Point",
        "coordinates" : [
          120.68217300000001,
          24.109527
        ]
      }
    },
    {
      "id" : "4EEC8A28-885E-4761-A0B8-D80FAF36084A",
      "properties" : {
        "name" : "寬心齋素食",
        "address" : "台中市西區中美街187號"
      },
      "type" : "Feature",
      "geometry" : {
        "type" : "Point",
        "coordinates" : [
          120.660077,
          24.147161000000001
        ]
      }
    },
    {
      "id" : "423C53D3-18BE-4D0E-AA67-5819CC7D7AE5",
      "properties" : {
        "name" : "朱家蔬食",
        "address" : "台中市北屯區安順東九街71號"
      },
      "type" : "Feature",
      "geometry" : {
        "type" : "Point",
        "coordinates" : [
          120.691036,
          24.175125000000001
        ]
      }
    },
    {
      "id" : "BE67A283-B5E8-4AFE-8CFE-F0A718041EF5",
      "properties" : {
        "name" : "紅磚餐廳",
        "address" : "台中市中區繼光街75號"
      },
      "type" : "Feature",
      "geometry" : {
        "type" : "Point",
        "coordinates" : [
          120.68246600000001,
          24.139167
        ]
      }
    },
    {
      "id" : "4EF6A860-1DC7-48B6-8A91-414699EC0D93",
      "properties" : {
        "name" : "素食",
        "address" : "台中市大里區美群路26號"
      },
      "type" : "Feature",
      "geometry" : {
        "type" : "Point",
        "coordinates" : [
          120.70838500000001,
          24.086093000000002
        ]
      }
    },
    {
      "id" : "6670D64D-F946-4590-84DE-A76A9213F077",
      "properties" : {
        "name" : "和馨素食",
        "address" : "台中市北區梅亭街42-1號"
      },
      "type" : "Feature",
      "geometry" : {
        "type" : "Point",
        "coordinates" : [
          120.690056,
          24.160264000000002
        ]
      }
    },
    {
      "id" : "C9937F33-3509-4B35-8A50-BC49BCD32C33",
      "properties" : {
        "name" : "麒麟素食小館",
        "address" : "台中市北屯區四平路50號"
      },
      "type" : "Feature",
      "geometry" : {
        "type" : "Point",
        "coordinates" : [
          120.6711377,
          24.178828899999999
        ]
      }
    },
    {
      "id" : "CD2D5EEC-A48F-4DAD-B950-2FBA9D13EA38",
      "properties" : {
        "name" : "初一素蔬食自助餐館",
        "address" : "台中市南屯區向上路三段55號"
      },
      "type" : "Feature",
      "geometry" : {
        "type" : "Point",
        "coordinates" : [
          120.63520699999999,
          24.146256999999999
        ]
      }
    },
    {
      "id" : "9B868DC0-BCC9-4893-AC6D-5A8463C315F0",
      "properties" : {
        "name" : "嫻幸福素食",
        "address" : "台中市豐原區三豐路一段158號"
      },
      "type" : "Feature",
      "geometry" : {
        "type" : "Point",
        "coordinates" : [
          120.72109399999999,
          24.258516
        ]
      }
    },
    {
      "id" : "08FD9C9C-82CF-43FD-BB66-C233B2B1C827",
      "properties" : {
        "name" : "美德素食麵包",
        "address" : "台中市南區五權南路318-1"
      },
      "type" : "Feature",
      "geometry" : {
        "type" : "Point",
        "coordinates" : [
          120.67024600000001,
          24.1221
        ]
      }
    },
    {
      "id" : "A5A36887-58DF-409E-AD16-94221107DFBD",
      "properties" : {
        "name" : "里仁SUN面健康蔬食餐廳",
        "address" : "台中市西屯區台灣大道二段659號"
      },
      "type" : "Feature",
      "geometry" : {
        "type" : "Point",
        "coordinates" : [
          120.656379,
          24.158452
        ]
      }
    },
    {
      "id" : "2E11CB67-024D-46A5-8910-5223B621F161",
      "properties" : {
        "name" : "禮來居手打烏龍麵",
        "address" : "台中市西屯區福林路10號"
      },
      "type" : "Feature",
      "geometry" : {
        "type" : "Point",
        "coordinates" : [
          120.61435299999999,
          24.184211000000001
        ]
      }
    },
    {
      "id" : "84DDF2EC-534B-493D-BD74-A2C11F46F555",
      "properties" : {
        "name" : "野菜豐蔬食",
        "address" : "台中市北區大德街82巷1號"
      },
      "type" : "Feature",
      "geometry" : {
        "type" : "Point",
        "coordinates" : [
          120.678865,
          24.158670999999998
        ]
      }
    },
    {
      "id" : "4592D751-7AD4-4238-945C-B20DA4EF3EB1",
      "properties" : {
        "name" : "吉祥素食",
        "address" : "台中市南屯區南屯路二段101號"
      },
      "type" : "Feature",
      "geometry" : {
        "type" : "Point",
        "coordinates" : [
          120.652359,
          24.135731
        ]
      }
    },
    {
      "id" : "5669F96C-14A8-4F42-BF24-5FC845840A61",
      "properties" : {
        "name" : "柒晌。我的菜",
        "address" : "台中市南屯區文心南五路一段323-15號"
      },
      "type" : "Feature",
      "geometry" : {
        "type" : "Point",
        "coordinates" : [
          120.644336,
          24.131883999999999
        ]
      }
    },
    {
      "id" : "81725576-329B-46B8-B19A-7477BB34E03B",
      "properties" : {
        "name" : "素食大麵羹",
        "address" : "台中市中區市府路75-3號"
      },
      "type" : "Feature",
      "geometry" : {
        "type" : "Point",
        "coordinates" : [
          120.67944439999999,
          24.143978199999999
        ]
      }
    },
    {
      "id" : "14F3DECD-617A-4A7F-9FD3-E302BDCC7CDE",
      "properties" : {
        "name" : "秋町菇菇燒",
        "address" : "台中市西屯區文華路2-8號"
      },
      "type" : "Feature",
      "geometry" : {
        "type" : "Point",
        "coordinates" : [
          120.6447204,
          24.1748127
        ]
      }
    },
    {
      "id" : "C6823986-C929-4313-ABDB-9C3A4DB5E60C",
      "properties" : {
        "name" : "聖譁素料行",
        "address" : "台中市西屯區文心路三段512號"
      },
      "type" : "Feature",
      "geometry" : {
        "type" : "Point",
        "coordinates" : [
          120.66545000000001,
          24.172525
        ]
      }
    },
    {
      "id" : "F3B37462-4A2E-431A-86C2-7A4E04DB0EDC",
      "properties" : {
        "name" : "樂水坊健康蔬食",
        "address" : "台中市北區國強街84號"
      },
      "type" : "Feature",
      "geometry" : {
        "type" : "Point",
        "coordinates" : [
          120.6975218,
          24.158563300000001
        ]
      }
    },
    {
      "id" : "B26336FF-F977-44D2-B6D9-02AECF9967C5",
      "properties" : {
        "name" : "雲淡風清義式蔬食館",
        "address" : "台中市豐原區信義街5號"
      },
      "type" : "Feature",
      "geometry" : {
        "type" : "Point",
        "coordinates" : [
          120.718728,
          24.248384000000001
        ]
      }
    },
    {
      "id" : "517F2731-2CE1-4337-9964-F64D88D9EFCD",
      "properties" : {
        "name" : "維吉堡veggie burger 蔬食漢堡",
        "address" : "台中市南屯區嶺東路74號"
      },
      "type" : "Feature",
      "geometry" : {
        "type" : "Point",
        "coordinates" : [
          120.60996299999999,
          24.139969000000001
        ]
      }
    },
    {
      "id" : "F4D4F9E6-28B5-48B6-B0C7-9BB26020F579",
      "properties" : {
        "name" : "峰鈺素食材行",
        "address" : "台中市大里區鐵路街432號"
      },
      "type" : "Feature",
      "geometry" : {
        "type" : "Point",
        "coordinates" : [
          120.6986761,
          24.122839599999999
        ]
      }
    },
    {
      "id" : "566E3622-E745-4985-B5B1-1F2C7B94A65D",
      "properties" : {
        "name" : "雙慧素食",
        "address" : "台中市南屯區南屯路二段760號"
      },
      "type" : "Feature",
      "geometry" : {
        "type" : "Point",
        "coordinates" : [
          120.638189,
          24.140089
        ]
      }
    },
    {
      "id" : "E247E3C6-C0C5-4B12-A075-0A4B5D1BA3B0",
      "properties" : {
        "name" : "菩提香蔬食館",
        "address" : "台中市太平區永平路一段79號"
      },
      "type" : "Feature",
      "geometry" : {
        "type" : "Point",
        "coordinates" : [
          120.717799,
          24.131475999999999
        ]
      }
    },
    {
      "id" : "023BC937-9EC4-4052-922B-051A62FBD627",
      "properties" : {
        "name" : "劉媽媽素食",
        "address" : "台中市豐原區仁愛街24號"
      },
      "type" : "Feature",
      "geometry" : {
        "type" : "Point",
        "coordinates" : [
          120.717737,
          24.252824
        ]
      }
    },
    {
      "id" : "3D6DBEFA-77F0-4668-9345-7B073AAD1AF8",
      "properties" : {
        "name" : "素食之家",
        "address" : "台中市南屯區文昌街146號"
      },
      "type" : "Feature",
      "geometry" : {
        "type" : "Point",
        "coordinates" : [
          120.638086,
          24.138121999999999
        ]
      }
    },
    {
      "id" : "21FC7577-102A-4E92-A519-6F2F9E38F40A",
      "properties" : {
        "name" : "廣駿素食自助餐",
        "address" : "台中市西屯區西屯路三段151-11號"
      },
      "type" : "Feature",
      "geometry" : {
        "type" : "Point",
        "coordinates" : [
          120.62257700000001,
          24.185841
        ]
      }
    },
    {
      "id" : "7A8133F6-7256-401F-8304-4719A3D3D419",
      "properties" : {
        "name" : "謙吉蔬食生活館",
        "address" : "台中市西屯區福順路352號"
      },
      "type" : "Feature",
      "geometry" : {
        "type" : "Point",
        "coordinates" : [
          120.617401,
          24.184014999999999
        ]
      }
    },
    {
      "id" : "C04627D0-4B68-4C50-A26A-29DAF06A95B3",
      "properties" : {
        "name" : "四季安然早蔬食",
        "address" : "台中市南區國光路216-1號"
      },
      "type" : "Feature",
      "geometry" : {
        "type" : "Point",
        "coordinates" : [
          120.67906499999999,
          24.125893000000001
        ]
      }
    },
    {
      "id" : "97AFE4C4-2571-46EB-8729-A07B0C81CAB4",
      "properties" : {
        "name" : "甘丹豆花",
        "address" : "台中市豐原區西勢路137號"
      },
      "type" : "Feature",
      "geometry" : {
        "type" : "Point",
        "coordinates" : [
          120.708243,
          24.244810000000001
        ]
      }
    },
    {
      "id" : "A943392D-E26E-4BE1-B0DA-93A008917D90",
      "properties" : {
        "name" : "鎮金素食雜貨材料",
        "address" : "台中市北區湖北街122號"
      },
      "type" : "Feature",
      "geometry" : {
        "type" : "Point",
        "coordinates" : [
          120.6788762,
          24.151061599999998
        ]
      }
    },
    {
      "id" : "38D9EB39-B915-4AED-B852-5ABD32A32D7C",
      "properties" : {
        "name" : "億蔬館",
        "address" : "台中市梧棲區四維東路149巷12號"
      },
      "type" : "Feature",
      "geometry" : {
        "type" : "Point",
        "coordinates" : [
          120.538645,
          24.261036000000001
        ]
      }
    },
    {
      "id" : "5D9E1460-C1AB-439D-863D-813687DDB7EC",
      "properties" : {
        "name" : "淨光素食館",
        "address" : "台中市豐原區中陽路632號"
      },
      "type" : "Feature",
      "geometry" : {
        "type" : "Point",
        "coordinates" : [
          120.73647130000001,
          24.251241499999999
        ]
      }
    },
    {
      "id" : "04521D61-698C-437D-8799-B2BC4AF09B30",
      "properties" : {
        "name" : "福慧軒",
        "address" : "台中市北區興進路198號"
      },
      "type" : "Feature",
      "geometry" : {
        "type" : "Point",
        "coordinates" : [
          120.6922964,
          24.156084700000001
        ]
      }
    },
    {
      "id" : "680FE3ED-C8D5-4F43-9526-CEF17CA6188A",
      "properties" : {
        "name" : "忠義素食",
        "address" : "台中市北屯區熱河路三段206號"
      },
      "type" : "Feature",
      "geometry" : {
        "type" : "Point",
        "coordinates" : [
          120.687732,
          24.181487000000001
        ]
      }
    },
    {
      "id" : "44A67790-4B63-424F-8DF9-A82E68FB533B",
      "properties" : {
        "name" : "食瑜伽私房料理",
        "address" : "台中市北區中清路ㄧ段100號"
      },
      "type" : "Feature",
      "geometry" : {
        "type" : "Point",
        "coordinates" : [
          120.6822408,
          24.166121700000001
        ]
      }
    },
    {
      "id" : "B5543ABD-AFF1-40D5-BB96-C2826643257C",
      "properties" : {
        "name" : "長壽素食",
        "address" : "台中市豐原區中興路11號"
      },
      "type" : "Feature",
      "geometry" : {
        "type" : "Point",
        "coordinates" : [
          120.71080600000001,
          24.244757
        ]
      }
    },
    {
      "id" : "879BBD6D-5AD7-41B9-8817-A3242D495B85",
      "properties" : {
        "name" : "素食麵",
        "address" : "台中市北區成功路414號"
      },
      "type" : "Feature",
      "geometry" : {
        "type" : "Point",
        "coordinates" : [
          120.676804,
          24.14639
        ]
      }
    },
    {
      "id" : "649F17CD-B4B1-4617-A84A-60F1FD3A4550",
      "properties" : {
        "name" : "美味樓健康素食",
        "address" : "台中市大雅區永和路136-11號"
      },
      "type" : "Feature",
      "geometry" : {
        "type" : "Point",
        "coordinates" : [
          120.644655,
          24.221391000000001
        ]
      }
    },
    {
      "id" : "0E9A2609-F2B5-4509-8F55-6AF677CE2905",
      "properties" : {
        "name" : "清心好素館",
        "address" : "台中市霧峰區福新路280號"
      },
      "type" : "Feature",
      "geometry" : {
        "type" : "Point",
        "coordinates" : [
          120.68402399999999,
          24.050912
        ]
      }
    },
    {
      "id" : "E214C756-1E85-460F-90E0-90A62C7AC1BD",
      "properties" : {
        "name" : "逢甲黃金卡啦薯",
        "address" : "台中市西屯區慶和街101號"
      },
      "type" : "Feature",
      "geometry" : {
        "type" : "Point",
        "coordinates" : [
          120.64640900000001,
          24.175894
        ]
      }
    },
    {
      "id" : "0E1967E7-355C-4DE5-A733-BC6C6981C001",
      "properties" : {
        "name" : "醍醐素食早午餐",
        "address" : "台中市西屯區櫻花路77號"
      },
      "type" : "Feature",
      "geometry" : {
        "type" : "Point",
        "coordinates" : [
          120.65160400000001,
          24.170159000000002
        ]
      }
    },
    {
      "id" : "2EC104B8-0E00-416D-89D2-BC34B229DD3C",
      "properties" : {
        "name" : "蓮蓁素食",
        "address" : "台中市北屯區松竹路二段133號"
      },
      "type" : "Feature",
      "geometry" : {
        "type" : "Point",
        "coordinates" : [
          120.69662599999999,
          24.183088999999999
        ]
      }
    },
    {
      "id" : "C44716DC-9652-4600-91EC-98F8F7DB5F33",
      "properties" : {
        "name" : "天慈素食",
        "address" : "台中市太平區宜佳街16號"
      },
      "type" : "Feature",
      "geometry" : {
        "type" : "Point",
        "coordinates" : [
          120.714012,
          24.140125000000001
        ]
      }
    },
    {
      "id" : "8903BA8F-17D8-464F-9803-246E8B0F2EDC",
      "properties" : {
        "name" : "易素館",
        "address" : "台中市太平區樹孝路296號"
      },
      "type" : "Feature",
      "geometry" : {
        "type" : "Point",
        "coordinates" : [
          120.718788,
          24.154153000000001
        ]
      }
    },
    {
      "id" : "F91B1FEB-5EC5-45F2-BAD0-A30E18D7EB68",
      "properties" : {
        "name" : "幸福素食滷味",
        "address" : "台中市沙鹿區中山路378巷11號"
      },
      "type" : "Feature",
      "geometry" : {
        "type" : "Point",
        "coordinates" : [
          120.561683,
          24.241593000000002
        ]
      }
    },
    {
      "id" : "7C06E03A-1212-4B8B-9D31-016A879EB370",
      "properties" : {
        "name" : "養素庭迴轉火車蔬食火鍋",
        "address" : "台中市北屯區崇德路二段208號"
      },
      "type" : "Feature",
      "geometry" : {
        "type" : "Point",
        "coordinates" : [
          120.68581399999999,
          24.173808000000001
        ]
      }
    },
    {
      "id" : "8B83D1A5-9F80-4BB7-A48E-F3B513B151E2",
      "properties" : {
        "name" : "珍好素食館",
        "address" : "台中市西區福龍街65號"
      },
      "type" : "Feature",
      "geometry" : {
        "type" : "Point",
        "coordinates" : [
          120.673568,
          24.146867
        ]
      }
    },
    {
      "id" : "22C29784-42E3-4981-992E-98F037BA3CF4",
      "properties" : {
        "name" : "布袋藝棧",
        "address" : "台中市南屯區五權西路二段957號"
      },
      "type" : "Feature",
      "geometry" : {
        "type" : "Point",
        "coordinates" : [
          120.6328972,
          24.144956000000001
        ]
      }
    },
    {
      "id" : "CF7EE2D9-1EF9-42E7-A252-A2C5B9736FD5",
      "properties" : {
        "name" : "蔬愿 蔬食早午餐● 杏鮑菇炸物",
        "address" : "台中市梧棲區文昌路391號"
      },
      "type" : "Feature",
      "geometry" : {
        "type" : "Point",
        "coordinates" : [
          120.5409073,
          24.244123999999999
        ]
      }
    },
    {
      "id" : "55C78C80-FA62-4CC8-A21C-BA51DA16F6E8",
      "properties" : {
        "name" : "豐盛食堂 健康養生素食",
        "address" : "台中市豐原區西勢路207號"
      },
      "type" : "Feature",
      "geometry" : {
        "type" : "Point",
        "coordinates" : [
          120.706906,
          24.243638000000001
        ]
      }
    },
    {
      "id" : "85768AF2-956D-4873-A704-C5263CE60CF1",
      "properties" : {
        "name" : "心鮮素食",
        "address" : "台中市西屯區中工三路204號"
      },
      "type" : "Feature",
      "geometry" : {
        "type" : "Point",
        "coordinates" : [
          120.617616,
          24.176044999999998
        ]
      }
    },
    {
      "id" : "70775C51-9EB5-4572-A9EE-74566E95D552",
      "properties" : {
        "name" : "現代素食",
        "address" : "台中市西區台中港路一段283巷5-2號"
      },
      "type" : "Feature",
      "geometry" : {
        "type" : "Point",
        "coordinates" : [
          120.66168399999999,
          24.140104000000001
        ]
      }
    },
    {
      "id" : "2FCE5BB0-048A-4768-89A7-EF7D15893C4B",
      "properties" : {
        "name" : "菁祥蔬菇膳房",
        "address" : "台中市西屯區福順路321號"
      },
      "type" : "Feature",
      "geometry" : {
        "type" : "Point",
        "coordinates" : [
          120.61788900000001,
          24.183471000000001
        ]
      }
    },
    {
      "id" : "94687758-896B-44FA-B2FF-033E0429569B",
      "properties" : {
        "name" : "阿姨素食炒麵",
        "address" : "台中市北區文祥街25號"
      },
      "type" : "Feature",
      "geometry" : {
        "type" : "Point",
        "coordinates" : [
          120.680252,
          24.149874000000001
        ]
      }
    },
    {
      "id" : "6960BE41-E215-4B5B-81D5-AB13BB089185",
      "properties" : {
        "name" : "樂膳自然‧無毒蔬食超市",
        "address" : "台中市北屯區東山路一段348號"
      },
      "type" : "Feature",
      "geometry" : {
        "type" : "Point",
        "coordinates" : [
          120.726339,
          24.176238000000001
        ]
      }
    },
    {
      "id" : "219BA10B-24B2-44B7-9C4B-1E7E03D2E829",
      "properties" : {
        "name" : "慈緣素食",
        "address" : "台中市太平區中山路二段391號"
      },
      "type" : "Feature",
      "geometry" : {
        "type" : "Point",
        "coordinates" : [
          120.728849,
          24.150072999999999
        ]
      }
    },
    {
      "id" : "B941E0F0-0D1D-48B5-8C1A-B843E2E0531A",
      "properties" : {
        "name" : "聖恩素食",
        "address" : "台中市神岡區中山路36號"
      },
      "type" : "Feature",
      "geometry" : {
        "type" : "Point",
        "coordinates" : [
          120.698249,
          24.248998
        ]
      }
    },
    {
      "id" : "A3C27D7C-8100-4D77-93F4-7ECBB0BE61FA",
      "properties" : {
        "name" : "學士廣東粥",
        "address" : "台中市北區學士路159號"
      },
      "type" : "Feature",
      "geometry" : {
        "type" : "Point",
        "coordinates" : [
          120.68080999999999,
          24.158460000000002
        ]
      }
    },
    {
      "id" : "61A8D559-E96D-4C8A-90A3-1D9126D61E33",
      "properties" : {
        "name" : "姊妹素食",
        "address" : "台中市烏日區興祥街81號"
      },
      "type" : "Feature",
      "geometry" : {
        "type" : "Point",
        "coordinates" : [
          120.63787600000001,
          24.108141
        ]
      }
    },
    {
      "id" : "2123D733-EC57-49BB-B5DD-1E3931894C9D",
      "properties" : {
        "name" : "禾季素食館",
        "address" : "台中市太平區太平路368-1號"
      },
      "type" : "Feature",
      "geometry" : {
        "type" : "Point",
        "coordinates" : [
          120.717045,
          24.12425
        ]
      }
    },
    {
      "id" : "1CA600A1-E191-4427-830C-4C192D1D7C8F",
      "properties" : {
        "name" : "馬可先生雜糧麵包",
        "address" : "台中市北區崇德路一段511號"
      },
      "type" : "Feature",
      "geometry" : {
        "type" : "Point",
        "coordinates" : [
          120.684749,
          24.164753999999999
        ]
      }
    },
    {
      "id" : "585340F3-BB6E-4001-A1C2-C83D46D93ACC",
      "properties" : {
        "name" : "陽光飯捲",
        "address" : "台中市北屯區瀋陽路三段80號"
      },
      "type" : "Feature",
      "geometry" : {
        "type" : "Point",
        "coordinates" : [
          120.688204,
          24.172982999999999
        ]
      }
    },
    {
      "id" : "FA2140FE-6EB0-4494-97EE-04CD2D056B3D",
      "properties" : {
        "name" : "慧文素食",
        "address" : "台中市北屯區瀋陽路三段325號"
      },
      "type" : "Feature",
      "geometry" : {
        "type" : "Point",
        "coordinates" : [
          120.69466199999999,
          24.172609000000001
        ]
      }
    },
    {
      "id" : "F899EAD4-18FC-4EEB-9834-A7A0F287CE65",
      "properties" : {
        "name" : "陶樂里庭園蔬食",
        "address" : "台中市潭子區豐興路一段371號"
      },
      "type" : "Feature",
      "geometry" : {
        "type" : "Point",
        "coordinates" : [
          120.721771,
          24.200271000000001
        ]
      }
    },
    {
      "id" : "6DCDA605-43E5-4D9C-91B9-0A9379BF2C4E",
      "properties" : {
        "name" : "義進素食店",
        "address" : "台中市東區育英路63號"
      },
      "type" : "Feature",
      "geometry" : {
        "type" : "Point",
        "coordinates" : [
          120.697987,
          24.137855999999999
        ]
      }
    },
    {
      "id" : "BAC4A161-7AB0-4304-974E-27FD7E0A3EDB",
      "properties" : {
        "name" : "天味素食",
        "address" : "台中市南區復興路一段389號"
      },
      "type" : "Feature",
      "geometry" : {
        "type" : "Point",
        "coordinates" : [
          120.6565555,
          24.115812600000002
        ]
      }
    },
    {
      "id" : "8F1A59C5-9F56-4A8B-9545-DE3DF7F7A5DE",
      "properties" : {
        "name" : "陳素食鹹酥基",
        "address" : "台中市西屯路二段與上石南10巷口"
      },
      "type" : "Feature",
      "geometry" : {
        "type" : "Point",
        "coordinates" : [
          120.66254600000001,
          24.163703999999999
        ]
      }
    },
    {
      "id" : "290FA060-4370-4D24-9C7A-CAAA30616947",
      "properties" : {
        "name" : "得來素蔬食連鎖餐飲",
        "address" : "台中市大雅區民生路三段407號"
      },
      "type" : "Feature",
      "geometry" : {
        "type" : "Point",
        "coordinates" : [
          120.664666,
          24.234224000000001
        ]
      }
    },
    {
      "id" : "1BD707DE-32FC-45A9-88C9-9F864A8A0591",
      "properties" : {
        "name" : "忠義素食",
        "address" : "台中市潭子區勝利路270號"
      },
      "type" : "Feature",
      "geometry" : {
        "type" : "Point",
        "coordinates" : [
          120.70071900000001,
          24.212607999999999
        ]
      }
    },
    {
      "id" : "58CC4EF5-8F2B-431B-9C35-8B1A77B8BE90",
      "properties" : {
        "name" : "台灣素食包子饅頭專賣店",
        "address" : "台中市中區學士路160號"
      },
      "type" : "Feature",
      "geometry" : {
        "type" : "Point",
        "coordinates" : [
          120.68116499999999,
          24.158811
        ]
      }
    },
    {
      "id" : "28460667-B30F-4CCE-86EA-738E68C1508E",
      "properties" : {
        "name" : "素食",
        "address" : "台中市烏日區新興路604號"
      },
      "type" : "Feature",
      "geometry" : {
        "type" : "Point",
        "coordinates" : [
          120.620638,
          24.105650000000001
        ]
      }
    },
    {
      "id" : "3A4E03EF-4250-4AE0-8D3D-756BD7978278",
      "properties" : {
        "name" : "東光素食",
        "address" : "台中市北屯區東光路748號"
      },
      "type" : "Feature",
      "geometry" : {
        "type" : "Point",
        "coordinates" : [
          120.700624,
          24.166284999999998
        ]
      }
    },
    {
      "id" : "6A746F9B-6D3D-44BE-9414-01F8527BA271",
      "properties" : {
        "name" : "Fortunate Coffee",
        "address" : "台中市西屯區至善路171號"
      },
      "type" : "Feature",
      "geometry" : {
        "type" : "Point",
        "coordinates" : [
          120.64295199999999,
          24.177816
        ]
      }
    },
    {
      "id" : "B51F796C-0F86-483F-A457-2DB2AEC71847",
      "properties" : {
        "name" : "順口香麥仔煎",
        "address" : "台中市南區民意街57號"
      },
      "type" : "Feature",
      "geometry" : {
        "type" : "Point",
        "coordinates" : [
          120.68326500000001,
          24.131394
        ]
      }
    },
    {
      "id" : "3A932089-BDB5-40CF-B3D5-DA7FF5E41CD9",
      "properties" : {
        "name" : "現代素食",
        "address" : "台中市北區太平路119號"
      },
      "type" : "Feature",
      "geometry" : {
        "type" : "Point",
        "coordinates" : [
          120.68262900000001,
          24.148371000000001
        ]
      }
    },
    {
      "id" : "91741124-6F96-4322-AB5C-F734E02F9BFD",
      "properties" : {
        "name" : "素香園素食館",
        "address" : "台中市清水區五權東路121-2號"
      },
      "type" : "Feature",
      "geometry" : {
        "type" : "Point",
        "coordinates" : [
          120.572856,
          24.274643999999999
        ]
      }
    },
    {
      "id" : "3BEB488C-FB51-4B12-AF1B-FC39A8B645AB",
      "properties" : {
        "name" : "活力蔬食屋",
        "address" : "台中市烏日區信義街200號"
      },
      "type" : "Feature",
      "geometry" : {
        "type" : "Point",
        "coordinates" : [
          120.638306,
          24.104633
        ]
      }
    },
    {
      "id" : "3B73B23F-4D70-4241-A7A2-E88C358A5D61",
      "properties" : {
        "name" : "師姐素食",
        "address" : "台中市大里區大明路79號"
      },
      "type" : "Feature",
      "geometry" : {
        "type" : "Point",
        "coordinates" : [
          120.687124,
          24.115183999999999
        ]
      }
    },
    {
      "id" : "46B2C6A5-E37F-48C6-A30B-95E4225FD068",
      "properties" : {
        "name" : "臻薌園素食館",
        "address" : "台中市南屯區文心南路530-3號"
      },
      "type" : "Feature",
      "geometry" : {
        "type" : "Point",
        "coordinates" : [
          120.64655,
          24.126740999999999
        ]
      }
    },
    {
      "id" : "542AED10-8BC1-4FE8-8E74-2A00A69EE84C",
      "properties" : {
        "name" : "如慧素食",
        "address" : "台中市西區忠明南路177號"
      },
      "type" : "Feature",
      "geometry" : {
        "type" : "Point",
        "coordinates" : [
          120.657479,
          24.149365
        ]
      }
    },
    {
      "id" : "6425DDE3-CCFA-4BA9-AD6B-73321C538844",
      "properties" : {
        "name" : "淨思林素食軒",
        "address" : "台中市大里區好來五街74號"
      },
      "type" : "Feature",
      "geometry" : {
        "type" : "Point",
        "coordinates" : [
          120.69999300000001,
          24.108051
        ]
      }
    },
    {
      "id" : "D33817B1-C6CC-4E28-8226-097DD66F37D1",
      "properties" : {
        "name" : "十方素食",
        "address" : "台中市北區美德街177號"
      },
      "type" : "Feature",
      "geometry" : {
        "type" : "Point",
        "coordinates" : [
          120.680268,
          24.158103000000001
        ]
      }
    },
    {
      "id" : "A6F27AF5-6ED0-4BE7-915D-A9A32C3CF41D",
      "properties" : {
        "name" : "禾燁小吃店",
        "address" : "台中市東區東英路310號"
      },
      "type" : "Feature",
      "geometry" : {
        "type" : "Point",
        "coordinates" : [
          120.70532900000001,
          24.136692
        ]
      }
    },
    {
      "id" : "616F53BB-7864-4EDA-9EF8-7F7D25085C6B",
      "properties" : {
        "name" : "律活綠活健康生活館",
        "address" : "台中市西屯區台灣大道二段827號"
      },
      "type" : "Feature",
      "geometry" : {
        "type" : "Point",
        "coordinates" : [
          120.652743,
          24.160508
        ]
      }
    },
    {
      "id" : "B74BF43D-DF31-490A-B790-BAF53B2A01F2",
      "properties" : {
        "name" : "洪媽媽健康素食",
        "address" : "台中市太平區中和街189號"
      },
      "type" : "Feature",
      "geometry" : {
        "type" : "Point",
        "coordinates" : [
          120.723658,
          24.137056999999999
        ]
      }
    },
    {
      "id" : "EF390D9E-7036-45F1-AAF8-E01F21963FFC",
      "properties" : {
        "name" : "大愛養生素食",
        "address" : "台中市西屯區中清西二街34號"
      },
      "type" : "Feature",
      "geometry" : {
        "type" : "Point",
        "coordinates" : [
          120.667998,
          24.174796000000001
        ]
      }
    },
    {
      "id" : "0F3E9B93-BDB5-4C9A-81D2-E44C9DE64377",
      "properties" : {
        "name" : "健康歡喜素食館",
        "address" : "台中市豐原區永康路119號"
      },
      "type" : "Feature",
      "geometry" : {
        "type" : "Point",
        "coordinates" : [
          120.726677,
          24.242398999999999
        ]
      }
    },
    {
      "id" : "F37DCA26-EF8B-4C60-BE9A-A6B9FA09D60E",
      "properties" : {
        "name" : "林莊素食",
        "address" : "台中市大里區西湖路18號"
      },
      "type" : "Feature",
      "geometry" : {
        "type" : "Point",
        "coordinates" : [
          120.691041,
          24.078178999999999
        ]
      }
    },
    {
      "id" : "1DBE375F-F817-42E6-82DD-5AE3E0BAD444",
      "properties" : {
        "name" : "自強街素食早餐",
        "address" : "台中市東區自強街30巷1號"
      },
      "type" : "Feature",
      "geometry" : {
        "type" : "Point",
        "coordinates" : [
          120.697107,
          24.152652
        ]
      }
    },
    {
      "id" : "03632136-BB95-431D-94FC-DD2DBFA9F0CE",
      "properties" : {
        "name" : "天菜豐巢VeGood 蔬果百匯",
        "address" : "台中市南屯區文心南路289號"
      },
      "type" : "Feature",
      "geometry" : {
        "type" : "Point",
        "coordinates" : [
          120.646017,
          24.129284999999999
        ]
      }
    },
    {
      "id" : "4887CBEF-5358-43B1-A0D1-49EE58BF3691",
      "properties" : {
        "name" : "布達佩斯 冰淇淋專賣店",
        "address" : "台中市大雅區學府路390號"
      },
      "type" : "Feature",
      "geometry" : {
        "type" : "Point",
        "coordinates" : [
          120.648314,
          24.22692
        ]
      }
    },
    {
      "id" : "30454291-504A-4175-BBCA-3B23912797B8",
      "properties" : {
        "name" : "行力素食",
        "address" : "台中市東區力行路79號"
      },
      "type" : "Feature",
      "geometry" : {
        "type" : "Point",
        "coordinates" : [
          120.69508399999999,
          24.150924
        ]
      }
    },
    {
      "id" : "74BDA82A-78F2-432A-B341-5836CCCCFA69",
      "properties" : {
        "name" : "和順素食",
        "address" : "台中市北屯區和順路軍和街口"
      },
      "type" : "Feature",
      "geometry" : {
        "type" : "Point",
        "coordinates" : [
          120.723006,
          24.1816569
        ]
      }
    },
    {
      "id" : "071F708D-C5C3-4DA9-AAC1-A8ED61CF9986",
      "properties" : {
        "name" : "老麵的店",
        "address" : "台中市豐原區瑞安街59號"
      },
      "type" : "Feature",
      "geometry" : {
        "type" : "Point",
        "coordinates" : [
          120.712829,
          24.248908
        ]
      }
    },
    {
      "id" : "6C9AAEE2-EE1D-4E3D-9D23-958017BFF794",
      "properties" : {
        "name" : "中興豆花",
        "address" : "台中市豐原區向陽路356號"
      },
      "type" : "Feature",
      "geometry" : {
        "type" : "Point",
        "coordinates" : [
          120.729822,
          24.25029
        ]
      }
    },
    {
      "id" : "0D3510BE-B630-4D1A-88E8-51704AF825E7",
      "properties" : {
        "name" : "羅記素食",
        "address" : "台中市大甲區順天路371-2"
      },
      "type" : "Feature",
      "geometry" : {
        "type" : "Point",
        "coordinates" : [
          120.626514,
          24.349820000000001
        ]
      }
    },
    {
      "id" : "84648D49-4F13-4E44-8A26-5884052324EE",
      "properties" : {
        "name" : "昌平路宵夜 素ㄜ仔煎餅蘿蔔糕",
        "address" : "台中市北屯區昌平路二段2-14號"
      },
      "type" : "Feature",
      "geometry" : {
        "type" : "Point",
        "coordinates" : [
          120.69022200000001,
          24.177168000000002
        ]
      }
    },
    {
      "id" : "791216AF-B94C-4E15-AC85-43BB5B884052",
      "properties" : {
        "name" : "壹號麥田",
        "address" : "台中市北屯區東山路一段371-6號"
      },
      "type" : "Feature",
      "geometry" : {
        "type" : "Point",
        "coordinates" : [
          120.726778,
          24.176577000000002
        ]
      }
    },
    {
      "id" : "93E919FD-E708-41F3-B5A4-398FC7F684F9",
      "properties" : {
        "name" : "雲方味素食",
        "address" : "台中市豐原區西勢路98號"
      },
      "type" : "Feature",
      "geometry" : {
        "type" : "Point",
        "coordinates" : [
          120.708626,
          24.245553000000001
        ]
      }
    },
    {
      "id" : "5B22069C-BBFA-4F43-A32C-AC6C2F818AC5",
      "properties" : {
        "name" : "康荷蔬食館",
        "address" : "台中市東區和平街217號"
      },
      "type" : "Feature",
      "geometry" : {
        "type" : "Point",
        "coordinates" : [
          120.688602,
          24.135698000000001
        ]
      }
    },
    {
      "id" : "8478542E-047A-4AFE-8578-EE4DB9BF8DB0",
      "properties" : {
        "name" : "園蔬蔬食",
        "address" : "台中市南屯區嶺東路860號"
      },
      "type" : "Feature",
      "geometry" : {
        "type" : "Point",
        "coordinates" : [
          120.612562,
          24.152016
        ]
      }
    },
    {
      "id" : "DF5A7EF4-D265-490C-AB24-105DA5A076FB",
      "properties" : {
        "name" : "如是我聞韓式素食海苔飯捲",
        "address" : "台中市北屯區中清路二段67號"
      },
      "type" : "Feature",
      "geometry" : {
        "type" : "Point",
        "coordinates" : [
          120.670768,
          24.175107000000001
        ]
      }
    },
    {
      "id" : "9BA17305-D093-49E9-8ECA-8889C95276CE",
      "properties" : {
        "name" : "覓光咖啡 Luster Café",
        "address" : "台中市西區華美街101號"
      },
      "type" : "Feature",
      "geometry" : {
        "type" : "Point",
        "coordinates" : [
          120.65875800000001,
          24.143784
        ]
      }
    },
    {
      "id" : "6C83A1EE-438A-4A49-89E5-046E8CA2AE51",
      "properties" : {
        "name" : "秀香素食早點",
        "address" : "台中市大里區萬壽街6號"
      },
      "type" : "Feature",
      "geometry" : {
        "type" : "Point",
        "coordinates" : [
          120.69627800000001,
          24.088108999999999
        ]
      }
    },
    {
      "id" : "44D05BF7-1FF9-4B83-9AE8-0402D7E06ABE",
      "properties" : {
        "name" : "天慈素食",
        "address" : "台中市南屯區南屯路二段281號"
      },
      "type" : "Feature",
      "geometry" : {
        "type" : "Point",
        "coordinates" : [
          120.647178,
          24.137043999999999
        ]
      }
    },
    {
      "id" : "D4459FAD-F8D8-4526-838F-69150D7E5892",
      "properties" : {
        "name" : "伊月拾憶",
        "address" : "台中市北區梅亭街417號"
      },
      "type" : "Feature",
      "geometry" : {
        "type" : "Point",
        "coordinates" : [
          120.678444,
          24.160336000000001
        ]
      }
    },
    {
      "id" : "9E91E548-7FFE-48AC-9805-A8975DF4C96A",
      "properties" : {
        "name" : "天慈素食 漢口店",
        "address" : "台中市北區漢口路四段224號"
      },
      "type" : "Feature",
      "geometry" : {
        "type" : "Point",
        "coordinates" : [
          120.681022,
          24.166858999999999
        ]
      }
    },
    {
      "id" : "223E9FCF-9CC2-4880-A7D3-4F6D7F39E237",
      "properties" : {
        "name" : "朝活生機輕食廚房",
        "address" : "台中市北屯區松義街145號"
      },
      "type" : "Feature",
      "geometry" : {
        "type" : "Point",
        "coordinates" : [
          120.698077,
          24.184477000000001
        ]
      }
    },
    {
      "id" : "069387CE-4A67-4C06-B7AE-7AB7FEE11D42",
      "properties" : {
        "name" : "天慈素食",
        "address" : "台中市西區東興路三段119號"
      },
      "type" : "Feature",
      "geometry" : {
        "type" : "Point",
        "coordinates" : [
          120.65288200000001,
          24.149049999999999
        ]
      }
    },
    {
      "id" : "6B882525-C6A0-4AF2-94AF-F166B3B88FFD",
      "properties" : {
        "name" : "京都海苔素食飯捲",
        "address" : "台中市太平區太平路259號"
      },
      "type" : "Feature",
      "geometry" : {
        "type" : "Point",
        "coordinates" : [
          120.719065,
          24.121739999999999
        ]
      }
    },
    {
      "id" : "3F47519A-CB7F-4B45-8A5E-301CD1079ABB",
      "properties" : {
        "name" : "十方養生素食",
        "address" : "台中市沙鹿區中山路137-4號"
      },
      "type" : "Feature",
      "geometry" : {
        "type" : "Point",
        "coordinates" : [
          120.56829999999999,
          24.236723999999999
        ]
      }
    },
    {
      "id" : "774DD26A-D541-403B-94CD-F15CAA156CAA",
      "properties" : {
        "name" : "頭張蔬食坊",
        "address" : "台中市潭子區中山路一段81號"
      },
      "type" : "Feature",
      "geometry" : {
        "type" : "Point",
        "coordinates" : [
          120.702302,
          24.192869999999999
        ]
      }
    },
    {
      "id" : "1AB09C10-9811-4365-8565-CD015441DEAF",
      "properties" : {
        "name" : "禪心海蔬食館",
        "address" : "台中市北屯區祥順路二段320-2號"
      },
      "type" : "Feature",
      "geometry" : {
        "type" : "Point",
        "coordinates" : [
          120.730957,
          24.174581
        ]
      }
    },
    {
      "id" : "E3E98C2C-88F2-49A9-8D2C-80EFAFC40B09",
      "properties" : {
        "name" : "慈旺素食材料批發零售",
        "address" : "台中市南屯區永春東路862號"
      },
      "type" : "Feature",
      "geometry" : {
        "type" : "Point",
        "coordinates" : [
          120.640991,
          24.135186999999998
        ]
      }
    },
    {
      "id" : "6522EA02-45B9-4D37-A06B-E4B862F59232",
      "properties" : {
        "name" : "觀音健康素食館",
        "address" : "台中市北區漢口路三段125號"
      },
      "type" : "Feature",
      "geometry" : {
        "type" : "Point",
        "coordinates" : [
          120.669798,
          24.167074
        ]
      }
    },
    {
      "id" : "46B7F0C1-6C24-4302-B0E3-E09EA870E4B0",
      "properties" : {
        "name" : "富泉烘焙屋",
        "address" : "台中市西區中美街299巷18號"
      },
      "type" : "Feature",
      "geometry" : {
        "type" : "Point",
        "coordinates" : [
          120.659448,
          24.149688999999999
        ]
      }
    },
    {
      "id" : "763DF5C4-8DA9-4F2B-8C60-D96442BDF2F7",
      "properties" : {
        "name" : "聚緣齋",
        "address" : "台中市大甲區經國路2140號"
      },
      "type" : "Feature",
      "geometry" : {
        "type" : "Point",
        "coordinates" : [
          120.652227,
          24.384952999999999
        ]
      }
    },
    {
      "id" : "FC6825F4-BB52-44D3-88D5-A857DD2C0169",
      "properties" : {
        "name" : "大墩素食",
        "address" : "台中市南屯區大墩路234號"
      },
      "type" : "Feature",
      "geometry" : {
        "type" : "Point",
        "coordinates" : [
          120.650025,
          24.142346
        ]
      }
    },
    {
      "id" : "9F8D161C-A914-4F7C-AE3F-92BC9F6EA361",
      "properties" : {
        "name" : "晨安餃子蔬食館",
        "address" : "台中市南區國光路156-2號"
      },
      "type" : "Feature",
      "geometry" : {
        "type" : "Point",
        "coordinates" : [
          120.678321,
          24.127929000000002
        ]
      }
    },
    {
      "id" : "416FD23C-CD08-46B2-96F1-E2A64629594A",
      "properties" : {
        "name" : "蔬食饗樂",
        "address" : "台中市北屯區大鵬路4號"
      },
      "type" : "Feature",
      "geometry" : {
        "type" : "Point",
        "coordinates" : [
          120.6662063,
          24.178692600000002
        ]
      }
    },
    {
      "id" : "AA0870FF-0E2F-4F26-B7BB-D390D7E92136",
      "properties" : {
        "name" : "阿南達全麥饅頭麵包坊",
        "address" : "台中市北區四川一街37號"
      },
      "type" : "Feature",
      "geometry" : {
        "type" : "Point",
        "coordinates" : [
          120.6822408,
          24.166121700000001
        ]
      }
    },
    {
      "id" : "1261FD40-DFE9-4038-83DB-E4313B8E6E29",
      "properties" : {
        "name" : "宜樂美素食中西早點-有素漢堡",
        "address" : "台中市西屯區黎明路三段288號"
      },
      "type" : "Feature",
      "geometry" : {
        "type" : "Point",
        "coordinates" : [
          120.638239,
          24.180971
        ]
      }
    },
    {
      "id" : "45D537F1-417D-43B6-89EB-1C0ECA2A598C",
      "properties" : {
        "name" : "小潘潘全麥麵包",
        "address" : "台中市北區北平路二段115號"
      },
      "type" : "Feature",
      "geometry" : {
        "type" : "Point",
        "coordinates" : [
          120.676914,
          24.171488
        ]
      }
    },
    {
      "id" : "170B4CB4-1A2F-43F1-8201-B46670C54EDE",
      "properties" : {
        "name" : "感恩素食 滷味 鹽酥G",
        "address" : "台中市北區北平路二段159號"
      },
      "type" : "Feature",
      "geometry" : {
        "type" : "Point",
        "coordinates" : [
          120.67822700000001,
          24.171482000000001
        ]
      }
    },
    {
      "id" : "D74AFB3E-0A3C-4AB5-B52B-823422C8148F",
      "properties" : {
        "name" : "于庭健康素食",
        "address" : "台中市西屯區西屯路三段155-3號"
      },
      "type" : "Feature",
      "geometry" : {
        "type" : "Point",
        "coordinates" : [
          120.62118,
          24.186579999999999
        ]
      }
    },
    {
      "id" : "45DEF25F-A482-4677-93D5-DBDE0DAAF91D",
      "properties" : {
        "name" : "聖華宮蔬食餐廳",
        "address" : "台中市北區中清路一段657號"
      },
      "type" : "Feature",
      "geometry" : {
        "type" : "Point",
        "coordinates" : [
          120.671558,
          24.171353
        ]
      }
    },
    {
      "id" : "9DBC7821-42F3-41B4-B7E2-5DCBACD45D3A",
      "properties" : {
        "name" : "菇菇窩",
        "address" : "台中市西屯區文華路127號"
      },
      "type" : "Feature",
      "geometry" : {
        "type" : "Point",
        "coordinates" : [
          120.646191,
          24.180899
        ]
      }
    },
    {
      "id" : "AB375DA9-3E8A-4B20-8C7E-FCA0AA107499",
      "properties" : {
        "name" : "陳記素食滷味 (台中南屯菜市場內）",
        "address" : "台中市南屯區南興巷28弄8號"
      },
      "type" : "Feature",
      "geometry" : {
        "type" : "Point",
        "coordinates" : [
          120.63819700000001,
          24.138639000000001
        ]
      }
    },
    {
      "id" : "B6ACE47E-3440-447E-82E9-3E1073CA5FFA",
      "properties" : {
        "name" : "素舍。饗宴趴趴go",
        "address" : "台中市大里區慈德路206號"
      },
      "type" : "Feature",
      "geometry" : {
        "type" : "Point",
        "coordinates" : [
          120.699442,
          24.097252999999998
        ]
      }
    },
    {
      "id" : "B488F344-24DC-4102-905E-DC5F538AA8DB",
      "properties" : {
        "name" : "布拉格林BRAGLIN香草蔬食料理",
        "address" : "台中市西屯區福星路230號"
      },
      "type" : "Feature",
      "geometry" : {
        "type" : "Point",
        "coordinates" : [
          120.64482,
          24.182169999999999
        ]
      }
    },
    {
      "id" : "1DE24A26-9FB8-4684-B4D7-E80CF3CC1D4C",
      "properties" : {
        "name" : "巴豆跳跳",
        "address" : "台中市北屯區東山路二段78-1號"
      },
      "type" : "Feature",
      "geometry" : {
        "type" : "Point",
        "coordinates" : [
          120.744355,
          24.186468000000001
        ]
      }
    },
    {
      "id" : "A66245F9-3229-42ED-BF51-1EF751BB0FEA",
      "properties" : {
        "name" : "食在滿願",
        "address" : "台中市南屯區永春東路1122-1號"
      },
      "type" : "Feature",
      "geometry" : {
        "type" : "Point",
        "coordinates" : [
          120.635451,
          24.136303999999999
        ]
      }
    },
    {
      "id" : "E5028F6F-17AE-4879-99FC-FE5CCB838D25",
      "properties" : {
        "name" : "好享受 低糖甜點&咖啡",
        "address" : "台中市大里區大里路59-7號"
      },
      "type" : "Feature",
      "geometry" : {
        "type" : "Point",
        "coordinates" : [
          120.68781300000001,
          24.105595000000001
        ]
      }
    },
    {
      "id" : "DCC07C00-DEF6-4F9E-97D2-9A142C1AFD6C",
      "properties" : {
        "name" : "柯媽媽の植物燕窩．黑木耳專賣店",
        "address" : "台中市西區華美西街一段35號"
      },
      "type" : "Feature",
      "geometry" : {
        "type" : "Point",
        "coordinates" : [
          120.658306,
          24.152771000000001
        ]
      }
    },
    {
      "id" : "4EF24BE2-02F3-4878-AA16-8C348D538280",
      "properties" : {
        "name" : "慈心素食",
        "address" : "台中市清水區鎮南街51號"
      },
      "type" : "Feature",
      "geometry" : {
        "type" : "Point",
        "coordinates" : [
          120.571012,
          24.267565999999999
        ]
      }
    },
    {
      "id" : "87FF7234-32C6-4AA7-B7D0-7DBC555CD59B",
      "properties" : {
        "name" : "食月丘潤餅捲",
        "address" : "台中市東區旱溪街47號"
      },
      "type" : "Feature",
      "geometry" : {
        "type" : "Point",
        "coordinates" : [
          120.69861299999999,
          24.140146999999999
        ]
      }
    },
    {
      "id" : "AD5AC36E-562A-464E-B55F-232D5386C6B7",
      "properties" : {
        "name" : "阿麗素食便當",
        "address" : "台中市豐原區三豐路一段446號"
      },
      "type" : "Feature",
      "geometry" : {
        "type" : "Point",
        "coordinates" : [
          120.719894,
          24.261198
        ]
      }
    },
    {
      "id" : "7B59B0FB-8EDF-4AB0-BFB8-1A95C71ED5C8",
      "properties" : {
        "name" : "自然風味蔬食料理",
        "address" : "台中市北區漢口南二街30號"
      },
      "type" : "Feature",
      "geometry" : {
        "type" : "Point",
        "coordinates" : [
          120.66731900000001,
          24.165521999999999
        ]
      }
    },
    {
      "id" : "9B3C6362-DEED-4722-A631-DEC9FF1E5809",
      "properties" : {
        "name" : "重慶素食",
        "address" : "台中市西屯區重慶路108號"
      },
      "type" : "Feature",
      "geometry" : {
        "type" : "Point",
        "coordinates" : [
          120.656244,
          24.165645000000001
        ]
      }
    },
    {
      "id" : "FDB68694-A3B6-42EA-AE69-6DB865C49498",
      "properties" : {
        "name" : "頤養膳房",
        "address" : "台中市西屯區福雅路60號"
      },
      "type" : "Feature",
      "geometry" : {
        "type" : "Point",
        "coordinates" : [
          120.61860900000001,
          24.183800000000002
        ]
      }
    },
    {
      "id" : "2E775352-A94E-40B5-98D4-3B9782DA9FCD",
      "properties" : {
        "name" : "雅士米素食膳坊",
        "address" : "台中市北屯區東山路二段中興巷69號"
      },
      "type" : "Feature",
      "geometry" : {
        "type" : "Point",
        "coordinates" : [
          120.7411249,
          24.179043499999999
        ]
      }
    },
    {
      "id" : "B4375F1C-7F3C-4574-8ABA-EE392C8714F2",
      "properties" : {
        "name" : "明心圓生機素食",
        "address" : "台中市西屯區大墩路869號"
      },
      "type" : "Feature",
      "geometry" : {
        "type" : "Point",
        "coordinates" : [
          120.64978600000001,
          24.156016000000001
        ]
      }
    },
    {
      "id" : "E80AB38C-F634-4A08-8A86-32C1ACFD7860",
      "properties" : {
        "name" : "中華素食",
        "address" : "台中市太平區新平路二段21號"
      },
      "type" : "Feature",
      "geometry" : {
        "type" : "Point",
        "coordinates" : [
          120.715227,
          24.136671
        ]
      }
    },
    {
      "id" : "9053DB3A-5CC9-41B2-9E57-0F37D79BC0C4",
      "properties" : {
        "name" : "豐西街素食餐館",
        "address" : "台中市豐原區豐西街43號"
      },
      "type" : "Feature",
      "geometry" : {
        "type" : "Point",
        "coordinates" : [
          120.71274099999999,
          24.251484999999999
        ]
      }
    },
    {
      "id" : "A1CDACCA-7974-416D-8429-D46CDED32EFA",
      "properties" : {
        "name" : "里仁台中忠明店",
        "address" : "台中市南區忠明南路780號"
      },
      "type" : "Feature",
      "geometry" : {
        "type" : "Point",
        "coordinates" : [
          120.660321,
          24.122586999999999
        ]
      }
    },
    {
      "id" : "C61BEFA7-C13E-48ED-B2ED-DB726A3BB9B1",
      "properties" : {
        "name" : "可口菇菇麵",
        "address" : "台中市龍井區新興路19號"
      },
      "type" : "Feature",
      "geometry" : {
        "type" : "Point",
        "coordinates" : [
          120.589871,
          24.180816
        ]
      }
    },
    {
      "id" : "815FC5BE-A9B2-4933-B43D-F08E06A71E43",
      "properties" : {
        "name" : "永林素之味",
        "address" : "台中市北屯區北屯路238號"
      },
      "type" : "Feature",
      "geometry" : {
        "type" : "Point",
        "coordinates" : [
          120.697706,
          24.169937999999998
        ]
      }
    },
    {
      "id" : "BB11DA7C-1FE7-4F74-8638-B517155D538C",
      "properties" : {
        "name" : "大炳烤玉米\/素食",
        "address" : "台中市中區中華路二段10號"
      },
      "type" : "Feature",
      "geometry" : {
        "type" : "Point",
        "coordinates" : [
          120.679153,
          24.147188
        ]
      }
    },
    {
      "id" : "1271A998-1AEB-4919-87BF-C2EDDE78AFFC",
      "properties" : {
        "name" : "拾緣館",
        "address" : "台中市北區山西路二段31號"
      },
      "type" : "Feature",
      "geometry" : {
        "type" : "Point",
        "coordinates" : [
          120.675501,
          24.169269
        ]
      }
    },
    {
      "id" : "7ECD8E48-3C77-40C5-80A6-8B2C5B647D53",
      "properties" : {
        "name" : "佛有緣素食館",
        "address" : "台中市霧峰區樹仁路19號"
      },
      "type" : "Feature",
      "geometry" : {
        "type" : "Point",
        "coordinates" : [
          120.69721,
          24.064243999999999
        ]
      }
    },
    {
      "id" : "648EDFE6-CFB1-477C-82D3-0093F8B2DE75",
      "properties" : {
        "name" : "Q喵食堂",
        "address" : "台中市太平區中山路一段243巷2號"
      },
      "type" : "Feature",
      "geometry" : {
        "type" : "Point",
        "coordinates" : [
          120.733322,
          24.143287000000001
        ]
      }
    },
    {
      "id" : "EB2477D8-06C1-45F2-8AFE-37FBFB9FEAE0",
      "properties" : {
        "name" : "馥薌素食",
        "address" : "台中市西屯區甘肅路一段121號"
      },
      "type" : "Feature",
      "geometry" : {
        "type" : "Point",
        "coordinates" : [
          120.65795199999999,
          24.167127000000001
        ]
      }
    },
    {
      "id" : "1A1DFDBA-23E1-4146-85D4-1683CF316258",
      "properties" : {
        "name" : "瑩佳素食",
        "address" : "台中市北區山西路二段69號"
      },
      "type" : "Feature",
      "geometry" : {
        "type" : "Point",
        "coordinates" : [
          120.675594,
          24.170625999999999
        ]
      }
    },
    {
      "id" : "3E26C1A4-4B56-4B07-8A09-70E0EAC092DA",
      "properties" : {
        "name" : "第五市場麵線糊",
        "address" : "台中市西區自治街4號"
      },
      "type" : "Feature",
      "geometry" : {
        "type" : "Point",
        "coordinates" : [
          120.672162,
          24.138055999999999
        ]
      }
    },
    {
      "id" : "1D99AECA-0F81-4D98-AA43-277A9B8EF6DA",
      "properties" : {
        "name" : "蓮華素食自助餐",
        "address" : "台中市東勢區三民街198號"
      },
      "type" : "Feature",
      "geometry" : {
        "type" : "Point",
        "coordinates" : [
          120.83030599999999,
          24.255331000000002
        ]
      }
    },
    {
      "id" : "2C07C728-8AB6-4D09-933A-31C48AFD831E",
      "properties" : {
        "name" : "水煎包",
        "address" : "台中市北屯區四平路5號"
      },
      "type" : "Feature",
      "geometry" : {
        "type" : "Point",
        "coordinates" : [
          120.6695771,
          24.177532500000002
        ]
      }
    },
    {
      "id" : "9338D6B5-C364-488E-8C79-3ACA8664AAFD",
      "properties" : {
        "name" : "茶悅堂",
        "address" : "台中市西區五權西四街13巷6號"
      },
      "type" : "Feature",
      "geometry" : {
        "type" : "Point",
        "coordinates" : [
          120.662323,
          24.139028
        ]
      }
    },
    {
      "id" : "2B6E15B5-7877-4BDF-9FF1-4DD77BFE64E3",
      "properties" : {
        "name" : "維根蔬食",
        "address" : "台中市北屯區瀋陽路三段372號"
      },
      "type" : "Feature",
      "geometry" : {
        "type" : "Point",
        "coordinates" : [
          120.69592400000001,
          24.172101999999999
        ]
      }
    },
    {
      "id" : "7731866E-9035-4C3A-B397-CBA835B688CE",
      "properties" : {
        "name" : "廣緣素食",
        "address" : "台中市北屯區東山路一段311-3號"
      },
      "type" : "Feature",
      "geometry" : {
        "type" : "Point",
        "coordinates" : [
          120.72178,
          24.176106999999998
        ]
      }
    },
    {
      "id" : "55ADD17B-0534-4314-842E-8FE350CB193D",
      "properties" : {
        "name" : "水連天碧",
        "address" : "台中市大里區大里路101-9號"
      },
      "type" : "Feature",
      "geometry" : {
        "type" : "Point",
        "coordinates" : [
          120.68626500000001,
          24.103611999999998
        ]
      }
    },
    {
      "id" : "6AE01C6F-1969-4A5D-BEF4-A30E478E9CB2",
      "properties" : {
        "name" : "來來素食店",
        "address" : "台中市大里區大明路13號"
      },
      "type" : "Feature",
      "geometry" : {
        "type" : "Point",
        "coordinates" : [
          120.68891429999999,
          24.115167899999999
        ]
      }
    },
    {
      "id" : "8E2E0890-89AD-4F22-ABA2-560717BA689B",
      "properties" : {
        "name" : "朱記素餅",
        "address" : "台中市神岡區中山路726號"
      },
      "type" : "Feature",
      "geometry" : {
        "type" : "Point",
        "coordinates" : [
          120.68060199999999,
          24.248065
        ]
      }
    },
    {
      "id" : "623C50AA-FBBC-4BC2-B2C8-52C024BB5DBA",
      "properties" : {
        "name" : "新素食堂蔬食拉麵",
        "address" : "台中市豐原區南陽路304號"
      },
      "type" : "Feature",
      "geometry" : {
        "type" : "Point",
        "coordinates" : [
          120.72646,
          24.245874199999999
        ]
      }
    },
    {
      "id" : "8BE0AD7F-EF84-4252-96A9-DC9E4535ECDE",
      "properties" : {
        "name" : "天音素食能量養生麵館",
        "address" : "台中市南區忠明南路675號"
      },
      "type" : "Feature",
      "geometry" : {
        "type" : "Point",
        "coordinates" : [
          120.65780100000001,
          24.129439999999999
        ]
      }
    },
    {
      "id" : "A499EA92-FD89-4714-829F-4CF75F50296F",
      "properties" : {
        "name" : "阿丹素食",
        "address" : "台中市大雅區雅潭路141-2號"
      },
      "type" : "Feature",
      "geometry" : {
        "type" : "Point",
        "coordinates" : [
          120.67650070000001,
          24.214909599999999
        ]
      }
    },
    {
      "id" : "414F0E60-83E1-4AC4-B071-48432FE4650C",
      "properties" : {
        "name" : "吾素齋人文素食餐飲",
        "address" : "台中市西區康樂街14號"
      },
      "type" : "Feature",
      "geometry" : {
        "type" : "Point",
        "coordinates" : [
          120.675056,
          24.136883000000001
        ]
      }
    },
    {
      "id" : "52701158-F2F5-41D3-A088-56D571E5494E",
      "properties" : {
        "name" : "井町",
        "address" : "台中市北區青島路三段176號"
      },
      "type" : "Feature",
      "geometry" : {
        "type" : "Point",
        "coordinates" : [
          120.6833409,
          24.168299600000001
        ]
      }
    },
    {
      "id" : "79169CC4-BF39-4198-9BF7-004D7D2C4674",
      "properties" : {
        "name" : "一喜堂素齋",
        "address" : "台中市大里區德芳南路81-3號"
      },
      "type" : "Feature",
      "geometry" : {
        "type" : "Point",
        "coordinates" : [
          120.689531,
          24.100892999999999
        ]
      }
    },
    {
      "id" : "E1B37AA7-B0F2-43B0-A500-8DA475D65E14",
      "properties" : {
        "name" : "鑫鑫健康素食自助餐",
        "address" : "台中市東區復興路四段65號"
      },
      "type" : "Feature",
      "geometry" : {
        "type" : "Point",
        "coordinates" : [
          120.684428,
          24.13533
        ]
      }
    },
    {
      "id" : "0275F9C7-2D57-4529-A214-8597C90B0656",
      "properties" : {
        "name" : "早尼早餐 Find you breakfast",
        "address" : "台中市西區忠誠街129號"
      },
      "type" : "Feature",
      "geometry" : {
        "type" : "Point",
        "coordinates" : [
          120.658168,
          24.152372
        ]
      }
    },
    {
      "id" : "B5E6C12E-4ED2-4179-B96A-56DB0178EBCE",
      "properties" : {
        "name" : "甘心的媽",
        "address" : "台中市北屯區遼陽六街6號"
      },
      "type" : "Feature",
      "geometry" : {
        "type" : "Point",
        "coordinates" : [
          120.69556,
          24.172497
        ]
      }
    },
    {
      "id" : "F715D23B-B767-4931-8037-D70AEA314C5F",
      "properties" : {
        "name" : "小時候大餅",
        "address" : "台中市大里區國中路332號"
      },
      "type" : "Feature",
      "geometry" : {
        "type" : "Point",
        "coordinates" : [
          120.678428,
          24.095065999999999
        ]
      }
    },
    {
      "id" : "E299DADD-0382-4385-B48D-9654BD3F884B",
      "properties" : {
        "name" : "胤茹坊",
        "address" : "台中市北區北平路二段102-12號"
      },
      "type" : "Feature",
      "geometry" : {
        "type" : "Point",
        "coordinates" : [
          120.675523,
          24.171374
        ]
      }
    },
    {
      "id" : "53051373-1D01-47C0-A9C0-57B0172B23F5",
      "properties" : {
        "name" : "文昌素食",
        "address" : "台中市北屯區興安路一段92-1號"
      },
      "type" : "Feature",
      "geometry" : {
        "type" : "Point",
        "coordinates" : [
          120.692297,
          24.167401000000002
        ]
      }
    },
    {
      "id" : "FD7B5CE6-ECDA-42FC-8FAC-2BDF909DF640",
      "properties" : {
        "name" : "大連素食早點",
        "address" : "台中市北屯區大連北街2巷6號"
      },
      "type" : "Feature",
      "geometry" : {
        "type" : "Point",
        "coordinates" : [
          120.675175,
          24.177358999999999
        ]
      }
    },
    {
      "id" : "F57DE6B6-4221-4BA9-AC40-596577993E94",
      "properties" : {
        "name" : "阿喜素食",
        "address" : "台中市東區建成路500號"
      },
      "type" : "Feature",
      "geometry" : {
        "type" : "Point",
        "coordinates" : [
          120.69543659999999,
          24.1344517
        ]
      }
    },
    {
      "id" : "DAC6659F-8F2D-405B-BEA3-9664E4AE4594",
      "properties" : {
        "name" : "富貴健康素食",
        "address" : "台中市大雅區民生路一段66號"
      },
      "type" : "Feature",
      "geometry" : {
        "type" : "Point",
        "coordinates" : [
          120.6471907,
          24.226417099999999
        ]
      }
    },
    {
      "id" : "1DC10A0A-5071-45D2-96C5-A04FB96BB5EF",
      "properties" : {
        "name" : "綠鄉村素食",
        "address" : "台中市西屯區西屯路二段269-41號"
      },
      "type" : "Feature",
      "geometry" : {
        "type" : "Point",
        "coordinates" : [
          120.644338,
          24.173044999999998
        ]
      }
    },
    {
      "id" : "14673ED0-EF1A-4F62-8F8E-7EB1519FF1EC",
      "properties" : {
        "name" : "起若雅健康蔬食館",
        "address" : "台中市南屯區大墩十八街60號"
      },
      "type" : "Feature",
      "geometry" : {
        "type" : "Point",
        "coordinates" : [
          120.651515,
          24.156089000000001
        ]
      }
    },
    {
      "id" : "357B0BF8-2834-4F49-8B38-83756B3F336C",
      "properties" : {
        "name" : "慈恩素食",
        "address" : "台中市烏日區中山路二段213號"
      },
      "type" : "Feature",
      "geometry" : {
        "type" : "Point",
        "coordinates" : [
          120.625112,
          24.106066999999999
        ]
      }
    },
    {
      "id" : "407AFD80-3044-48CC-9605-5C2F97F755D6",
      "properties" : {
        "name" : "素食早點",
        "address" : "台中市南屯區田心北4巷1-1號"
      },
      "type" : "Feature",
      "geometry" : {
        "type" : "Point",
        "coordinates" : [
          120.63886100000001,
          24.138760000000001
        ]
      }
    },
    {
      "id" : "7E2E5017-E769-474F-A9D0-02472D4836F0",
      "properties" : {
        "name" : "福智素食 后里店",
        "address" : "台中市后里區三豐路345號"
      },
      "type" : "Feature",
      "geometry" : {
        "type" : "Point",
        "coordinates" : [
          120.7236046,
          24.305694200000001
        ]
      }
    },
    {
      "id" : "07D48762-BCB5-4053-9DAC-EBACC0B51822",
      "properties" : {
        "name" : "歡喜緣素食自助餐&麵攤",
        "address" : "台中市中區繼光街158號"
      },
      "type" : "Feature",
      "geometry" : {
        "type" : "Point",
        "coordinates" : [
          120.684444,
          24.140494
        ]
      }
    },
    {
      "id" : "0FCDB63A-02EF-450D-8039-4284EA82EF80",
      "properties" : {
        "name" : "四季村",
        "address" : "台中市東區大智路78號"
      },
      "type" : "Feature",
      "geometry" : {
        "type" : "Point",
        "coordinates" : [
          120.68870920000001,
          24.134423099999999
        ]
      }
    },
    {
      "id" : "DEAAA0B7-30C2-432E-B866-5F1D4E4A2BEF",
      "properties" : {
        "name" : "養心齋",
        "address" : "台中市大里區中興路二段136巷14號"
      },
      "type" : "Feature",
      "geometry" : {
        "type" : "Point",
        "coordinates" : [
          120.68803800000001,
          24.098597000000002
        ]
      }
    },
    {
      "id" : "4E050037-F606-4E69-9D71-515A1BD2B002",
      "properties" : {
        "name" : "小王子的花園",
        "address" : "台中市西屯區中平路178號"
      },
      "type" : "Feature",
      "geometry" : {
        "type" : "Point",
        "coordinates" : [
          120.662823,
          24.176107999999999
        ]
      }
    },
    {
      "id" : "CCEBDEB1-8CE5-48B4-A4D0-FA7EE143967C",
      "properties" : {
        "name" : "素食便當",
        "address" : "台中市后里區甲后路344號"
      },
      "type" : "Feature",
      "geometry" : {
        "type" : "Point",
        "coordinates" : [
          120.723887,
          24.308817999999999
        ]
      }
    },
    {
      "id" : "3BA50DB9-CD29-4286-88CE-5BB89EE4481D",
      "properties" : {
        "name" : "東東素食",
        "address" : "台中市北屯區北屯路158號"
      },
      "type" : "Feature",
      "geometry" : {
        "type" : "Point",
        "coordinates" : [
          120.694343,
          24.164739999999998
        ]
      }
    },
    {
      "id" : "C8B50F8F-B060-48DC-A10D-D299C59771E8",
      "properties" : {
        "name" : "隨喜素食",
        "address" : "台中市太平區育賢路85號"
      },
      "type" : "Feature",
      "geometry" : {
        "type" : "Point",
        "coordinates" : [
          120.722317,
          24.157609999999998
        ]
      }
    },
    {
      "id" : "45F8DF93-E555-4989-B06A-A5A6C57D29DF",
      "properties" : {
        "name" : "第二市場美景素食麵",
        "address" : "台中市中區台灣大道一段403巷1號"
      },
      "type" : "Feature",
      "geometry" : {
        "type" : "Point",
        "coordinates" : [
          120.67852980000001,
          24.143012899999999
        ]
      }
    },
    {
      "id" : "59A8F9F6-5B16-4635-BC00-94ADF7F8B752",
      "properties" : {
        "name" : "哈佛素食自助餐",
        "address" : "台中市北區學士路59號"
      },
      "type" : "Feature",
      "geometry" : {
        "type" : "Point",
        "coordinates" : [
          120.68190199999999,
          24.154330000000002
        ]
      }
    },
    {
      "id" : "42BA47B3-D91D-44F7-ABD5-97525189424B",
      "properties" : {
        "name" : "六一膳房 - 1980拾光．維根食坊",
        "address" : "台中市南區工學一街179巷15號"
      },
      "type" : "Feature",
      "geometry" : {
        "type" : "Point",
        "coordinates" : [
          120.665148,
          24.115693
        ]
      }
    },
    {
      "id" : "4DC62207-E0EF-46A8-AA7F-0A4597AD2B80",
      "properties" : {
        "name" : "甜點心球心型蛋糕",
        "address" : "台中市東區自由路三段219號"
      },
      "type" : "Feature",
      "geometry" : {
        "type" : "Point",
        "coordinates" : [
          120.69219699999999,
          24.142970999999999
        ]
      }
    },
    {
      "id" : "33A33D61-382E-474B-81A6-8FE6D0C58C4A",
      "properties" : {
        "name" : "阿婆素食",
        "address" : "台中市太平區長億六街53-10號"
      },
      "type" : "Feature",
      "geometry" : {
        "type" : "Point",
        "coordinates" : [
          120.71994100000001,
          24.114992999999998
        ]
      }
    },
    {
      "id" : "0DE7E929-A966-4086-86D5-1B9A79B7E85F",
      "properties" : {
        "name" : "素食麵",
        "address" : "台中市中區成功路與中華西街口"
      },
      "type" : "Feature",
      "geometry" : {
        "type" : "Point",
        "coordinates" : [
          120.6772754,
          24.145703399999999
        ]
      }
    },
    {
      "id" : "B761185D-A0D4-4436-8D5B-3F5B67D33ABE",
      "properties" : {
        "name" : "豆果全豆豆漿 向上店",
        "address" : "台中市西區向上南路一段219號"
      },
      "type" : "Feature",
      "geometry" : {
        "type" : "Point",
        "coordinates" : [
          120.650989,
          24.144817
        ]
      }
    },
    {
      "id" : "2230082E-E18F-4307-817B-C6F40181E5CC",
      "properties" : {
        "name" : "玉皇餐飲部",
        "address" : "台中市北屯區天津路四段112-1號"
      },
      "type" : "Feature",
      "geometry" : {
        "type" : "Point",
        "coordinates" : [
          120.688485,
          24.169067999999999
        ]
      }
    },
    {
      "id" : "98B3AC17-CA2A-4C06-84FC-E95B7BC5D3A3",
      "properties" : {
        "name" : "g奶木瓜牛乳",
        "address" : "台中市豐原區豐東路196號"
      },
      "type" : "Feature",
      "geometry" : {
        "type" : "Point",
        "coordinates" : [
          120.731054,
          24.249146
        ]
      }
    },
    {
      "id" : "E1D97D23-58B8-40F6-AC09-9C97FDCC9F7A",
      "properties" : {
        "name" : "健康素食",
        "address" : "台中市北屯區東山路一段188-4號"
      },
      "type" : "Feature",
      "geometry" : {
        "type" : "Point",
        "coordinates" : [
          120.70927039999999,
          24.170863199999999
        ]
      }
    },
    {
      "id" : "5B9AE5FF-C21B-4D3A-874F-DB74B6FD9863",
      "properties" : {
        "name" : "有機園",
        "address" : "台中市西屯區安和路99-38號"
      },
      "type" : "Feature",
      "geometry" : {
        "type" : "Point",
        "coordinates" : [
          120.61955709999999,
          24.1703607
        ]
      }
    },
    {
      "id" : "91FA2634-5596-4967-A049-9109B05D309F",
      "properties" : {
        "name" : "仁德素食",
        "address" : "台中市南區信義南街372號"
      },
      "type" : "Feature",
      "geometry" : {
        "type" : "Point",
        "coordinates" : [
          120.683398,
          24.131484
        ]
      }
    },
    {
      "id" : "D42CBEA4-5111-4ABA-97E6-3403D711D0E8",
      "properties" : {
        "name" : "素食麵&黑糖剉冰小吃攤",
        "address" : "台中市潭子區光陽路108號"
      },
      "type" : "Feature",
      "geometry" : {
        "type" : "Point",
        "coordinates" : [
          120.708474,
          24.210207
        ]
      }
    },
    {
      "id" : "9D188C1B-689F-4C85-BED8-D0E7AAD4CA60",
      "properties" : {
        "name" : "素素窖臭臭鍋",
        "address" : "台中市清水區文昌街5號"
      },
      "type" : "Feature",
      "geometry" : {
        "type" : "Point",
        "coordinates" : [
          120.577367,
          24.269587999999999
        ]
      }
    },
    {
      "id" : "2C77781F-6594-4AA4-A5FE-FB1CBF51178F",
      "properties" : {
        "name" : "十方蔬食館",
        "address" : "台中市北區五義街130號"
      },
      "type" : "Feature",
      "geometry" : {
        "type" : "Point",
        "coordinates" : [
          120.681579,
          24.154689999999999
        ]
      }
    },
    {
      "id" : "D9DBB03D-06E0-4983-B799-2B5763F3A737",
      "properties" : {
        "name" : "天得素食",
        "address" : "台中市大雅區學府路144號"
      },
      "type" : "Feature",
      "geometry" : {
        "type" : "Point",
        "coordinates" : [
          120.65037700000001,
          24.220181
        ]
      }
    },
    {
      "id" : "7A6A6B71-04C2-49E0-A356-A193CC5A5807",
      "properties" : {
        "name" : "緣素食",
        "address" : "台中市北屯區東山路一段197-27號"
      },
      "type" : "Feature",
      "geometry" : {
        "type" : "Point",
        "coordinates" : [
          120.710551,
          24.171991999999999
        ]
      }
    },
    {
      "id" : "D2E98ADD-11F2-4A4E-9611-2FA0E24DF7EE",
      "properties" : {
        "name" : "素芝香素食鹽酥基",
        "address" : "台中市太平區樹德路16-7號"
      },
      "type" : "Feature",
      "geometry" : {
        "type" : "Point",
        "coordinates" : [
          120.710857,
          24.150352000000002
        ]
      }
    },
    {
      "id" : "AA3AAEE6-2CD1-4C44-B2E7-CCC979072F6A",
      "properties" : {
        "name" : "蔬心圓素食",
        "address" : "台中市北區西屯路一段247號"
      },
      "type" : "Feature",
      "geometry" : {
        "type" : "Point",
        "coordinates" : [
          120.668702,
          24.155570000000001
        ]
      }
    },
    {
      "id" : "E9258AF8-AD4B-4AC2-959A-08F6ECFF2325",
      "properties" : {
        "name" : "聚眾緣麵館",
        "address" : "台中市西屯區大墩二十街109號"
      },
      "type" : "Feature",
      "geometry" : {
        "type" : "Point",
        "coordinates" : [
          120.652798,
          24.159293000000002
        ]
      }
    },
    {
      "id" : "21B9FD33-4077-446F-9066-F8416A16F8CF",
      "properties" : {
        "name" : "如來素食",
        "address" : "台中市大雅區學府路244號"
      },
      "type" : "Feature",
      "geometry" : {
        "type" : "Point",
        "coordinates" : [
          120.64986500000001,
          24.222826000000001
        ]
      }
    },
    {
      "id" : "935042BE-5039-4A26-91F7-5D718DEC2220",
      "properties" : {
        "name" : "劉媽媽小吃店",
        "address" : "台中市東勢區東勢路569號"
      },
      "type" : "Feature",
      "geometry" : {
        "type" : "Point",
        "coordinates" : [
          120.8283381,
          24.256223299999998
        ]
      }
    },
    {
      "id" : "0CF3577F-5CC5-49B9-8344-811CC65594D4",
      "properties" : {
        "name" : "台灣氧茶",
        "address" : "台中市大雅區民生路一段236號"
      },
      "type" : "Feature",
      "geometry" : {
        "type" : "Point",
        "coordinates" : [
          120.651579,
          24.227741999999999
        ]
      }
    },
    {
      "id" : "50A90716-3DB9-4763-A7F5-2D90C050CC0F",
      "properties" : {
        "name" : "永明素食",
        "address" : "台中市西屯區逢甲路20巷28弄2號"
      },
      "type" : "Feature",
      "geometry" : {
        "type" : "Point",
        "coordinates" : [
          120.646036,
          24.179867999999999
        ]
      }
    },
    {
      "id" : "AA89623C-922E-4AAC-BE0C-8F3AF92763FD",
      "properties" : {
        "name" : "21臭豆腐",
        "address" : "台中市北區一中街21號"
      },
      "type" : "Feature",
      "geometry" : {
        "type" : "Point",
        "coordinates" : [
          120.684022,
          24.147210999999999
        ]
      }
    },
    {
      "id" : "3F402A1D-3462-45E9-80A9-0E3FC4D2C811",
      "properties" : {
        "name" : "蔬享樂素食滷味",
        "address" : "台中市東區復興路四段186號"
      },
      "type" : "Feature",
      "geometry" : {
        "type" : "Point",
        "coordinates" : [
          120.687618,
          24.136189000000002
        ]
      }
    },
    {
      "id" : "5E9532C6-DA78-4257-A246-95A0C812524E",
      "properties" : {
        "name" : "順心素食館",
        "address" : "台中市大雅區民生路三段86號"
      },
      "type" : "Feature",
      "geometry" : {
        "type" : "Point",
        "coordinates" : [
          120.658432,
          24.23085
        ]
      }
    },
    {
      "id" : "60F920D3-6687-43A8-B4D4-99B872F81370",
      "properties" : {
        "name" : "古早味素食養生粥",
        "address" : "台中市北屯區大連路一段56號"
      },
      "type" : "Feature",
      "geometry" : {
        "type" : "Point",
        "coordinates" : [
          120.672578,
          24.175739
        ]
      }
    },
    {
      "id" : "23757801-0447-483F-81A4-57CB67A550FF",
      "properties" : {
        "name" : "悅田食品",
        "address" : "台中市北屯區軍和街227巷22弄4號"
      },
      "type" : "Feature",
      "geometry" : {
        "type" : "Point",
        "coordinates" : [
          120.720568,
          24.177758999999998
        ]
      }
    },
    {
      "id" : "9AFC0B06-3084-44D8-930D-997EC087175F",
      "properties" : {
        "name" : "魔豆手作社",
        "address" : "台中市西屯區漢口路二段22號"
      },
      "type" : "Feature",
      "geometry" : {
        "type" : "Point",
        "coordinates" : [
          120.65803200000001,
          24.163170999999998
        ]
      }
    },
    {
      "id" : "F0D1CDF0-AB70-4C64-A435-F28FCB8BA2E5",
      "properties" : {
        "name" : "秋町菇菇燒 手作小丸子",
        "address" : "台中市西區中美街155號"
      },
      "type" : "Feature",
      "geometry" : {
        "type" : "Point",
        "coordinates" : [
          120.659975,
          24.146166999999998
        ]
      }
    },
    {
      "id" : "5D1D0C05-6F4B-4939-8FFD-C3136D26D4E3",
      "properties" : {
        "name" : "慈因素食",
        "address" : "台中市潭子區大明一路55號"
      },
      "type" : "Feature",
      "geometry" : {
        "type" : "Point",
        "coordinates" : [
          120.675742,
          24.204025999999999
        ]
      }
    },
    {
      "id" : "28DA0BBD-D472-4144-A4AA-9BEFA3BEA75E",
      "properties" : {
        "name" : "天然素食",
        "address" : "台中市北區篤行路39號"
      },
      "type" : "Feature",
      "geometry" : {
        "type" : "Point",
        "coordinates" : [
          120.677072,
          24.146937000000001
        ]
      }
    },
    {
      "id" : "E0D094D0-CDFF-4B0D-BA7D-4E6F852E2E89",
      "properties" : {
        "name" : "素膳房 臭臭鍋 滷味",
        "address" : "台中市豐原區博愛街158號"
      },
      "type" : "Feature",
      "geometry" : {
        "type" : "Point",
        "coordinates" : [
          120.71873100000001,
          24.247924999999999
        ]
      }
    },
    {
      "id" : "5BF7A688-52BF-43A0-9751-F35F84615433",
      "properties" : {
        "name" : "天慈素食",
        "address" : "台中市西區忠明南路384號"
      },
      "type" : "Feature",
      "geometry" : {
        "type" : "Point",
        "coordinates" : [
          120.65705,
          24.136047999999999
        ]
      }
    },
    {
      "id" : "89807AE3-0582-44C2-A81E-D9D5220C01FD",
      "properties" : {
        "name" : "一心素食",
        "address" : "台中市西屯區福星路461巷2號"
      },
      "type" : "Feature",
      "geometry" : {
        "type" : "Point",
        "coordinates" : [
          120.6453346,
          24.177762699999999
        ]
      }
    },
    {
      "id" : "FD5B6DCB-E823-4BB4-883C-E9E47D466BB9",
      "properties" : {
        "name" : "天然養生菇麵線",
        "address" : "台中市梧棲區民生街東建路口 農會全聯社右手邊"
      },
      "type" : "Feature",
      "geometry" : {
        "type" : "Point",
        "coordinates" : [
          120.53625390000001,
          24.2526148
        ]
      }
    },
    {
      "id" : "39BC0B2B-345B-4D5B-AA38-B235AE107E7C",
      "properties" : {
        "name" : "蔬菜盒子",
        "address" : "台中市大甲區南陽街27號"
      },
      "type" : "Feature",
      "geometry" : {
        "type" : "Point",
        "coordinates" : [
          120.625259,
          24.341794
        ]
      }
    },
    {
      "id" : "0E10781D-0720-4B88-8D3D-37C91AB0761F",
      "properties" : {
        "name" : "分享蔬食",
        "address" : "台中市大里區西榮路90號"
      },
      "type" : "Feature",
      "geometry" : {
        "type" : "Point",
        "coordinates" : [
          120.686089,
          24.112745
        ]
      }
    },
    {
      "id" : "4F814AC8-C248-447D-8027-4B2814AB6B56",
      "properties" : {
        "name" : "素食。堂",
        "address" : "台中市太平區長億路7號"
      },
      "type" : "Feature",
      "geometry" : {
        "type" : "Point",
        "coordinates" : [
          120.720778,
          24.118967000000001
        ]
      }
    },
    {
      "id" : "55C6464B-3248-4F0C-B19F-84EAECE9A4BF",
      "properties" : {
        "name" : "老竹海苔飯捲",
        "address" : "台中市南區高工路326號"
      },
      "type" : "Feature",
      "geometry" : {
        "type" : "Point",
        "coordinates" : [
          120.66622599999999,
          24.113918000000002
        ]
      }
    },
    {
      "id" : "4B8616F2-B26E-4596-A867-A6563CA1F3E8",
      "properties" : {
        "name" : "傳祥園",
        "address" : "台中市西屯區大容西街69號"
      },
      "type" : "Feature",
      "geometry" : {
        "type" : "Point",
        "coordinates" : [
          120.648715,
          24.158089
        ]
      }
    },
    {
      "id" : "CA9354CF-28F8-40CC-AFE0-6E241D9AEEB3",
      "properties" : {
        "name" : "素珍齋人文素食館",
        "address" : "台中市潭子區中山路二段391巷21號"
      },
      "type" : "Feature",
      "geometry" : {
        "type" : "Point",
        "coordinates" : [
          120.70408399999999,
          24.212781
        ]
      }
    },
    {
      "id" : "E620F924-351E-4229-816A-97F08D8849A8",
      "properties" : {
        "name" : "戴記獨臭之家臭豆腐專賣店",
        "address" : "台中市北區五常街167號"
      },
      "type" : "Feature",
      "geometry" : {
        "type" : "Point",
        "coordinates" : [
          120.67979099999999,
          24.158629000000001
        ]
      }
    },
    {
      "id" : "26E9D94E-C250-42D0-AB64-B1AA4276381E",
      "properties" : {
        "name" : "美好素食",
        "address" : "台中市神岡區和睦路91號"
      },
      "type" : "Feature",
      "geometry" : {
        "type" : "Point",
        "coordinates" : [
          120.656317,
          24.257746999999998
        ]
      }
    },
    {
      "id" : "434103C8-7B33-46D5-8891-2D81EF8231EF",
      "properties" : {
        "name" : "滴水坊",
        "address" : "台中市南屯區惠中路三段65號"
      },
      "type" : "Feature",
      "geometry" : {
        "type" : "Point",
        "coordinates" : [
          120.64101700000001,
          24.149096
        ]
      }
    },
    {
      "id" : "EF9CF078-2E0B-4F08-AAE4-230E52CF8FEE",
      "properties" : {
        "name" : "口味素食",
        "address" : "台中市豐原區博愛街174號"
      },
      "type" : "Feature",
      "geometry" : {
        "type" : "Point",
        "coordinates" : [
          120.718441,
          24.247751999999998
        ]
      }
    },
    {
      "id" : "52E0B8D3-9A54-482A-A4EA-FD8C6679D0C8",
      "properties" : {
        "name" : "洪菇炸菇洪姑炸菇",
        "address" : "台中市大里區新仁路二段186號"
      },
      "type" : "Feature",
      "geometry" : {
        "type" : "Point",
        "coordinates" : [
          120.692517,
          24.112089999999998
        ]
      }
    },
    {
      "id" : "767B2D4B-D0B8-49FC-8DC1-907F4FAE4D98",
      "properties" : {
        "name" : "VegFarm 無國界蔬食餐廳",
        "address" : "台中市南屯區大墩路469號"
      },
      "type" : "Feature",
      "geometry" : {
        "type" : "Point",
        "coordinates" : [
          120.649642,
          24.147516
        ]
      }
    },
    {
      "id" : "617F60C6-CF7B-4447-8580-D3D6EA91D469",
      "properties" : {
        "name" : "上品素食茶坊",
        "address" : "台中市太平區立德街40號"
      },
      "type" : "Feature",
      "geometry" : {
        "type" : "Point",
        "coordinates" : [
          120.712265,
          24.152270999999999
        ]
      }
    },
    {
      "id" : "C632CE9F-731A-4FD1-A4E3-FC877D9BF77A",
      "properties" : {
        "name" : "彰化明道素食",
        "address" : "台中市中區柳川西路三段8號"
      },
      "type" : "Feature",
      "geometry" : {
        "type" : "Point",
        "coordinates" : [
          120.67613900000001,
          24.142099000000002
        ]
      }
    },
    {
      "id" : "33E6256D-0C61-4C78-95D0-68C6F9945C18",
      "properties" : {
        "name" : "素食滷味",
        "address" : "台中市豐原區圓環北路二段259號"
      },
      "type" : "Feature",
      "geometry" : {
        "type" : "Point",
        "coordinates" : [
          120.725741,
          24.260362000000001
        ]
      }
    },
    {
      "id" : "B924FCF2-1F2F-43D9-B4FF-E61AA7405527",
      "properties" : {
        "name" : "Vima House 維摩舍",
        "address" : "台中市大里區永隆路153號"
      },
      "type" : "Feature",
      "geometry" : {
        "type" : "Point",
        "coordinates" : [
          120.67659399999999,
          24.107060000000001
        ]
      }
    },
    {
      "id" : "5DB8FF82-A3D6-442A-B023-5FA5E4C1865C",
      "properties" : {
        "name" : "建華素食",
        "address" : "台中市西區樂群街50-6號"
      },
      "type" : "Feature",
      "geometry" : {
        "type" : "Point",
        "coordinates" : [
          120.67218,
          24.139002999999999
        ]
      }
    },
    {
      "id" : "462D0AF4-757A-4D3A-8A5F-C290597C574E",
      "properties" : {
        "name" : "忠義素食",
        "address" : "台中市北屯區中清路112-97號"
      },
      "type" : "Feature",
      "geometry" : {
        "type" : "Point",
        "coordinates" : [
          120.68614599999999,
          24.181560999999999
        ]
      }
    },
    {
      "id" : "375A4D8C-E2ED-4388-8B68-FBC039366D46",
      "properties" : {
        "name" : "玖琻食堂 - 關東煮、拉麵",
        "address" : "台中市大里區善化路63號"
      },
      "type" : "Feature",
      "geometry" : {
        "type" : "Point",
        "coordinates" : [
          120.701454,
          24.096474000000001
        ]
      }
    },
    {
      "id" : "28DC4E21-1C3B-43A1-A361-FE8CCABC13AC",
      "properties" : {
        "name" : "如是我聞韓式海苔飯捲",
        "address" : "台中市北屯區興安路一段246號"
      },
      "type" : "Feature",
      "geometry" : {
        "type" : "Point",
        "coordinates" : [
          120.694525,
          24.171953999999999
        ]
      }
    },
    {
      "id" : "50EC1FD0-53CE-4188-AD01-57D69C677CF2",
      "properties" : {
        "name" : "得來素蔬食連鎖餐飲",
        "address" : "台中市北區永興街6號"
      },
      "type" : "Feature",
      "geometry" : {
        "type" : "Point",
        "coordinates" : [
          120.68242600000001,
          24.158501999999999
        ]
      }
    },
    {
      "id" : "72D6E149-AD20-4D99-9817-77F71755B493",
      "properties" : {
        "name" : "素食臭豆腐",
        "address" : "台中市北屯區昌平路二段43-16號"
      },
      "type" : "Feature",
      "geometry" : {
        "type" : "Point",
        "coordinates" : [
          120.684431,
          24.190769
        ]
      }
    },
    {
      "id" : "2DB17646-02EB-4508-8996-CC318118E00F",
      "properties" : {
        "name" : "古早味養生素食",
        "address" : "台中市西屯區長安路二段11巷7號"
      },
      "type" : "Feature",
      "geometry" : {
        "type" : "Point",
        "coordinates" : [
          120.66111600000001,
          24.172979000000002
        ]
      }
    },
    {
      "id" : "315CD67C-7434-46F6-932C-F0452EB314ED",
      "properties" : {
        "name" : "芬德角蔬食園",
        "address" : "台中市北屯區松竹路二段115號"
      },
      "type" : "Feature",
      "geometry" : {
        "type" : "Point",
        "coordinates" : [
          120.697142,
          24.182953999999999
        ]
      }
    },
    {
      "id" : "E699F9F0-5CCB-4997-AF69-73BF06242A50",
      "properties" : {
        "name" : "宏騏素料批發商行",
        "address" : "台中市北屯區太順路8號"
      },
      "type" : "Feature",
      "geometry" : {
        "type" : "Point",
        "coordinates" : [
          120.7168925,
          24.159981599999998
        ]
      }
    },
    {
      "id" : "0162ECE4-E758-42BC-821E-05C669759339",
      "properties" : {
        "name" : "空也蔬食",
        "address" : "台中市西屯區朝富五街10號"
      },
      "type" : "Feature",
      "geometry" : {
        "type" : "Point",
        "coordinates" : [
          120.634981,
          24.163758999999999
        ]
      }
    },
    {
      "id" : "2F76D1ED-73D0-44B6-8E65-7673E43A295D",
      "properties" : {
        "name" : "澄鮮中西素食早餐店",
        "address" : "台中市大里區益民路二段52巷41號"
      },
      "type" : "Feature",
      "geometry" : {
        "type" : "Point",
        "coordinates" : [
          120.68667499999999,
          24.108172
        ]
      }
    },
    {
      "id" : "0531B782-6376-422D-A179-2C4EE96B72FC",
      "properties" : {
        "name" : "天天素食自助餐",
        "address" : "台中市大里區大里路38-9號"
      },
      "type" : "Feature",
      "geometry" : {
        "type" : "Point",
        "coordinates" : [
          120.68848199999999,
          24.106877000000001
        ]
      }
    },
    {
      "id" : "05A61CEE-3C3C-4AD3-8126-F764CAF4A8DB",
      "properties" : {
        "name" : "金桔健康養身蔬食",
        "address" : "台中市西區大忠街99號"
      },
      "type" : "Feature",
      "geometry" : {
        "type" : "Point",
        "coordinates" : [
          120.656567,
          24.150507000000001
        ]
      }
    },
    {
      "id" : "CF749E1C-5B5F-4190-B5CF-3FEDA9A53F8C",
      "properties" : {
        "name" : "素芝鄉蔬食小館",
        "address" : "台中市南區工學北路167號"
      },
      "type" : "Feature",
      "geometry" : {
        "type" : "Point",
        "coordinates" : [
          120.658348,
          24.116327999999999
        ]
      }
    },
    {
      "id" : "F2F9B4F8-911F-45BF-A9BF-71AA9BA71DB4",
      "properties" : {
        "name" : "圓緣緣素食",
        "address" : "台中市西區精誠路39-8號"
      },
      "type" : "Feature",
      "geometry" : {
        "type" : "Point",
        "coordinates" : [
          120.655384,
          24.154073
        ]
      }
    },
    {
      "id" : "659A192F-9753-4F61-AAF8-9FC5A1387AF8",
      "properties" : {
        "name" : "妙如蔬食早餐坊",
        "address" : "台中市太平區中山路四段106號"
      },
      "type" : "Feature",
      "geometry" : {
        "type" : "Point",
        "coordinates" : [
          120.70495320000001,
          24.1484326
        ]
      }
    },
    {
      "id" : "0AE3975D-4D27-4C0A-BE00-4D4D8730B778",
      "properties" : {
        "name" : "歡喜佛素食餐館",
        "address" : "台中市大雅區永和路118-38號"
      },
      "type" : "Feature",
      "geometry" : {
        "type" : "Point",
        "coordinates" : [
          120.637638,
          24.216898
        ]
      }
    },
    {
      "id" : "94DCBBF7-DDEE-4B0E-BA62-47A44BD64E21",
      "properties" : {
        "name" : "慈懋素食館",
        "address" : "台中市南區合作街13巷9號"
      },
      "type" : "Feature",
      "geometry" : {
        "type" : "Point",
        "coordinates" : [
          120.681748,
          24.130721000000001
        ]
      }
    },
    {
      "id" : "194F9FCC-521F-4805-80DF-166F3ADC3F67",
      "properties" : {
        "name" : "來來餐館",
        "address" : "台中市南區高工路100號"
      },
      "type" : "Feature",
      "geometry" : {
        "type" : "Point",
        "coordinates" : [
          120.65947199999999,
          24.113052
        ]
      }
    },
    {
      "id" : "806FA84C-0E84-4A42-936E-1B526AB0FE03",
      "properties" : {
        "name" : "菩慧素食快餐",
        "address" : "台中市豐原區南陽路309號"
      },
      "type" : "Feature",
      "geometry" : {
        "type" : "Point",
        "coordinates" : [
          120.726201,
          24.245532000000001
        ]
      }
    },
    {
      "id" : "D265BC6F-E974-403E-9B9E-020D91461BA7",
      "properties" : {
        "name" : "小潛艇素食養生創意料理",
        "address" : "台中市南區永和一街41號"
      },
      "type" : "Feature",
      "geometry" : {
        "type" : "Point",
        "coordinates" : [
          120.673542,
          24.125813999999998
        ]
      }
    },
    {
      "id" : "D2360B15-6776-4472-8C76-AD29CE2DE4E7",
      "properties" : {
        "name" : "草根蔬食滷味燙",
        "address" : "台中市大雅區雅環路一段273號"
      },
      "type" : "Feature",
      "geometry" : {
        "type" : "Point",
        "coordinates" : [
          120.65349399999999,
          24.222275
        ]
      }
    },
    {
      "id" : "183AD8B4-0784-4598-9F6A-92AA029BFFED",
      "properties" : {
        "name" : "天恩素食餐廳",
        "address" : "台中市南屯區環中路四段2號"
      },
      "type" : "Feature",
      "geometry" : {
        "type" : "Point",
        "coordinates" : [
          120.62203700000001,
          24.147773000000001
        ]
      }
    },
    {
      "id" : "4511D90F-5BA7-409D-A3E4-D0ACC42464FE",
      "properties" : {
        "name" : "祈鴻齋素食",
        "address" : "台中市潭子區頭張路二段29號"
      },
      "type" : "Feature",
      "geometry" : {
        "type" : "Point",
        "coordinates" : [
          120.697434,
          24.194244000000001
        ]
      }
    },
    {
      "id" : "CBF42A19-D9AC-4B43-ACC2-8FE920026A53",
      "properties" : {
        "name" : "Homie蔬適咖啡廳",
        "address" : "台中市西屯區惠中路三段17號"
      },
      "type" : "Feature",
      "geometry" : {
        "type" : "Point",
        "coordinates" : [
          120.640907,
          24.150341999999998
        ]
      }
    },
    {
      "id" : "CD850F2A-9E28-4EEE-84D8-774636236A33",
      "properties" : {
        "name" : "Vege Creek 蔬河 ",
        "address" : "台中市西區美村路一段117巷23號"
      },
      "type" : "Feature",
      "geometry" : {
        "type" : "Point",
        "coordinates" : [
          120.662677,
          24.152207000000001
        ]
      }
    },
    {
      "id" : "A4BF17FB-644E-47DD-9DA6-0FE30BB1787C",
      "properties" : {
        "name" : "筱龍素食館",
        "address" : "台中市潭子區復興路一段192號"
      },
      "type" : "Feature",
      "geometry" : {
        "type" : "Point",
        "coordinates" : [
          120.706779,
          24.205753000000001
        ]
      }
    },
    {
      "id" : "15540DB8-7957-4C37-A9D0-009A352B63A6",
      "properties" : {
        "name" : "慧素食",
        "address" : "台中市北屯區松竹路一段145巷23號"
      },