{
  "type" : "FeatureCollection",
  "features" : [
    {
      "type" : "Feature",
      "geometry" : {
        "type" : "Point",
        "coordinates" : [
          120.718568,
          24.253198999999999
        ]
      },
      "properties" : {
        "name" : "築夢",
        "address" : "台中市豐原區信義街169號"
      }
    },
    {
      "type" : "Feature",
      "geometry" : {
        "type" : "Point",
        "coordinates" : [
          120.707066,
          24.213197999999998
        ]
      },
      "properties" : {
        "name" : "品心素食",
        "address" : "台中市潭子區潭子街二段94號"
      }
    },
    {
      "type" : "Feature",
      "geometry" : {
        "type" : "Point",
        "coordinates" : [
          120.7134155,
          24.182541400000002
        ]
      },
      "properties" : {
        "name" : "陶然左岸蔬食buffet",
        "address" : "台中市北屯區松竹路一段468-1號"
      }
    },
    {
      "type" : "Feature",
      "geometry" : {
        "type" : "Point",
        "coordinates" : [
          120.68884,
          24.188117999999999
        ]
      },
      "properties" : {
        "name" : "蔬食如意 Lucky Vegetrian",
        "address" : "台中市北屯區崇德十路一段407號"
      }
    },
    {
      "type" : "Feature",
      "geometry" : {
        "type" : "Point",
        "coordinates" : [
          120.680854,
          24.136534999999999
        ]
      },
      "properties" : {
        "name" : "Veganday Cafe 瑪登布魯",
        "address" : "台中市西區民權路53巷3-1號"
      }
    },
    {
      "type" : "Feature",
      "geometry" : {
        "type" : "Point",
        "coordinates" : [
          120.637958,
          24.138725999999998
        ]
      },
      "properties" : {
        "name" : "久安饅頭",
        "address" : "台中市南屯區黎明路一段1028號"
      }
    },
    {
      "type" : "Feature",
      "geometry" : {
        "type" : "Point",
        "coordinates" : [
          120.681963,
          24.128824999999999
        ]
      },
      "properties" : {
        "name" : "不二心素食",
        "address" : "台中市南區合作街47號"
      }
    },
    {
      "type" : "Feature",
      "geometry" : {
        "type" : "Point",
        "coordinates" : [
          120.638868,
          24.181218999999999
        ]
      },
      "properties" : {
        "name" : "楊老爹素食",
        "address" : "台中市西屯區永福路22巷28號"
      }
    },
    {
      "type" : "Feature",
      "geometry" : {
        "type" : "Point",
        "coordinates" : [
          120.617683,
          24.175332000000001
        ]
      },
      "properties" : {
        "name" : "天沁園素食",
        "address" : "台中市西屯區中工三路243號"
      }
    },
    {
      "type" : "Feature",
      "geometry" : {
        "type" : "Point",
        "coordinates" : [
          120.71362999999999,
          24.124876
        ]
      },
      "properties" : {
        "name" : "元合亞蔬食房",
        "address" : "台中市太平區永豐路9號"
      }
    },
    {
      "type" : "Feature",
      "geometry" : {
        "type" : "Point",
        "coordinates" : [
          120.690544,
          24.163207
        ]
      },
      "properties" : {
        "name" : "越南素食風味",
        "address" : "台中市北屯區進化北路8號"
      }
    },
    {
      "type" : "Feature",
      "geometry" : {
        "type" : "Point",
        "coordinates" : [
          120.707351,
          24.246821000000001
        ]
      },
      "properties" : {
        "name" : "東林青草行",
        "address" : "台中市豐原區成功路265號"
      }
    },
    {
      "type" : "Feature",
      "geometry" : {
        "type" : "Point",
        "coordinates" : [
          120.687809,
          24.129397999999998
        ]
      },
      "properties" : {
        "name" : "原素小麵館",
        "address" : "台中市東區建德街92號"
      }
    },
    {
      "type" : "Feature",
      "geometry" : {
        "type" : "Point",
        "coordinates" : [
          120.644943,
          24.138066999999999
        ]
      },
      "properties" : {
        "name" : "Veg Funky 填飽胃蔬食",
        "address" : "台中市南屯區南屯路二段426號"
      }
    },
    {
      "type" : "Feature",
      "geometry" : {
        "type" : "Point",
        "coordinates" : [
          120.66805600000001,
          24.117025999999999
        ]
      },
      "properties" : {
        "name" : "澄心蔬食小館",
        "address" : "台中市南區工學路6-7號"
      }
    },
    {
      "type" : "Feature",
      "geometry" : {
        "type" : "Point",
        "coordinates" : [
          120.6701829,
          24.177658600000001
        ]
      },
      "properties" : {
        "name" : "大樹下 十方素食",
        "address" : "台中市北屯區四平路24號"
      }
    },
    {
      "type" : "Feature",
      "geometry" : {
        "type" : "Point",
        "coordinates" : [
          120.71554399999999,
          24.251064
        ]
      },
      "properties" : {
        "name" : "一如我見",
        "address" : "台中市豐原區中正路307號"
      }
    },
    {
      "type" : "Feature",
      "geometry" : {
        "type" : "Point",
        "coordinates" : [
          120.645949,
          24.169295000000002
        ]
      },
      "properties" : {
        "name" : "萬人素食館",
        "address" : "台中市西屯區青海路二段193巷6號"
      }
    },
    {
      "type" : "Feature",
      "geometry" : {
        "type" : "Point",
        "coordinates" : [
          120.636921,
          24.171303000000002
        ]
      },
      "properties" : {
        "name" : "大光明健康養生蔬食館",
        "address" : "台中市西屯區黎明路三段6號"
      }
    },
    {
      "type" : "Feature",
      "geometry" : {
        "type" : "Point",
        "coordinates" : [
          120.685661,
          24.151157000000001
        ]
      },
      "properties" : {
        "name" : "幸福小丸子",
        "address" : "台中市北區一中街145號"
      }
    },
    {
      "type" : "Feature",
      "geometry" : {
        "type" : "Point",
        "coordinates" : [
          120.740193,
          24.179400999999999
        ]
      },
      "properties" : {
        "name" : "老芋仔芋圓",
        "address" : "台中市北屯區東山路二段37號"
      }
    },
    {
      "type" : "Feature",
      "geometry" : {
        "type" : "Point",
        "coordinates" : [
          120.653238,
          24.135998000000001
        ]
      },
      "properties" : {
        "name" : "富吉健康素食",
        "address" : "台中市南屯區東興路二段6號"
      }
    },
    {
      "type" : "Feature",
      "geometry" : {
        "type" : "Point",
        "coordinates" : [
          120.642562,
          24.179473000000002
        ]
      },
      "properties" : {
        "name" : "Veges M 饗蔬職人",
        "address" : "台中市西屯區烈美街108號"
      }
    },
    {
      "type" : "Feature",
      "geometry" : {
        "type" : "Point",
        "coordinates" : [
          120.719641,
          24.252420999999998
        ]
      },
      "properties" : {
        "name" : "亮亮冰&Bling Bling",
        "address" : "台中市豐原區新生北路80號"
      }
    },
    {
      "type" : "Feature",
      "geometry" : {
        "type" : "Point",
        "coordinates" : [
          120.71918700000001,
          24.251465
        ]
      },
      "properties" : {
        "name" : "素胃王蔬食關東煮、米糕",
        "address" : "台中市豐原區中正路167巷2號"
      }
    },
    {
      "type" : "Feature",
      "geometry" : {
        "type" : "Point",
        "coordinates" : [
          120.61830399999999,
          24.178087000000001
        ]
      },
      "properties" : {
        "name" : "怡香健康素食館",
        "address" : "台中市西屯區中工三路126號"
      }
    },
    {
      "type" : "Feature",
      "geometry" : {
        "type" : "Point",
        "coordinates" : [
          120.63852199999999,
          24.106857999999999
        ]
      },
      "properties" : {
        "name" : "紅品素炸屋",
        "address" : "台中市烏日區興祥街58號"
      }
    },
    {
      "type" : "Feature",
      "geometry" : {
        "type" : "Point",
        "coordinates" : [
          120.70848599999999,
          24.210846
        ]
      },
      "properties" : {
        "name" : "圓明素食",
        "address" : "台中市潭子區潭興路二段426號"
      }
    },
    {
      "type" : "Feature",
      "geometry" : {
        "type" : "Point",
        "coordinates" : [
          120.68265100000001,
          24.134708
        ]
      },
      "properties" : {
        "name" : "易素緣",
        "address" : "台中市南區台中路40號"
      }
    },
    {
      "type" : "Feature",
      "geometry" : {
        "type" : "Point",
        "coordinates" : [
          120.562192,
          24.239736000000001
        ]
      },
      "properties" : {
        "name" : "UGE呷飯店",
        "address" : "台中市沙鹿區文昌街133號"
      }
    },
    {
      "type" : "Feature",
      "geometry" : {
        "type" : "Point",
        "coordinates" : [
          120.61944200000001,
          24.181372
        ]
      },
      "properties" : {
        "name" : "給足麵子創意素食",
        "address" : "台中市西屯區台灣大道四段850號"
      }
    },
    {
      "type" : "Feature",
      "geometry" : {
        "type" : "Point",
        "coordinates" : [
          120.68971999999999,
          24.165061000000001
        ]
      },
      "properties" : {
        "name" : "華陀素食",
        "address" : "台中市北屯區太原路三段135號"
      }
    },
    {
      "type" : "Feature",
      "geometry" : {
        "type" : "Point",
        "coordinates" : [
          120.68217300000001,
          24.109527
        ]
      },
      "properties" : {
        "name" : "弘翎蔬食屋",
        "address" : "台中市大里區永興路146號"
      }
    },
    {
      "type" : "Feature",
      "geometry" : {
        "type" : "Point",
        "coordinates" : [
          120.660077,
          24.147161000000001
        ]
      },
      "properties" : {
        "name" : "寬心齋素食",
        "address" : "台中市西區中美街187號"
      }
    },
    {
      "type" : "Feature",
      "geometry" : {
        "type" : "Point",
        "coordinates" : [
          120.691036,
          24.175125000000001
        ]
      },
      "properties" : {
        "name" : "朱家蔬食",
        "address" : "台中市北屯區安順東九街71號"
      }
    },
    {
      "type" : "Feature",
      "geometry" : {
        "type" : "Point",
        "coordinates" : [
          120.68246600000001,
          24.139167
        ]
      },
      "properties" : {
        "name" : "紅磚餐廳",
        "address" : "台中市中區繼光街75號"
      }
    },
    {
      "type" : "Feature",
      "geometry" : {
        "type" : "Point",
        "coordinates" : [
          120.70838500000001,
          24.086093000000002
        ]
      },
      "properties" : {
        "name" : "素食",
        "address" : "台中市大里區美群路26號"
      }
    },
    {
      "type" : "Feature",
      "geometry" : {
        "type" : "Point",
        "coordinates" : [
          120.690056,
          24.160264000000002
        ]
      },
      "properties" : {
        "name" : "和馨素食",
        "address" : "台中市北區梅亭街42-1號"
      }
    },
    {
      "type" : "Feature",
      "geometry" : {
        "type" : "Point",
        "coordinates" : [
          120.6711377,
          24.178828899999999
        ]
      },
      "properties" : {
        "name" : "麒麟素食小館",
        "address" : "台中市北屯區四平路50號"
      }
    },
    {
      "type" : "Feature",
      "geometry" : {
        "type" : "Point",
        "coordinates" : [
          120.63520699999999,
          24.146256999999999
        ]
      },
      "properties" : {
        "name" : "初一素蔬食自助餐館",
        "address" : "台中市南屯區向上路三段55號"
      }
    },
    {
      "type" : "Feature",
      "geometry" : {
        "type" : "Point",
        "coordinates" : [
          120.72109399999999,
          24.258516
        ]
      },
      "properties" : {
        "name" : "嫻幸福素食",
        "address" : "台中市豐原區三豐路一段158號"
      }
    },
    {
      "type" : "Feature",
      "geometry" : {
        "type" : "Point",
        "coordinates" : [
          120.67024600000001,
          24.1221
        ]
      },
      "properties" : {
        "name" : "美德素食麵包",
        "address" : "台中市南區五權南路318-1"
      }
    },
    {
      "type" : "Feature",
      "geometry" : {
        "type" : "Point",
        "coordinates" : [
          120.656379,
          24.158452
        ]
      },
      "properties" : {
        "name" : "里仁SUN面健康蔬食餐廳",
        "address" : "台中市西屯區台灣大道二段659號"
      }
    },
    {
      "type" : "Feature",
      "geometry" : {
        "type" : "Point",
        "coordinates" : [
          120.61435299999999,
          24.184211000000001
        ]
      },
      "properties" : {
        "name" : "禮來居手打烏龍麵",
        "address" : "台中市西屯區福林路10號"
      }
    },
    {
      "type" : "Feature",
      "geometry" : {
        "type" : "Point",
        "coordinates" : [
          120.678865,
          24.158670999999998
        ]
      },
      "properties" : {
        "name" : "野菜豐蔬食",
        "address" : "台中市北區大德街82巷1號"
      }
    },
    {
      "type" : "Feature",
      "geometry" : {
        "type" : "Point",
        "coordinates" : [
          120.652359,
          24.135731
        ]
      },
      "properties" : {
        "name" : "吉祥素食",
        "address" : "台中市南屯區南屯路二段101號"
      }
    },
    {
      "type" : "Feature",
      "geometry" : {
        "type" : "Point",
        "coordinates" : [
          120.644336,
          24.131883999999999
        ]
      },
      "properties" : {
        "name" : "柒晌。我的菜",
        "address" : "台中市南屯區文心南五路一段323-15號"
      }
    },
    {
      "type" : "Feature",
      "geometry" : {
        "type" : "Point",
        "coordinates" : [
          120.67944439999999,
          24.143978199999999
        ]
      },
      "properties" : {
        "name" : "素食大麵羹",
        "address" : "台中市中區市府路75-3號"
      }
    },
    {
      "type" : "Feature",
      "geometry" : {
        "type" : "Point",
        "coordinates" : [
          120.6447204,
          24.1748127
        ]
      },
      "properties" : {
        "name" : "秋町菇菇燒",
        "address" : "台中市西屯區文華路2-8號"
      }
    },
    {
      "type" : "Feature",
      "geometry" : {
        "type" : "Point",
        "coordinates" : [
          120.66545000000001,
          24.172525
        ]
      },
      "properties" : {
        "name" : "聖譁素料行",
        "address" : "台中市西屯區文心路三段512號"
      }
    },
    {
      "type" : "Feature",
      "geometry" : {
        "type" : "Point",
        "coordinates" : [
          120.6975218,
          24.158563300000001
        ]
      },
      "properties" : {
        "name" : "樂水坊健康蔬食",
        "address" : "台中市北區國強街84號"
      }
    },
    {
      "type" : "Feature",
      "geometry" : {
        "type" : "Point",
        "coordinates" : [
          120.718728,
          24.248384000000001
        ]
      },
      "properties" : {
        "name" : "雲淡風清義式蔬食館",
        "address" : "台中市豐原區信義街5號"
      }
    },
    {
      "type" : "Feature",
      "geometry" : {
        "type" : "Point",
        "coordinates" : [
          120.60996299999999,
          24.139969000000001
        ]
      },
      "properties" : {
        "name" : "維吉堡veggie burger 蔬食漢堡",
        "address" : "台中市南屯區嶺東路74號"
      }
    },
    {
      "type" : "Feature",
      "geometry" : {
        "type" : "Point",
        "coordinates" : [
          120.6986761,
          24.122839599999999
        ]
      },
      "properties" : {
        "name" : "峰鈺素食材行",
        "address" : "台中市大里區鐵路街432號"
      }
    },
    {
      "type" : "Feature",
      "geometry" : {
        "type" : "Point",
        "coordinates" : [
          120.638189,
          24.140089
        ]
      },
      "properties" : {
        "name" : "雙慧素食",
        "address" : "台中市南屯區南屯路二段760號"
      }
    },
    {
      "type" : "Feature",
      "geometry" : {
        "type" : "Point",
        "coordinates" : [
          120.717799,
          24.131475999999999
        ]
      },
      "properties" : {
        "name" : "菩提香蔬食館",
        "address" : "台中市太平區永平路一段79號"
      }
    },
    {
      "type" : "Feature",
      "geometry" : {
        "type" : "Point",
        "coordinates" : [
          120.717737,
          24.252824
        ]
      },
      "properties" : {
        "name" : "劉媽媽素食",
        "address" : "台中市豐原區仁愛街24號"
      }
    },
    {
      "type" : "Feature",
      "geometry" : {
        "type" : "Point",
        "coordinates" : [
          120.638086,
          24.138121999999999
        ]
      },
      "properties" : {
        "name" : "素食之家",
        "address" : "台中市南屯區文昌街146號"
      }
    },
    {
      "type" : "Feature",
      "geometry" : {
        "type" : "Point",
        "coordinates" : [
          120.62257700000001,
          24.185841
        ]
      },
      "properties" : {
        "name" : "廣駿素食自助餐",
        "address" : "台中市西屯區西屯路三段151-11號"
      }
    },
    {
      "type" : "Feature",
      "geometry" : {
        "type" : "Point",
        "coordinates" : [
          120.617401,
          24.184014999999999
        ]
      },
      "properties" : {
        "name" : "謙吉蔬食生活館",
        "address" : "台中市西屯區福順路352號"
      }
    },
    {
      "type" : "Feature",
      "geometry" : {
        "type" : "Point",
        "coordinates" : [
          120.67906499999999,
          24.125893000000001
        ]
      },
      "properties" : {
        "name" : "四季安然早蔬食",
        "address" : "台中市南區國光路216-1號"
      }
    },
    {
      "type" : "Feature",
      "geometry" : {
        "type" : "Point",
        "coordinates" : [
          120.708243,
          24.244810000000001
        ]
      },
      "properties" : {
        "name" : "甘丹豆花",
        "address" : "台中市豐原區西勢路137號"
      }
    },
    {
      "type" : "Feature",
      "geometry" : {
        "type" : "Point",
        "coordinates" : [
          120.6788762,
          24.151061599999998
        ]
      },
      "properties" : {
        "name" : "鎮金素食雜貨材料",
        "address" : "台中市北區湖北街122號"
      }
    },
    {
      "type" : "Feature",
      "geometry" : {
        "type" : "Point",
        "coordinates" : [
          120.538645,
          24.261036000000001
        ]
      },
      "properties" : {
        "name" : "億蔬館",
        "address" : "台中市梧棲區四維東路149巷12號"
      }
    },
    {
      "type" : "Feature",
      "geometry" : {
        "type" : "Point",
        "coordinates" : [
          120.73647130000001,
          24.251241499999999
        ]
      },
      "properties" : {
        "name" : "淨光素食館",
        "address" : "台中市豐原區中陽路632號"
      }
    },
    {
      "type" : "Feature",
      "geometry" : {
        "type" : "Point",
        "coordinates" : [
          120.6922964,
          24.156084700000001
        ]
      },
      "properties" : {
        "name" : "福慧軒",
        "address" : "台中市北區興進路198號"
      }
    },
    {
      "type" : "Feature",
      "geometry" : {
        "type" : "Point",
        "coordinates" : [
          120.687732,
          24.181487000000001
        ]
      },
      "properties" : {
        "name" : "忠義素食",
        "address" : "台中市北屯區熱河路三段206號"
      }
    },
    {
      "type" : "Feature",
      "geometry" : {
        "type" : "Point",
        "coordinates" : [
          120.6822408,
          24.166121700000001
        ]
      },
      "properties" : {
        "name" : "食瑜伽私房料理",
        "address" : "台中市北區中清路ㄧ段100號"
      }
    },
    {
      "type" : "Feature",
      "geometry" : {
        "type" : "Point",
        "coordinates" : [
          120.71080600000001,
          24.244757
        ]
      },
      "properties" : {
        "name" : "長壽素食",
        "address" : "台中市豐原區中興路11號"
      }
    },
    {
      "type" : "Feature",
      "geometry" : {
        "type" : "Point",
        "coordinates" : [
          120.676804,
          24.14639
        ]
      },
      "properties" : {
        "name" : "素食麵",
        "address" : "台中市北區成功路414號"
      }
    },
    {
      "type" : "Feature",
      "geometry" : {
        "type" : "Point",
        "coordinates" : [
          120.644655,
          24.221391000000001
        ]
      },
      "properties" : {
        "name" : "美味樓健康素食",
        "address" : "台中市大雅區永和路136-11號"
      }
    },
    {
      "type" : "Feature",
      "geometry" : {
        "type" : "Point",
        "coordinates" : [
          120.68402399999999,
          24.050912
        ]
      },
      "properties" : {
        "name" : "清心好素館",
        "address" : "台中市霧峰區福新路280號"
      }
    },
    {
      "type" : "Feature",
      "geometry" : {
        "type" : "Point",
        "coordinates" : [
          120.64640900000001,
          24.175894
        ]
      },
      "properties" : {
        "name" : "逢甲黃金卡啦薯",
        "address" : "台中市西屯區慶和街101號"
      }
    },
    {
      "type" : "Feature",
      "geometry" : {
        "type" : "Point",
        "coordinates" : [
          120.65160400000001,
          24.170159000000002
        ]
      },
      "properties" : {
        "name" : "醍醐素食早午餐",
        "address" : "台中市西屯區櫻花路77號"
      }
    },
    {
      "type" : "Feature",
      "geometry" : {
        "type" : "Point",
        "coordinates" : [
          120.69662599999999,
          24.183088999999999
        ]
      },
      "properties" : {
        "name" : "蓮蓁素食",
        "address" : "台中市北屯區松竹路二段133號"
      }
    },
    {
      "type" : "Feature",
      "geometry" : {
        "type" : "Point",
        "coordinates" : [
          120.714012,
          24.140125000000001
        ]
      },
      "properties" : {
        "name" : "天慈素食",
        "address" : "台中市太平區宜佳街16號"
      }
    },
    {
      "type" : "Feature",
      "geometry" : {
        "type" : "Point",
        "coordinates" : [
          120.718788,
          24.154153000000001
        ]
      },
      "properties" : {
        "name" : "易素館",
        "address" : "台中市太平區樹孝路296號"
      }
    },
    {
      "type" : "Feature",
      "geometry" : {
        "type" : "Point",
        "coordinates" : [
          120.561683,
          24.241593000000002
        ]
      },
      "properties" : {
        "name" : "幸福素食滷味",
        "address" : "台中市沙鹿區中山路378巷11號"
      }
    },
    {
      "type" : "Feature",
      "geometry" : {
        "type" : "Point",
        "coordinates" : [
          120.68581399999999,
          24.173808000000001
        ]
      },
      "properties" : {
        "name" : "養素庭迴轉火車蔬食火鍋",
        "address" : "台中市北屯區崇德路二段208號"
      }
    },
    {
      "type" : "Feature",
      "geometry" : {
        "type" : "Point",
        "coordinates" : [
          120.673568,
          24.146867
        ]
      },
      "properties" : {
        "name" : "珍好素食館",
        "address" : "台中市西區福龍街65號"
      }
    },
    {
      "type" : "Feature",
      "geometry" : {
        "type" : "Point",
        "coordinates" : [
          120.6328972,
          24.144956000000001
        ]
      },
      "properties" : {
        "name" : "布袋藝棧",
        "address" : "台中市南屯區五權西路二段957號"
      }
    },
    {
      "type" : "Feature",
      "geometry" : {
        "type" : "Point",
        "coordinates" : [
          120.5409073,
          24.244123999999999
        ]
      },
      "properties" : {
        "name" : "蔬愿 蔬食早午餐● 杏鮑菇炸物",
        "address" : "台中市梧棲區文昌路391號"
      }
    },
    {
      "type" : "Feature",
      "geometry" : {
        "type" : "Point",
        "coordinates" : [
          120.706906,
          24.243638000000001
        ]
      },
      "properties" : {
        "name" : "豐盛食堂 健康養生素食",
        "address" : "台中市豐原區西勢路207號"
      }
    },
    {
      "type" : "Feature",
      "geometry" : {
        "type" : "Point",
        "coordinates" : [
          120.617616,
          24.176044999999998
        ]
      },
      "properties" : {
        "name" : "心鮮素食",
        "address" : "台中市西屯區中工三路204號"
      }
    },
    {
      "type" : "Feature",
      "geometry" : {
        "type" : "Point",
        "coordinates" : [
          120.66168399999999,
          24.140104000000001
        ]
      },
      "properties" : {
        "name" : "現代素食",
        "address" : "台中市西區台中港路一段283巷5-2號"
      }
    },
    {
      "type" : "Feature",
      "geometry" : {
        "type" : "Point",
        "coordinates" : [
          120.61788900000001,
          24.183471000000001
        ]
      },
      "properties" : {
        "name" : "菁祥蔬菇膳房",
        "address" : "台中市西屯區福順路321號"
      }
    },
    {
      "type" : "Feature",
      "geometry" : {
        "type" : "Point",
        "coordinates" : [
          120.680252,
          24.149874000000001
        ]
      },
      "properties" : {
        "name" : "阿姨素食炒麵",
        "address" : "台中市北區文祥街25號"
      }
    },
    {
      "type" : "Feature",
      "geometry" : {
        "type" : "Point",
        "coordinates" : [
          120.726339,
          24.176238000000001
        ]
      },
      "properties" : {
        "name" : "樂膳自然‧無毒蔬食超市",
        "address" : "台中市北屯區東山路一段348號"
      }
    },
    {
      "type" : "Feature",
      "geometry" : {
        "type" : "Point",
        "coordinates" : [
          120.728849,
          24.150072999999999
        ]
      },
      "properties" : {
        "name" : "慈緣素食",
        "address" : "台中市太平區中山路二段391號"
      }
    },
    {
      "type" : "Feature",
      "geometry" : {
        "type" : "Point",
        "coordinates" : [
          120.698249,
          24.248998
        ]
      },
      "properties" : {
        "name" : "聖恩素食",
        "address" : "台中市神岡區中山路36號"
      }
    },
    {
      "type" : "Feature",
      "geometry" : {
        "type" : "Point",
        "coordinates" : [
          120.68080999999999,
          24.158460000000002
        ]
      },
      "properties" : {
        "name" : "學士廣東粥",
        "address" : "台中市北區學士路159號"
      }
    },
    {
      "type" : "Feature",
      "geometry" : {
        "type" : "Point",
        "coordinates" : [
          120.63787600000001,
          24.108141
        ]
      },
      "properties" : {
        "name" : "姊妹素食",
        "address" : "台中市烏日區興祥街81號"
      }
    },
    {
      "type" : "Feature",
      "geometry" : {
        "type" : "Point",
        "coordinates" : [
          120.717045,
          24.12425
        ]
      },
      "properties" : {
        "name" : "禾季素食館",
        "address" : "台中市太平區太平路368-1號"
      }
    },
    {
      "type" : "Feature",
      "geometry" : {
        "type" : "Point",
        "coordinates" : [
          120.684749,
          24.164753999999999
        ]
      },
      "properties" : {
        "name" : "馬可先生雜糧麵包",
        "address" : "台中市北區崇德路一段511號"
      }
    },
    {
      "type" : "Feature",
      "geometry" : {
        "type" : "Point",
        "coordinates" : [
          120.688204,
          24.172982999999999
        ]
      },
      "properties" : {
        "name" : "陽光飯捲",
        "address" : "台中市北屯區瀋陽路三段80號"
      }
    },
    {
      "type" : "Feature",
      "geometry" : {
        "type" : "Point",
        "coordinates" : [
          120.69466199999999,
          24.172609000000001
        ]
      },
      "properties" : {
        "name" : "慧文素食",
        "address" : "台中市北屯區瀋陽路三段325號"
      }
    },
    {
      "type" : "Feature",
      "geometry" : {
        "type" : "Point",
        "coordinates" : [
          120.721771,
          24.200271000000001
        ]
      },
      "properties" : {
        "name" : "陶樂里庭園蔬食",
        "address" : "台中市潭子區豐興路一段371號"
      }
    },
    {
      "type" : "Feature",
      "geometry" : {
        "type" : "Point",
        "coordinates" : [
          120.697987,
          24.137855999999999
        ]
      },
      "properties" : {
        "name" : "義進素食店",
        "address" : "台中市東區育英路63號"
      }
    },
    {
      "type" : "Feature",
      "geometry" : {
        "type" : "Point",
        "coordinates" : [
          120.6565555,
          24.115812600000002
        ]
      },
      "properties" : {
        "name" : "天味素食",
        "address" : "台中市南區復興路一段389號"
      }
    },
    {
      "type" : "Feature",
      "geometry" : {
        "type" : "Point",
        "coordinates" : [
          120.66254600000001,
          24.163703999999999
        ]
      },
      "properties" : {
        "name" : "陳素食鹹酥基",
        "address" : "台中市西屯路二段與上石南10巷口"
      }
    },
    {
      "type" : "Feature",
      "geometry" : {
        "type" : "Point",
        "coordinates" : [
          120.664666,
          24.234224000000001
        ]
      },
      "properties" : {
        "name" : "得來素蔬食連鎖餐飲",
        "address" : "台中市大雅區民生路三段407號"
      }
    },
    {
      "type" : "Feature",
      "geometry" : {
        "type" : "Point",
        "coordinates" : [
          120.70071900000001,
          24.212607999999999
        ]
      },
      "properties" : {
        "name" : "忠義素食",
        "address" : "台中市潭子區勝利路270號"
      }
    },
    {
      "type" : "Feature",
      "geometry" : {
        "type" : "Point",
        "coordinates" : [
          120.68116499999999,
          24.158811
        ]
      },
      "properties" : {
        "name" : "台灣素食包子饅頭專賣店",
        "address" : "台中市中區學士路160號"
      }
    },
    {
      "type" : "Feature",
      "geometry" : {
        "type" : "Point",
        "coordinates" : [
          120.620638,
          24.105650000000001
        ]
      },
      "properties" : {
        "name" : "素食",
        "address" : "台中市烏日區新興路604號"
      }
    },
    {
      "type" : "Feature",
      "geometry" : {
        "type" : "Point",
        "coordinates" : [
          120.700624,
          24.166284999999998
        ]
      },
      "properties" : {
        "name" : "東光素食",
        "address" : "台中市北屯區東光路748號"
      }
    },
    {
      "type" : "Feature",
      "geometry" : {
        "type" : "Point",
        "coordinates" : [
          120.64295199999999,
          24.177816
        ]
      },
      "properties" : {
        "name" : "Fortunate Coffee",
        "address" : "台中市西屯區至善路171號"
      }
    },
    {
      "type" : "Feature",
      "geometry" : {
        "type" : "Point",
        "coordinates" : [
          120.68326500000001,
          24.131394
        ]
      },
      "properties" : {
        "name" : "順口香麥仔煎",
        "address" : "台中市南區民意街57號"
      }
    },
    {
      "type" : "Feature",
      "geometry" : {
        "type" : "Point",
        "coordinates" : [
          120.68262900000001,
          24.148371000000001
        ]
      },
      "properties" : {
        "name" : "現代素食",
        "address" : "台中市北區太平路119號"
      }
    },
    {
      "type" : "Feature",
      "geometry" : {
        "type" : "Point",
        "coordinates" : [
          120.572856,
          24.274643999999999
        ]
      },
      "properties" : {
        "name" : "素香園素食館",
        "address" : "台中市清水區五權東路121-2號"
      }
    },
    {
      "type" : "Feature",
      "geometry" : {
        "type" : "Point",
        "coordinates" : [
          120.638306,
          24.104633
        ]
      },
      "properties" : {
        "name" : "活力蔬食屋",
        "address" : "台中市烏日區信義街200號"
      }
    },
    {
      "type" : "Feature",
      "geometry" : {
        "type" : "Point",
        "coordinates" : [
          120.687124,
          24.115183999999999
        ]
      },
      "properties" : {
        "name" : "師姐素食",
        "address" : "台中市大里區大明路79號"
      }
    },
    {
      "type" : "Feature",
      "geometry" : {
        "type" : "Point",
        "coordinates" : [
          120.64655,
          24.126740999999999
        ]
      },
      "properties" : {
        "name" : "臻薌園素食館",
        "address" : "台中市南屯區文心南路530-3號"
      }
    },
    {
      "type" : "Feature",
      "geometry" : {
        "type" : "Point",
        "coordinates" : [
          120.657479,
          24.149365
        ]
      },
      "properties" : {
        "name" : "如慧素食",
        "address" : "台中市西區忠明南路177號"
      }
    },
    {
      "type" : "Feature",
      "geometry" : {
        "type" : "Point",
        "coordinates" : [
          120.69999300000001,
          24.108051
        ]
      },
      "properties" : {
        "name" : "淨思林素食軒",
        "address" : "台中市大里區好來五街74號"
      }
    },
    {
      "type" : "Feature",
      "geometry" : {
        "type" : "Point",
        "coordinates" : [
          120.680268,
          24.158103000000001
        ]
      },
      "properties" : {
        "name" : "十方素食",
        "address" : "台中市北區美德街177號"
      }
    },
    {
      "type" : "Feature",
      "geometry" : {
        "type" : "Point",
        "coordinates" : [
          120.70532900000001,
          24.136692
        ]
      },
      "properties" : {
        "name" : "禾燁小吃店",
        "address" : "台中市東區東英路310號"
      }
    },
    {
      "type" : "Feature",
      "geometry" : {
        "type" : "Point",
        "coordinates" : [
          120.652743,
          24.160508
        ]
      },
      "properties" : {
        "name" : "律活綠活健康生活館",
        "address" : "台中市西屯區台灣大道二段827號"
      }
    },
    {
      "type" : "Feature",
      "geometry" : {
        "type" : "Point",
        "coordinates" : [
          120.723658,
          24.137056999999999
        ]
      },
      "properties" : {
        "name" : "洪媽媽健康素食",
        "address" : "台中市太平區中和街189號"
      }
    },
    {
      "type" : "Feature",
      "geometry" : {
        "type" : "Point",
        "coordinates" : [
          120.667998,
          24.174796000000001
        ]
      },
      "properties" : {
        "name" : "大愛養生素食",
        "address" : "台中市西屯區中清西二街34號"
      }
    },
    {
      "type" : "Feature",
      "geometry" : {
        "type" : "Point",
        "coordinates" : [
          120.726677,
          24.242398999999999
        ]
      },
      "properties" : {
        "name" : "健康歡喜素食館",
        "address" : "台中市豐原區永康路119號"
      }
    },
    {
      "type" : "Feature",
      "geometry" : {
        "type" : "Point",
        "coordinates" : [
          120.691041,
          24.078178999999999
        ]
      },
      "properties" : {
        "name" : "林莊素食",
        "address" : "台中市大里區西湖路18號"
      }
    },
    {
      "type" : "Feature",
      "geometry" : {
        "type" : "Point",
        "coordinates" : [
          120.697107,
          24.152652
        ]
      },
      "properties" : {
        "name" : "自強街素食早餐",
        "address" : "台中市東區自強街30巷1號"
      }
    },
    {
      "type" : "Feature",
      "geometry" : {
        "type" : "Point",
        "coordinates" : [
          120.646017,
          24.129284999999999
        ]
      },
      "properties" : {
        "name" : "天菜豐巢VeGood 蔬果百匯",
        "address" : "台中市南屯區文心南路289號"
      }
    },
    {
      "type" : "Feature",
      "geometry" : {
        "type" : "Point",
        "coordinates" : [
          120.648314,
          24.22692
        ]
      },
      "properties" : {
        "name" : "布達佩斯 冰淇淋專賣店",
        "address" : "台中市大雅區學府路390號"
      }
    },
    {
      "type" : "Feature",
      "geometry" : {
        "type" : "Point",
        "coordinates" : [
          120.69508399999999,
          24.150924
        ]
      },
      "properties" : {
        "name" : "行力素食",
        "address" : "台中市東區力行路79號"
      }
    },
    {
      "type" : "Feature",
      "geometry" : {
        "type" : "Point",
        "coordinates" : [
          120.723006,
          24.1816569
        ]
      },
      "properties" : {
        "name" : "和順素食",
        "address" : "台中市北屯區和順路軍和街口"
      }
    },
    {
      "type" : "Feature",
      "geometry" : {
        "type" : "Point",
        "coordinates" : [
          120.712829,
          24.248908
        ]
      },
      "properties" : {
        "name" : "老麵的店",
        "address" : "台中市豐原區瑞安街59號"
      }
    },
    {
      "type" : "Feature",
      "geometry" : {
        "type" : "Point",
        "coordinates" : [
          120.729822,
          24.25029
        ]
      },
      "properties" : {
        "name" : "中興豆花",
        "address" : "台中市豐原區向陽路356號"
      }
    },
    {
      "type" : "Feature",
      "geometry" : {
        "type" : "Point",
        "coordinates" : [
          120.626514,
          24.349820000000001
        ]
      },
      "properties" : {
        "name" : "羅記素食",
        "address" : "台中市大甲區順天路371-2"
      }
    },
    {
      "type" : "Feature",
      "geometry" : {
        "type" : "Point",
        "coordinates" : [
          120.69022200000001,
          24.177168000000002
        ]
      },
      "properties" : {
        "name" : "昌平路宵夜 素ㄜ仔煎餅蘿蔔糕",
        "address" : "台中市北屯區昌平路二段2-14號"
      }
    },
    {
      "type" : "Feature",
      "geometry" : {
        "type" : "Point",
        "coordinates" : [
          120.726778,
          24.176577000000002
        ]
      },
      "properties" : {
        "name" : "壹號麥田",
        "address" : "台中市北屯區東山路一段371-6號"
      }
    },
    {
      "type" : "Feature",
      "geometry" : {
        "type" : "Point",
        "coordinates" : [
          120.708626,
          24.245553000000001
        ]
      },
      "properties" : {
        "name" : "雲方味素食",
        "address" : "台中市豐原區西勢路98號"
      }
    },
    {
      "type" : "Feature",
      "geometry" : {
        "type" : "Point",
        "coordinates" : [
          120.688602,
          24.135698000000001
        ]
      },
      "properties" : {
        "name" : "康荷蔬食館",
        "address" : "台中市東區和平街217號"
      }
    },
    {
      "type" : "Feature",
      "geometry" : {
        "type" : "Point",
        "coordinates" : [
          120.612562,
          24.152016
        ]
      },
      "properties" : {
        "name" : "園蔬蔬食",
        "address" : "台中市南屯區嶺東路860號"
      }
    },
    {
      "type" : "Feature",
      "geometry" : {
        "type" : "Point",
        "coordinates" : [
          120.670768,
          24.175107000000001
        ]
      },
      "properties" : {
        "name" : "如是我聞韓式素食海苔飯捲",
        "address" : "台中市北屯區中清路二段67號"
      }
    },
    {
      "type" : "Feature",
      "geometry" : {
        "type" : "Point",
        "coordinates" : [
          120.65875800000001,
          24.143784
        ]
      },
      "properties" : {
        "name" : "覓光咖啡 Luster Café",
        "address" : "台中市西區華美街101號"
      }
    },
    {
      "type" : "Feature",
      "geometry" : {
        "type" : "Point",
        "coordinates" : [
          120.69627800000001,
          24.088108999999999
        ]
      },
      "properties" : {
        "name" : "秀香素食早點",
        "address" : "台中市大里區萬壽街6號"
      }
    },
    {
      "type" : "Feature",
      "geometry" : {
        "type" : "Point",
        "coordinates" : [
          120.647178,
          24.137043999999999
        ]
      },
      "properties" : {
        "name" : "天慈素食",
        "address" : "台中市南屯區南屯路二段281號"
      }
    },
    {
      "type" : "Feature",
      "geometry" : {
        "type" : "Point",
        "coordinates" : [
          120.678444,
          24.160336000000001
        ]
      },
      "properties" : {
        "name" : "伊月拾憶",
        "address" : "台中市北區梅亭街417號"
      }
    },
    {
      "type" : "Feature",
      "geometry" : {
        "type" : "Point",
        "coordinates" : [
          120.681022,
          24.166858999999999
        ]
      },
      "properties" : {
        "name" : "天慈素食 漢口店",
        "address" : "台中市北區漢口路四段224號"
      }
    },
    {
      "type" : "Feature",
      "geometry" : {
        "type" : "Point",
        "coordinates" : [
          120.698077,
          24.184477000000001
        ]
      },
      "properties" : {
        "name" : "朝活生機輕食廚房",
        "address" : "台中市北屯區松義街145號"
      }
    },
    {
      "type" : "Feature",
      "geometry" : {
        "type" : "Point",
        "coordinates" : [
          120.65288200000001,
          24.149049999999999
        ]
      },
      "properties" : {
        "name" : "天慈素食",
        "address" : "台中市西區東興路三段119號"
      }
    },
    {
      "type" : "Feature",
      "geometry" : {
        "type" : "Point",
        "coordinates" : [
          120.719065,
          24.121739999999999
        ]
      },
      "properties" : {
        "name" : "京都海苔素食飯捲",
        "address" : "台中市太平區太平路259號"
      }
    },
    {
      "type" : "Feature",
      "geometry" : {
        "type" : "Point",
        "coordinates" : [
          120.56829999999999,
          24.236723999999999
        ]
      },
      "properties" : {
        "name" : "十方養生素食",
        "address" : "台中市沙鹿區中山路137-4號"
      }
    },
    {
      "type" : "Feature",
      "geometry" : {
        "type" : "Point",
        "coordinates" : [
          120.702302,
          24.192869999999999
        ]
      },
      "properties" : {
        "name" : "頭張蔬食坊",
        "address" : "台中市潭子區中山路一段81號"
      }
    },
    {
      "type" : "Feature",
      "geometry" : {
        "type" : "Point",
        "coordinates" : [
          120.730957,
          24.174581
        ]
      },
      "properties" : {
        "name" : "禪心海蔬食館",
        "address" : "台中市北屯區祥順路二段320-2號"
      }
    },
    {
      "type" : "Feature",
      "geometry" : {
        "type" : "Point",
        "coordinates" : [
          120.640991,
          24.135186999999998
        ]
      },
      "properties" : {
        "name" : "慈旺素食材料批發零售",
        "address" : "台中市南屯區永春東路862號"
      }
    },
    {
      "type" : "Feature",
      "geometry" : {
        "type" : "Point",
        "coordinates" : [
          120.669798,
          24.167074
        ]
      },
      "properties" : {
        "name" : "觀音健康素食館",
        "address" : "台中市北區漢口路三段125號"
      }
    },
    {
      "type" : "Feature",
      "geometry" : {
        "type" : "Point",
        "coordinates" : [
          120.659448,
          24.149688999999999
        ]
      },
      "properties" : {
        "name" : "富泉烘焙屋",
        "address" : "台中市西區中美街299巷18號"
      }
    },
    {
      "type" : "Feature",
      "geometry" : {
        "type" : "Point",
        "coordinates" : [
          120.652227,
          24.384952999999999
        ]
      },
      "properties" : {
        "name" : "聚緣齋",
        "address" : "台中市大甲區經國路2140號"
      }
    },
    {
      "type" : "Feature",
      "geometry" : {
        "type" : "Point",
        "coordinates" : [
          120.650025,
          24.142346
        ]
      },
      "properties" : {
        "name" : "大墩素食",
        "address" : "台中市南屯區大墩路234號"
      }
    },
    {
      "type" : "Feature",
      "geometry" : {
        "type" : "Point",
        "coordinates" : [
          120.678321,
          24.127929000000002
        ]
      },
      "properties" : {
        "name" : "晨安餃子蔬食館",
        "address" : "台中市南區國光路156-2號"
      }
    },
    {
      "type" : "Feature",
      "geometry" : {
        "type" : "Point",
        "coordinates" : [
          120.6662063,
          24.178692600000002
        ]
      },
      "properties" : {
        "name" : "蔬食饗樂",
        "address" : "台中市北屯區大鵬路4號"
      }
    },
    {
      "type" : "Feature",
      "geometry" : {
        "type" : "Point",
        "coordinates" : [
          120.6822408,
          24.166121700000001
        ]
      },
      "properties" : {
        "name" : "阿南達全麥饅頭麵包坊",
        "address" : "台中市北區四川一街37號"
      }
    },
    {
      "type" : "Feature",
      "geometry" : {
        "type" : "Point",
        "coordinates" : [
          120.638239,
          24.180971
        ]
      },
      "properties" : {
        "name" : "宜樂美素食中西早點-有素漢堡",
        "address" : "台中市西屯區黎明路三段288號"
      }
    },
    {
      "type" : "Feature",
      "geometry" : {
        "type" : "Point",
        "coordinates" : [
          120.676914,
          24.171488
        ]
      },
      "properties" : {
        "name" : "小潘潘全麥麵包",
        "address" : "台中市北區北平路二段115號"
      }
    },
    {
      "type" : "Feature",
      "geometry" : {
        "type" : "Point",
        "coordinates" : [
          120.67822700000001,
          24.171482000000001
        ]
      },
      "properties" : {
        "name" : "感恩素食 滷味 鹽酥G",
        "address" : "台中市北區北平路二段159號"
      }
    },
    {
      "type" : "Feature",
      "geometry" : {
        "type" : "Point",
        "coordinates" : [
          120.62118,
          24.186579999999999
        ]
      },
      "properties" : {
        "name" : "于庭健康素食",
        "address" : "台中市西屯區西屯路三段155-3號"
      }
    },
    {
      "type" : "Feature",
      "geometry" : {
        "type" : "Point",
        "coordinates" : [
          120.671558,
          24.171353
        ]
      },
      "properties" : {
        "name" : "聖華宮蔬食餐廳",
        "address" : "台中市北區中清路一段657號"
      }
    },
    {
      "type" : "Feature",
      "geometry" : {
        "type" : "Point",
        "coordinates" : [
          120.646191,
          24.180899
        ]
      },
      "properties" : {
        "name" : "菇菇窩",
        "address" : "台中市西屯區文華路127號"
      }
    },
    {
      "type" : "Feature",
      "geometry" : {
        "type" : "Point",
        "coordinates" : [
          120.63819700000001,
          24.138639000000001
        ]
      },
      "properties" : {
        "name" : "陳記素食滷味 (台中南屯菜市場內）",
        "address" : "台中市南屯區南興巷28弄8號"
      }
    },
    {
      "type" : "Feature",
      "geometry" : {
        "type" : "Point",
        "coordinates" : [
          120.699442,
          24.097252999999998
        ]
      },
      "properties" : {
        "name" : "素舍。饗宴趴趴go",
        "address" : "台中市大里區慈德路206號"
      }
    },
    {
      "type" : "Feature",
      "geometry" : {
        "type" : "Point",
        "coordinates" : [
          120.64482,
          24.182169999999999
        ]
      },
      "properties" : {
        "name" : "布拉格林BRAGLIN香草蔬食料理",
        "address" : "台中市西屯區福星路230號"
      }
    },
    {
      "type" : "Feature",
      "geometry" : {
        "type" : "Point",
        "coordinates" : [
          120.744355,
          24.186468000000001
        ]
      },
      "properties" : {
        "name" : "巴豆跳跳",
        "address" : "台中市北屯區東山路二段78-1號"
      }
    },
    {
      "type" : "Feature",
      "geometry" : {
        "type" : "Point",
        "coordinates" : [
          120.635451,
          24.136303999999999
        ]
      },
      "properties" : {
        "name" : "食在滿願",
        "address" : "台中市南屯區永春東路1122-1號"
      }
    },
    {
      "type" : "Feature",
      "geometry" : {
        "type" : "Point",
        "coordinates" : [
          120.68781300000001,
          24.105595000000001
        ]
      },
      "properties" : {
        "name" : "好享受 低糖甜點&咖啡",
        "address" : "台中市大里區大里路59-7號"
      }
    },
    {
      "type" : "Feature",
      "geometry" : {
        "type" : "Point",
        "coordinates" : [
          120.658306,
          24.152771000000001
        ]
      },
      "properties" : {
        "name" : "柯媽媽の植物燕窩．黑木耳專賣店",
        "address" : "台中市西區華美西街一段35號"
      }
    },
    {
      "type" : "Feature",
      "geometry" : {
        "type" : "Point",
        "coordinates" : [
          120.571012,
          24.267565999999999
        ]
      },
      "properties" : {
        "name" : "慈心素食",
        "address" : "台中市清水區鎮南街51號"
      }
    },
    {
      "type" : "Feature",
      "geometry" : {
        "type" : "Point",
        "coordinates" : [
          120.69861299999999,
          24.140146999999999
        ]
      },
      "properties" : {
        "name" : "食月丘潤餅捲",
        "address" : "台中市東區旱溪街47號"
      }
    },
    {
      "type" : "Feature",
      "geometry" : {
        "type" : "Point",
        "coordinates" : [
          120.719894,
          24.261198
        ]
      },
      "properties" : {
        "name" : "阿麗素食便當",
        "address" : "台中市豐原區三豐路一段446號"
      }
    },
    {
      "type" : "Feature",
      "geometry" : {
        "type" : "Point",
        "coordinates" : [
          120.66731900000001,
          24.165521999999999
        ]
      },
      "properties" : {
        "name" : "自然風味蔬食料理",
        "address" : "台中市北區漢口南二街30號"
      }
    },
    {
      "type" : "Feature",
      "geometry" : {
        "type" : "Point",
        "coordinates" : [
          120.656244,
          24.165645000000001
        ]
      },
      "properties" : {
        "name" : "重慶素食",
        "address" : "台中市西屯區重慶路108號"
      }
    },
    {
      "type" : "Feature",
      "geometry" : {
        "type" : "Point",
        "coordinates" : [
          120.61860900000001,
          24.183800000000002
        ]
      },
      "properties" : {
        "name" : "頤養膳房",
        "address" : "台中市西屯區福雅路60號"
      }
    },
    {
      "type" : "Feature",
      "geometry" : {
        "type" : "Point",
        "coordinates" : [
          120.7411249,
          24.179043499999999
        ]
      },
      "properties" : {
        "name" : "雅士米素食膳坊",
        "address" : "台中市北屯區東山路二段中興巷69號"
      }
    },
    {
      "type" : "Feature",
      "geometry" : {
        "type" : "Point",
        "coordinates" : [
          120.64978600000001,
          24.156016000000001
        ]
      },
      "properties" : {
        "name" : "明心圓生機素食",
        "address" : "台中市西屯區大墩路869號"
      }
    },
    {
      "type" : "Feature",
      "geometry" : {
        "type" : "Point",
        "coordinates" : [
          120.715227,
          24.136671
        ]
      },
      "properties" : {
        "name" : "中華素食",
        "address" : "台中市太平區新平路二段21號"
      }
    },
    {
      "type" : "Feature",
      "geometry" : {
        "type" : "Point",
        "coordinates" : [
          120.71274099999999,
          24.251484999999999
        ]
      },
      "properties" : {
        "name" : "豐西街素食餐館",
        "address" : "台中市豐原區豐西街43號"
      }
    },
    {
      "type" : "Feature",
      "geometry" : {
        "type" : "Point",
        "coordinates" : [
          120.660321,
          24.122586999999999
        ]
      },
      "properties" : {
        "name" : "里仁台中忠明店",
        "address" : "台中市南區忠明南路780號"
      }
    },
    {
      "type" : "Feature",
      "geometry" : {
        "type" : "Point",
        "coordinates" : [
          120.589871,
          24.180816
        ]
      },
      "properties" : {
        "name" : "可口菇菇麵",
        "address" : "台中市龍井區新興路19號"
      }
    },
    {
      "type" : "Feature",
      "geometry" : {
        "type" : "Point",
        "coordinates" : [
          120.697706,
          24.169937999999998
        ]
      },
      "properties" : {
        "name" : "永林素之味",
        "address" : "台中市北屯區北屯路238號"
      }
    },
    {
      "type" : "Feature",
      "geometry" : {
        "type" : "Point",
        "coordinates" : [
          120.679153,
          24.147188
        ]
      },
      "properties" : {
        "name" : "大炳烤玉米\/素食",
        "address" : "台中市中區中華路二段10號"
      }
    },
    {
      "type" : "Feature",
      "geometry" : {
        "type" : "Point",
        "coordinates" : [
          120.675501,
          24.169269
        ]
      },
      "properties" : {
        "name" : "拾緣館",
        "address" : "台中市北區山西路二段31號"
      }
    },
    {
      "type" : "Feature",
      "geometry" : {
        "type" : "Point",
        "coordinates" : [
          120.69721,
          24.064243999999999
        ]
      },
      "properties" : {
        "name" : "佛有緣素食館",
        "address" : "台中市霧峰區樹仁路19號"
      }
    },
    {
      "type" : "Feature",
      "geometry" : {
        "type" : "Point",
        "coordinates" : [
          120.733322,
          24.143287000000001
        ]
      },
      "properties" : {
        "name" : "Q喵食堂",
        "address" : "台中市太平區中山路一段243巷2號"
      }
    },
    {
      "type" : "Feature",
      "geometry" : {
        "type" : "Point",
        "coordinates" : [
          120.65795199999999,
          24.167127000000001
        ]
      },
      "properties" : {
        "name" : "馥薌素食",
        "address" : "台中市西屯區甘肅路一段121號"
      }
    },
    {
      "type" : "Feature",
      "geometry" : {
        "type" : "Point",
        "coordinates" : [
          120.675594,
          24.170625999999999
        ]
      },
      "properties" : {
        "name" : "瑩佳素食",
        "address" : "台中市北區山西路二段69號"
      }
    },
    {
      "type" : "Feature",
      "geometry" : {
        "type" : "Point",
        "coordinates" : [
          120.672162,
          24.138055999999999
        ]
      },
      "properties" : {
        "name" : "第五市場麵線糊",
        "address" : "台中市西區自治街4號"
      }
    },
    {
      "type" : "Feature",
      "geometry" : {
        "type" : "Point",
        "coordinates" : [
          120.83030599999999,
          24.255331000000002
        ]
      },
      "properties" : {
        "name" : "蓮華素食自助餐",
        "address" : "台中市東勢區三民街198號"
      }
    },
    {
      "type" : "Feature",
      "geometry" : {
        "type" : "Point",
        "coordinates" : [
          120.6695771,
          24.177532500000002
        ]
      },
      "properties" : {
        "name" : "水煎包",
        "address" : "台中市北屯區四平路5號"
      }
    },
    {
      "type" : "Feature",
      "geometry" : {
        "type" : "Point",
        "coordinates" : [
          120.662323,
          24.139028
        ]
      },
      "properties" : {
        "name" : "茶悅堂",
        "address" : "台中市西區五權西四街13巷6號"
      }
    },
    {
      "type" : "Feature",
      "geometry" : {
        "type" : "Point",
        "coordinates" : [
          120.69592400000001,
          24.172101999999999
        ]
      },
      "properties" : {
        "name" : "維根蔬食",
        "address" : "台中市北屯區瀋陽路三段372號"
      }
    },
    {
      "type" : "Feature",
      "geometry" : {
        "type" : "Point",
        "coordinates" : [
          120.72178,
          24.176106999999998
        ]
      },
      "properties" : {
        "name" : "廣緣素食",
        "address" : "台中市北屯區東山路一段311-3號"
      }
    },
    {
      "type" : "Feature",
      "geometry" : {
        "type" : "Point",
        "coordinates" : [
          120.68626500000001,
          24.103611999999998
        ]
      },
      "properties" : {
        "name" : "水連天碧",
        "address" : "台中市大里區大里路101-9號"
      }
    },
    {
      "type" : "Feature",
      "geometry" : {
        "type" : "Point",
        "coordinates" : [
          120.68891429999999,
          24.115167899999999
        ]
      },
      "properties" : {
        "name" : "來來素食店",
        "address" : "台中市大里區大明路13號"
      }
    },
    {
      "type" : "Feature",
      "geometry" : {
        "type" : "Point",
        "coordinates" : [
          120.68060199999999,
          24.248065
        ]
      },
      "properties" : {
        "name" : "朱記素餅",
        "address" : "台中市神岡區中山路726號"
      }
    },
    {
      "type" : "Feature",
      "geometry" : {
        "type" : "Point",
        "coordinates" : [
          120.72646,
          24.245874199999999
        ]
      },
      "properties" : {
        "name" : "新素食堂蔬食拉麵",
        "address" : "台中市豐原區南陽路304號"
      }
    },
    {
      "type" : "Feature",
      "geometry" : {
        "type" : "Point",
        "coordinates" : [
          120.65780100000001,
          24.129439999999999
        ]
      },
      "properties" : {
        "name" : "天音素食能量養生麵館",
        "address" : "台中市南區忠明南路675號"
      }
    },
    {
      "type" : "Feature",
      "geometry" : {
        "type" : "Point",
        "coordinates" : [
          120.67650070000001,
          24.214909599999999
        ]
      },
      "properties" : {
        "name" : "阿丹素食",
        "address" : "台中市大雅區雅潭路141-2號"
      }
    },
    {
      "type" : "Feature",
      "geometry" : {
        "type" : "Point",
        "coordinates" : [
          120.675056,
          24.136883000000001
        ]
      },
      "properties" : {
        "name" : "吾素齋人文素食餐飲",
        "address" : "台中市西區康樂街14號"
      }
    },
    {
      "type" : "Feature",
      "geometry" : {
        "type" : "Point",
        "coordinates" : [
          120.6833409,
          24.168299600000001
        ]
      },
      "properties" : {
        "name" : "井町",
        "address" : "台中市北區青島路三段176號"
      }
    },
    {
      "type" : "Feature",
      "geometry" : {
        "type" : "Point",
        "coordinates" : [
          120.689531,
          24.100892999999999
        ]
      },
      "properties" : {
        "name" : "一喜堂素齋",
        "address" : "台中市大里區德芳南路81-3號"
      }
    },
    {
      "type" : "Feature",
      "geometry" : {
        "type" : "Point",
        "coordinates" : [
          120.684428,
          24.13533
        ]
      },
      "properties" : {
        "name" : "鑫鑫健康素食自助餐",
        "address" : "台中市東區復興路四段65號"
      }
    },
    {
      "type" : "Feature",
      "geometry" : {
        "type" : "Point",
        "coordinates" : [
          120.658168,
          24.152372
        ]
      },
      "properties" : {
        "name" : "早尼早餐 Find you breakfast",
        "address" : "台中市西區忠誠街129號"
      }
    },
    {
      "type" : "Feature",
      "geometry" : {
        "type" : "Point",
        "coordinates" : [
          120.69556,
          24.172497
        ]
      },
      "properties" : {
        "name" : "甘心的媽",
        "address" : "台中市北屯區遼陽六街6號"
      }
    },
    {
      "type" : "Feature",
      "geometry" : {
        "type" : "Point",
        "coordinates" : [
          120.678428,
          24.095065999999999
        ]
      },
      "properties" : {
        "name" : "小時候大餅",
        "address" : "台中市大里區國中路332號"
      }
    },
    {
      "type" : "Feature",
      "geometry" : {
        "type" : "Point",
        "coordinates" : [
          120.675523,
          24.171374
        ]
      },
      "properties" : {
        "name" : "胤茹坊",
        "address" : "台中市北區北平路二段102-12號"
      }
    },
    {
      "type" : "Feature",
      "geometry" : {
        "type" : "Point",
        "coordinates" : [
          120.692297,
          24.167401000000002
        ]
      },
      "properties" : {
        "name" : "文昌素食",
        "address" : "台中市北屯區興安路一段92-1號"
      }
    },
    {
      "type" : "Feature",
      "geometry" : {
        "type" : "Point",
        "coordinates" : [
          120.675175,
          24.177358999999999
        ]
      },
      "properties" : {
        "name" : "大連素食早點",
        "address" : "台中市北屯區大連北街2巷6號"
      }
    },
    {
      "type" : "Feature",
      "geometry" : {
        "type" : "Point",
        "coordinates" : [
          120.69543659999999,
          24.1344517
        ]
      },
      "properties" : {
        "name" : "阿喜素食",
        "address" : "台中市東區建成路500號"
      }
    },
    {
      "type" : "Feature",
      "geometry" : {
        "type" : "Point",
        "coordinates" : [
          120.6471907,
          24.226417099999999
        ]
      },
      "properties" : {
        "name" : "富貴健康素食",
        "address" : "台中市大雅區民生路一段66號"
      }
    },
    {
      "type" : "Feature",
      "geometry" : {
        "type" : "Point",
        "coordinates" : [
          120.644338,
          24.173044999999998
        ]
      },
      "properties" : {
        "name" : "綠鄉村素食",
        "address" : "台中市西屯區西屯路二段269-41號"
      }
    },
    {
      "type" : "Feature",
      "geometry" : {
        "type" : "Point",
        "coordinates" : [
          120.651515,
          24.156089000000001
        ]
      },
      "properties" : {
        "name" : "起若雅健康蔬食館",
        "address" : "台中市南屯區大墩十八街60號"
      }
    },
    {
      "type" : "Feature",
      "geometry" : {
        "type" : "Point",
        "coordinates" : [
          120.625112,
          24.106066999999999
        ]
      },
      "properties" : {
        "name" : "慈恩素食",
        "address" : "台中市烏日區中山路二段213號"
      }
    },
    {
      "type" : "Feature",
      "geometry" : {
        "type" : "Point",
        "coordinates" : [
          120.63886100000001,
          24.138760000000001
        ]
      },
      "properties" : {
        "name" : "素食早點",
        "address" : "台中市南屯區田心北4巷1-1號"
      }
    },
    {
      "type" : "Feature",
      "geometry" : {
        "type" : "Point",
        "coordinates" : [
          120.7236046,
          24.305694200000001
        ]
      },
      "properties" : {
        "name" : "福智素食 后里店",
        "address" : "台中市后里區三豐路345號"
      }
    },
    {
      "type" : "Feature",
      "geometry" : {
        "type" : "Point",
        "coordinates" : [
          120.684444,
          24.140494
        ]
      },
      "properties" : {
        "name" : "歡喜緣素食自助餐&麵攤",
        "address" : "台中市中區繼光街158號"
      }
    },
    {
      "type" : "Feature",
      "geometry" : {
        "type" : "Point",
        "coordinates" : [
          120.68870920000001,
          24.134423099999999
        ]
      },
      "properties" : {
        "name" : "四季村",
        "address" : "台中市東區大智路78號"
      }
    },
    {
      "type" : "Feature",
      "geometry" : {
        "type" : "Point",
        "coordinates" : [
          120.68803800000001,
          24.098597000000002
        ]
      },
      "properties" : {
        "name" : "養心齋",
        "address" : "台中市大里區中興路二段136巷14號"
      }
    },
    {
      "type" : "Feature",
      "geometry" : {
        "type" : "Point",
        "coordinates" : [
          120.662823,
          24.176107999999999
        ]
      },
      "properties" : {
        "name" : "小王子的花園",
        "address" : "台中市西屯區中平路178號"
      }
    },
    {
      "type" : "Feature",
      "geometry" : {
        "type" : "Point",
        "coordinates" : [
          120.723887,
          24.308817999999999
        ]
      },
      "properties" : {
        "name" : "素食便當",
        "address" : "台中市后里區甲后路344號"
      }
    },
    {
      "type" : "Feature",
      "geometry" : {
        "type" : "Point",
        "coordinates" : [
          120.694343,
          24.164739999999998
        ]
      },
      "properties" : {
        "name" : "東東素食",
        "address" : "台中市北屯區北屯路158號"
      }
    },
    {
      "type" : "Feature",
      "geometry" : {
        "type" : "Point",
        "coordinates" : [
          120.722317,
          24.157609999999998
        ]
      },
      "properties" : {
        "name" : "隨喜素食",
        "address" : "台中市太平區育賢路85號"
      }
    },
    {
      "type" : "Feature",
      "geometry" : {
        "type" : "Point",
        "coordinates" : [
          120.67852980000001,
          24.143012899999999
        ]
      },
      "properties" : {
        "name" : "第二市場美景素食麵",
        "address" : "台中市中區台灣大道一段403巷1號"
      }
    },
    {
      "type" : "Feature",
      "geometry" : {
        "type" : "Point",
        "coordinates" : [
          120.68190199999999,
          24.154330000000002
        ]
      },
      "properties" : {
        "name" : "哈佛素食自助餐",
        "address" : "台中市北區學士路59號"
      }
    },
    {
      "type" : "Feature",
      "geometry" : {
        "type" : "Point",
        "coordinates" : [
          120.665148,
          24.115693
        ]
      },
      "properties" : {
        "name" : "六一膳房 - 1980拾光．維根食坊",
        "address" : "台中市南區工學一街179巷15號"
      }
    },
    {
      "type" : "Feature",
      "geometry" : {
        "type" : "Point",
        "coordinates" : [
          120.69219699999999,
          24.142970999999999
        ]
      },
      "properties" : {
        "name" : "甜點心球心型蛋糕",
        "address" : "台中市東區自由路三段219號"
      }
    },
    {
      "type" : "Feature",
      "geometry" : {
        "type" : "Point",
        "coordinates" : [
          120.71994100000001,
          24.114992999999998
        ]
      },
      "properties" : {
        "name" : "阿婆素食",
        "address" : "台中市太平區長億六街53-10號"
      }
    },
    {
      "type" : "Feature",
      "geometry" : {
        "type" : "Point",
        "coordinates" : [
          120.6772754,
          24.145703399999999
        ]
      },
      "properties" : {
        "name" : "素食麵",
        "address" : "台中市中區成功路與中華西街口"
      }
    },
    {
      "type" : "Feature",
      "geometry" : {
        "type" : "Point",
        "coordinates" : [
          120.650989,
          24.144817
        ]
      },
      "properties" : {
        "name" : "豆果全豆豆漿 向上店",
        "address" : "台中市西區向上南路一段219號"
      }
    },
    {
      "type" : "Feature",
      "geometry" : {
        "type" : "Point",
        "coordinates" : [
          120.688485,
          24.169067999999999
        ]
      },
      "properties" : {
        "name" : "玉皇餐飲部",
        "address" : "台中市北屯區天津路四段112-1號"
      }
    },
    {
      "type" : "Feature",
      "geometry" : {
        "type" : "Point",
        "coordinates" : [
          120.731054,
          24.249146
        ]
      },
      "properties" : {
        "name" : "g奶木瓜牛乳",
        "address" : "台中市豐原區豐東路196號"
      }
    },
    {
      "type" : "Feature",
      "geometry" : {
        "type" : "Point",
        "coordinates" : [
          120.70927039999999,
          24.170863199999999
        ]
      },
      "properties" : {
        "name" : "健康素食",
        "address" : "台中市北屯區東山路一段188-4號"
      }
    },
    {
      "type" : "Feature",
      "geometry" : {
        "type" : "Point",
        "coordinates" : [
          120.61955709999999,
          24.1703607
        ]
      },
      "properties" : {
        "name" : "有機園",
        "address" : "台中市西屯區安和路99-38號"
      }
    },
    {
      "type" : "Feature",
      "geometry" : {
        "type" : "Point",
        "coordinates" : [
          120.683398,
          24.131484
        ]
      },
      "properties" : {
        "name" : "仁德素食",
        "address" : "台中市南區信義南街372號"
      }
    },
    {
      "type" : "Feature",
      "geometry" : {
        "type" : "Point",
        "coordinates" : [
          120.708474,
          24.210207
        ]
      },
      "properties" : {
        "name" : "素食麵&黑糖剉冰小吃攤",
        "address" : "台中市潭子區光陽路108號"
      }
    },
    {
      "type" : "Feature",
      "geometry" : {
        "type" : "Point",
        "coordinates" : [
          120.577367,
          24.269587999999999
        ]
      },
      "properties" : {
        "name" : "素素窖臭臭鍋",
        "address" : "台中市清水區文昌街5號"
      }
    },
    {
      "type" : "Feature",
      "geometry" : {
        "type" : "Point",
        "coordinates" : [
          120.681579,
          24.154689999999999
        ]
      },
      "properties" : {
        "name" : "十方蔬食館",
        "address" : "台中市北區五義街130號"
      }
    },
    {
      "type" : "Feature",
      "geometry" : {
        "type" : "Point",
        "coordinates" : [
          120.65037700000001,
          24.220181
        ]
      },
      "properties" : {
        "name" : "天得素食",
        "address" : "台中市大雅區學府路144號"
      }
    },
    {
      "type" : "Feature",
      "geometry" : {
        "type" : "Point",
        "coordinates" : [
          120.710551,
          24.171991999999999
        ]
      },
      "properties" : {
        "name" : "緣素食",
        "address" : "台中市北屯區東山路一段197-27號"
      }
    },
    {
      "type" : "Feature",
      "geometry" : {
        "type" : "Point",
        "coordinates" : [
          120.710857,
          24.150352000000002
        ]
      },
      "properties" : {
        "name" : "素芝香素食鹽酥基",
        "address" : "台中市太平區樹德路16-7號"
      }
    },
    {
      "type" : "Feature",
      "geometry" : {
        "type" : "Point",
        "coordinates" : [
          120.668702,
          24.155570000000001
        ]
      },
      "properties" : {
        "name" : "蔬心圓素食",
        "address" : "台中市北區西屯路一段247號"
      }
    },
    {
      "type" : "Feature",
      "geometry" : {
        "type" : "Point",
        "coordinates" : [
          120.652798,
          24.159293000000002
        ]
      },
      "properties" : {
        "name" : "聚眾緣麵館",
        "address" : "台中市西屯區大墩二十街109號"
      }
    },
    {
      "type" : "Feature",
      "geometry" : {
        "type" : "Point",
        "coordinates" : [
          120.64986500000001,
          24.222826000000001
        ]
      },
      "properties" : {
        "name" : "如來素食",
        "address" : "台中市大雅區學府路244號"
      }
    },
    {
      "type" : "Feature",
      "geometry" : {
        "type" : "Point",
        "coordinates" : [
          120.8283381,
          24.256223299999998
        ]
      },
      "properties" : {
        "name" : "劉媽媽小吃店",
        "address" : "台中市東勢區東勢路569號"
      }
    },
    {
      "type" : "Feature",
      "geometry" : {
        "type" : "Point",
        "coordinates" : [
          120.651579,
          24.227741999999999
        ]
      },
      "properties" : {
        "name" : "台灣氧茶",
        "address" : "台中市大雅區民生路一段236號"
      }
    },
    {
      "type" : "Feature",
      "geometry" : {
        "type" : "Point",
        "coordinates" : [
          120.646036,
          24.179867999999999
        ]
      },
      "properties" : {
        "name" : "永明素食",
        "address" : "台中市西屯區逢甲路20巷28弄2號"
      }
    },
    {
      "type" : "Feature",
      "geometry" : {
        "type" : "Point",
        "coordinates" : [
          120.684022,
          24.147210999999999
        ]
      },
      "properties" : {
        "name" : "21臭豆腐",
        "address" : "台中市北區一中街21號"
      }
    },
    {
      "type" : "Feature",
      "geometry" : {
        "type" : "Point",
        "coordinates" : [
          120.687618,
          24.136189000000002
        ]
      },
      "properties" : {
        "name" : "蔬享樂素食滷味",
        "address" : "台中市東區復興路四段186號"
      }
    },
    {
      "type" : "Feature",
      "geometry" : {
        "type" : "Point",
        "coordinates" : [
          120.658432,
          24.23085
        ]
      },
      "properties" : {
        "name" : "順心素食館",
        "address" : "台中市大雅區民生路三段86號"
      }
    },
    {
      "type" : "Feature",
      "geometry" : {
        "type" : "Point",
        "coordinates" : [
          120.672578,
          24.175739
        ]
      },
      "properties" : {
        "name" : "古早味素食養生粥",
        "address" : "台中市北屯區大連路一段56號"
      }
    },
    {
      "type" : "Feature",
      "geometry" : {
        "type" : "Point",
        "coordinates" : [
          120.720568,
          24.177758999999998
        ]
      },
      "properties" : {
        "name" : "悅田食品",
        "address" : "台中市北屯區軍和街227巷22弄4號"
      }
    },
    {
      "type" : "Feature",
      "geometry" : {
        "type" : "Point",
        "coordinates" : [
          120.65803200000001,
          24.163170999999998
        ]
      },
      "properties" : {
        "name" : "魔豆手作社",
        "address" : "台中市西屯區漢口路二段22號"
      }
    },
    {
      "type" : "Feature",
      "geometry" : {
        "type" : "Point",
        "coordinates" : [
          120.659975,
          24.146166999999998
        ]
      },
      "properties" : {
        "name" : "秋町菇菇燒 手作小丸子",
        "address" : "台中市西區中美街155號"
      }
    },
    {
      "type" : "Feature",
      "geometry" : {
        "type" : "Point",
        "coordinates" : [
          120.675742,
          24.204025999999999
        ]
      },
      "properties" : {
        "name" : "慈因素食",
        "address" : "台中市潭子區大明一路55號"
      }
    },
    {
      "type" : "Feature",
      "geometry" : {
        "type" : "Point",
        "coordinates" : [
          120.677072,
          24.146937000000001
        ]
      },
      "properties" : {
        "name" : "天然素食",
        "address" : "台中市北區篤行路39號"
      }
    },
    {
      "type" : "Feature",
      "geometry" : {
        "type" : "Point",
        "coordinates" : [
          120.71873100000001,
          24.247924999999999
        ]
      },
      "properties" : {
        "name" : "素膳房 臭臭鍋 滷味",
        "address" : "台中市豐原區博愛街158號"
      }
    },
    {
      "type" : "Feature",
      "geometry" : {
        "type" : "Point",
        "coordinates" : [
          120.65705,
          24.136047999999999
        ]
      },
      "properties" : {
        "name" : "天慈素食",
        "address" : "台中市西區忠明南路384號"
      }
    },
    {
      "type" : "Feature",
      "geometry" : {
        "type" : "Point",
        "coordinates" : [
          120.6453346,
          24.177762699999999
        ]
      },
      "properties" : {
        "name" : "一心素食",
        "address" : "台中市西屯區福星路461巷2號"
      }
    },
    {
      "type" : "Feature",
      "geometry" : {
        "type" : "Point",
        "coordinates" : [
          120.53625390000001,
          24.2526148
        ]
      },
      "properties" : {
        "name" : "天然養生菇麵線",
        "address" : "台中市梧棲區民生街東建路口 農會全聯社右手邊"
      }
    },
    {
      "type" : "Feature",
      "geometry" : {
        "type" : "Point",
        "coordinates" : [
          120.625259,
          24.341794
        ]
      },
      "properties" : {
        "name" : "蔬菜盒子",
        "address" : "台中市大甲區南陽街27號"
      }
    },
    {
      "type" : "Feature",
      "geometry" : {
        "type" : "Point",
        "coordinates" : [
          120.686089,
          24.112745
        ]
      },
      "properties" : {
        "name" : "分享蔬食",
        "address" : "台中市大里區西榮路90號"
      }
    },
    {
      "type" : "Feature",
      "geometry" : {
        "type" : "Point",
        "coordinates" : [
          120.720778,
          24.118967000000001
        ]
      },
      "properties" : {
        "name" : "素食。堂",
        "address" : "台中市太平區長億路7號"
      }
    },
    {
      "type" : "Feature",
      "geometry" : {
        "type" : "Point",
        "coordinates" : [
          120.66622599999999,
          24.113918000000002
        ]
      },
      "properties" : {
        "name" : "老竹海苔飯捲",
        "address" : "台中市南區高工路326號"
      }
    },
    {
      "type" : "Feature",
      "geometry" : {
        "type" : "Point",
        "coordinates" : [
          120.648715,
          24.158089
        ]
      },
      "properties" : {
        "name" : "傳祥園",
        "address" : "台中市西屯區大容西街69號"
      }
    },
    {
      "type" : "Feature",
      "geometry" : {
        "type" : "Point",
        "coordinates" : [
          120.70408399999999,
          24.212781
        ]
      },
      "properties" : {
        "name" : "素珍齋人文素食館",
        "address" : "台中市潭子區中山路二段391巷21號"
      }
    },
    {
      "type" : "Feature",
      "geometry" : {
        "type" : "Point",
        "coordinates" : [
          120.67979099999999,
          24.158629000000001
        ]
      },
      "properties" : {
        "name" : "戴記獨臭之家臭豆腐專賣店",
        "address" : "台中市北區五常街167號"
      }
    },
    {
      "type" : "Feature",
      "geometry" : {
        "type" : "Point",
        "coordinates" : [
          120.656317,
          24.257746999999998
        ]
      },
      "properties" : {
        "name" : "美好素食",
        "address" : "台中市神岡區和睦路91號"
      }
    },
    {
      "type" : "Feature",
      "geometry" : {
        "type" : "Point",
        "coordinates" : [
          120.64101700000001,
          24.149096
        ]
      },
      "properties" : {
        "name" : "滴水坊",
        "address" : "台中市南屯區惠中路三段65號"
      }
    },
    {
      "type" : "Feature",
      "geometry" : {
        "type" : "Point",
        "coordinates" : [
          120.718441,
          24.247751999999998
        ]
      },
      "properties" : {
        "name" : "口味素食",
        "address" : "台中市豐原區博愛街174號"
      }
    },
    {
      "type" : "Feature",
      "geometry" : {
        "type" : "Point",
        "coordinates" : [
          120.692517,
          24.112089999999998
        ]
      },
      "properties" : {
        "name" : "洪菇炸菇洪姑炸菇",
        "address" : "台中市大里區新仁路二段186號"
      }
    },
    {
      "type" : "Feature",
      "geometry" : {
        "type" : "Point",
        "coordinates" : [
          120.649642,
          24.147516
        ]
      },
      "properties" : {
        "name" : "VegFarm 無國界蔬食餐廳",
        "address" : "台中市南屯區大墩路469號"
      }
    },
    {
      "type" : "Feature",
      "geometry" : {
        "type" : "Point",
        "coordinates" : [
          120.712265,
          24.152270999999999
        ]
      },
      "properties" : {
        "name" : "上品素食茶坊",
        "address" : "台中市太平區立德街40號"
      }
    },
    {
      "type" : "Feature",
      "geometry" : {
        "type" : "Point",
        "coordinates" : [
          120.67613900000001,
          24.142099000000002
        ]
      },
      "properties" : {
        "name" : "彰化明道素食",
        "address" : "台中市中區柳川西路三段8號"
      }
    },
    {
      "type" : "Feature",
      "geometry" : {
        "type" : "Point",
        "coordinates" : [
          120.725741,
          24.260362000000001
        ]
      },
      "properties" : {
        "name" : "素食滷味",
        "address" : "台中市豐原區圓環北路二段259號"
      }
    },
    {
      "type" : "Feature",
      "geometry" : {
        "type" : "Point",
        "coordinates" : [
          120.67659399999999,
          24.107060000000001
        ]
      },
      "properties" : {
        "name" : "Vima House 維摩舍",
        "address" : "台中市大里區永隆路153號"
      }
    },
    {
      "type" : "Feature",
      "geometry" : {
        "type" : "Point",
        "coordinates" : [
          120.67218,
          24.139002999999999
        ]
      },
      "properties" : {
        "name" : "建華素食",
        "address" : "台中市西區樂群街50-6號"
      }
    },
    {
      "type" : "Feature",
      "geometry" : {
        "type" : "Point",
        "coordinates" : [
          120.68614599999999,
          24.181560999999999
        ]
      },
      "properties" : {
        "name" : "忠義素食",
        "address" : "台中市北屯區中清路112-97號"
      }
    },
    {
      "type" : "Feature",
      "geometry" : {
        "type" : "Point",
        "coordinates" : [
          120.701454,
          24.096474000000001
        ]
      },
      "properties" : {
        "name" : "玖琻食堂 - 關東煮、拉麵",
        "address" : "台中市大里區善化路63號"
      }
    },
    {
      "type" : "Feature",
      "geometry" : {
        "type" : "Point",
        "coordinates" : [
          120.694525,
          24.171953999999999
        ]
      },
      "properties" : {
        "name" : "如是我聞韓式海苔飯捲",
        "address" : "台中市北屯區興安路一段246號"
      }
    },
    {
      "type" : "Feature",
      "geometry" : {
        "type" : "Point",
        "coordinates" : [
          120.68242600000001,
          24.158501999999999
        ]
      },
      "properties" : {
        "name" : "得來素蔬食連鎖餐飲",
        "address" : "台中市北區永興街6號"
      }
    },
    {
      "type" : "Feature",
      "geometry" : {
        "type" : "Point",
        "coordinates" : [
          120.684431,
          24.190769
        ]
      },
      "properties" : {
        "name" : "素食臭豆腐",
        "address" : "台中市北屯區昌平路二段43-16號"
      }
    },
    {
      "type" : "Feature",
      "geometry" : {
        "type" : "Point",
        "coordinates" : [
          120.66111600000001,
          24.172979000000002
        ]
      },
      "properties" : {
        "name" : "古早味養生素食",
        "address" : "台中市西屯區長安路二段11巷7號"
      }
    },
    {
      "type" : "Feature",
      "geometry" : {
        "type" : "Point",
        "coordinates" : [
          120.697142,
          24.182953999999999
        ]
      },
      "properties" : {
        "name" : "芬德角蔬食園",
        "address" : "台中市北屯區松竹路二段115號"
      }
    },
    {
      "type" : "Feature",
      "geometry" : {
        "type" : "Point",
        "coordinates" : [
          120.7168925,
          24.159981599999998
        ]
      },
      "properties" : {
        "name" : "宏騏素料批發商行",
        "address" : "台中市北屯區太順路8號"
      }
    },
    {
      "type" : "Feature",
      "geometry" : {
        "type" : "Point",
        "coordinates" : [
          120.634981,
          24.163758999999999
        ]
      },
      "properties" : {
        "name" : "空也蔬食",
        "address" : "台中市西屯區朝富五街10號"
      }
    },
    {
      "type" : "Feature",
      "geometry" : {
        "type" : "Point",
        "coordinates" : [
          120.68667499999999,
          24.108172
        ]
      },
      "properties" : {
        "name" : "澄鮮中西素食早餐店",
        "address" : "台中市大里區益民路二段52巷41號"
      }
    },
    {
      "type" : "Feature",
      "geometry" : {
        "type" : "Point",
        "coordinates" : [
          120.68848199999999,
          24.106877000000001
        ]
      },
      "properties" : {
        "name" : "天天素食自助餐",
        "address" : "台中市大里區大里路38-9號"
      }
    },
    {
      "type" : "Feature",
      "geometry" : {
        "type" : "Point",
        "coordinates" : [
          120.656567,
          24.150507000000001
        ]
      },
      "properties" : {
        "name" : "金桔健康養身蔬食",
        "address" : "台中市西區大忠街99號"
      }
    },
    {
      "type" : "Feature",
      "geometry" : {
        "type" : "Point",
        "coordinates" : [
          120.658348,
          24.116327999999999
        ]
      },
      "properties" : {
        "name" : "素芝鄉蔬食小館",
        "address" : "台中市南區工學北路167號"
      }
    },
    {
      "type" : "Feature",
      "geometry" : {
        "type" : "Point",
        "coordinates" : [
          120.655384,
          24.154073
        ]
      },
      "properties" : {
        "name" : "圓緣緣素食",
        "address" : "台中市西區精誠路39-8號"
      }
    },
    {
      "type" : "Feature",
      "geometry" : {
        "type" : "Point",
        "coordinates" : [
          120.70495320000001,
          24.1484326
        ]
      },
      "properties" : {
        "name" : "妙如蔬食早餐坊",
        "address" : "台中市太平區中山路四段106號"
      }
    },
    {
      "type" : "Feature",
      "geometry" : {
        "type" : "Point",
        "coordinates" : [
          120.637638,
          24.216898
        ]
      },
      "properties" : {
        "name" : "歡喜佛素食餐館",
        "address" : "台中市大雅區永和路118-38號"
      }
    },
    {
      "type" : "Feature",
      "geometry" : {
        "type" : "Point",
        "coordinates" : [
          120.681748,
          24.130721000000001
        ]
      },
      "properties" : {
        "name" : "慈懋素食館",
        "address" : "台中市南區合作街13巷9號"
      }
    },
    {
      "type" : "Feature",
      "geometry" : {
        "type" : "Point",
        "coordinates" : [
          120.65947199999999,
          24.113052
        ]
      },
      "properties" : {
        "name" : "來來餐館",
        "address" : "台中市南區高工路100號"
      }
    },
    {
      "type" : "Feature",
      "geometry" : {
        "type" : "Point",
        "coordinates" : [
          120.726201,
          24.245532000000001
        ]
      },
      "properties" : {
        "name" : "菩慧素食快餐",
        "address" : "台中市豐原區南陽路309號"
      }
    },
    {
      "type" : "Feature",
      "geometry" : {
        "type" : "Point",
        "coordinates" : [
          120.673542,
          24.125813999999998
        ]
      },
      "properties" : {
        "name" : "小潛艇素食養生創意料理",
        "address" : "台中市南區永和一街41號"
      }
    },
    {
      "type" : "Feature",
      "geometry" : {
        "type" : "Point",
        "coordinates" : [
          120.65349399999999,
          24.222275
        ]
      },
      "properties" : {
        "name" : "草根蔬食滷味燙",
        "address" : "台中市大雅區雅環路一段273號"
      }
    },
    {
      "type" : "Feature",
      "geometry" : {
        "type" : "Point",
        "coordinates" : [
          120.62203700000001,
          24.147773000000001
        ]
      },
      "properties" : {
        "name" : "天恩素食餐廳",
        "address" : "台中市南屯區環中路四段2號"
      }
    },
    {
      "type" : "Feature",
      "geometry" : {
        "type" : "Point",
        "coordinates" : [
          120.697434,
          24.194244000000001
        ]
      },
      "properties" : {
        "name" : "祈鴻齋素食",
        "address" : "台中市潭子區頭張路二段29號"
      }
    },
    {
      "type" : "Feature",
      "geometry" : {
        "type" : "Point",
        "coordinates" : [
          120.640907,
          24.150341999999998
        ]
      },
      "properties" : {
        "name" : "Homie蔬適咖啡廳",
        "address" : "台中市西屯區惠中路三段17號"
      }
    },
    {
      "type" : "Feature",
      "geometry" : {
        "type" : "Point",
        "coordinates" : [
          120.662677,
          24.152207000000001
        ]
      },
      "properties" : {
        "name" : "Vege Creek 蔬河 ",
        "address" : "台中市西區美村路一段117巷23號"
      }
    },
    {
      "type" : "Feature",
      "geometry" : {
        "type" : "Point",
        "coordinates" : [
          120.706779,
          24.205753000000001
        ]
      },
      "properties" : {
        "name" : "筱龍素食館",
        "address" : "台中市潭子區復興路一段192號"
      }
    },
    {
      "type" : "Feature",
      "geometry" : {
        "type" : "Point",
        "coordinates" : [
          120.7157654,
          24.182552600000001
        ]
      },
      "properties" : {
        "name" : "慧素食",
        "address" : "台中市北屯區松竹路一段145巷23號"
      }
    },
    {
      "type" : "Feature",
      "geometry" : {
        "type" : "Point",
        "coordinates" : [
          120.67323500000001,
          24.139446
        ]
      },
      "properties" : {
        "name" : "隨g素食小吃店",
        "address" : "台中市西區四維街93號"
      }
    },
    {
      "type" : "Feature",
      "geometry" : {
        "type" : "Point",
        "coordinates" : [
          120.720026,
          24.120964000000001
        ]
      },
      "properties" : {
        "name" : "中興素食自助餐",
        "address" : "台中市太平區太平路213-3號"
      }
    },
    {
      "type" : "Feature",
      "geometry" : {
        "type" : "Point",
        "coordinates" : [
          120.66634999999999,
          24.170829000000001
        ]
      },
      "properties" : {
        "name" : "有機田生活坊",
        "address" : "台中市西屯區華美西街二段321號"
      }
    },
    {
      "type" : "Feature",
      "geometry" : {
        "type" : "Point",
        "coordinates" : [
          120.53640900000001,
          23.184170999999999
        ]
      },
      "properties" : {
        "name" : "黃翠玉師姊",
        "address" : "台中市大里區內新市場內"
      }
    },
    {
      "type" : "Feature",
      "geometry" : {
        "type" : "Point",
        "coordinates" : [
          120.703824,
          24.169712000000001
        ]
      },
      "properties" : {
        "name" : "青居素食",
        "address" : "台中市北屯區東山路一段141號"
      }
    },
    {
      "type" : "Feature",
      "geometry" : {
        "type" : "Point",
        "coordinates" : [
          120.690967,
          24.176665
        ]
      },
      "properties" : {
        "name" : "來來素食店",
        "address" : "台中市北屯區崇德二路一段273號"
      }
    },
    {
      "type" : "Feature",
      "geometry" : {
        "type" : "Point",
        "coordinates" : [
          120.662817,
          24.130334999999999
        ]
      },
      "properties" : {
        "name" : "裕佳素食中心",
        "address" : "台中市西區三民西路190號"
      }
    },
    {
      "type" : "Feature",
      "geometry" : {
        "type" : "Point",
        "coordinates" : [
          120.683876,
          24.147976
        ]
      },
      "properties" : {
        "name" : "東海素食",
        "address" : "台中市北區太平路81號"
      }
    },
    {
      "type" : "Feature",
      "geometry" : {
        "type" : "Point",
        "coordinates" : [
          120.68906699999999,
          24.131032000000001
        ]
      },
      "properties" : {
        "name" : "鼎高段素食館",
        "address" : "台中市東區建成路709號"
      }
    },
    {
      "type" : "Feature",
      "geometry" : {
        "type" : "Point",
        "coordinates" : [
          120.67981399999999,
          24.146336000000002
        ]
      },
      "properties" : {
        "name" : "杜記 菜根香素食鹹酥雞",
        "address" : "台中市中區大誠街79號"
      }
    },
    {
      "type" : "Feature",
      "geometry" : {
        "type" : "Point",
        "coordinates" : [
          120.67944439999999,
          24.143978199999999
        ]
      },
      "properties" : {
        "name" : "素食麵攤",
        "address" : "台中市中區臺灣大道一段403巷"
      }
    },
    {
      "type" : "Feature",
      "geometry" : {
        "type" : "Point",
        "coordinates" : [
          120.66665,
          24.184975000000001
        ]
      },
      "properties" : {
        "name" : "黑皮尼斯手工烘培坊",
        "address" : "台中市北屯區陳平路41號"
      }
    },
    {
      "type" : "Feature",
      "geometry" : {
        "type" : "Point",
        "coordinates" : [
          120.577203,
          24.269977999999998
        ]
      },
      "properties" : {
        "name" : "美益健康養生膳品",
        "address" : "台中市清水區新興路79號"
      }
    },
    {
      "type" : "Feature",
      "geometry" : {
        "type" : "Point",
        "coordinates" : [
          120.82930399999999,
          24.254784000000001
        ]
      },
      "properties" : {
        "name" : "口口鮮",
        "address" : "台中市東勢區豐勢路343號"
      }
    },
    {
      "type" : "Feature",
      "geometry" : {
        "type" : "Point",
        "coordinates" : [
          120.71849,
          24.247806000000001
        ]
      },
      "properties" : {
        "name" : "素芬芳素食",
        "address" : "台中市豐原區博愛街170號"
      }
    },
    {
      "type" : "Feature",
      "geometry" : {
        "type" : "Point",
        "coordinates" : [
          120.69728600000001,
          24.064627999999999
        ]
      },
      "properties" : {
        "name" : "三元素香麵",
        "address" : "台中市霧峰區樹仁路1號"
      }
    },
    {
      "type" : "Feature",
      "geometry" : {
        "type" : "Point",
        "coordinates" : [
          120.681117,
          24.136679000000001
        ]
      },
      "properties" : {
        "name" : "中興素食-自助餐",
        "address" : "台中市中區民權路47號"
      }
    },
    {
      "type" : "Feature",
      "geometry" : {
        "type" : "Point",
        "coordinates" : [
          120.681325,
          24.12041
        ]
      },
      "properties" : {
        "name" : "素食水煎包 煎餃",
        "address" : "台中市南區南門路59巷65弄6號"
      }
    },
    {
      "type" : "Feature",
      "geometry" : {
        "type" : "Point",
        "coordinates" : [
          120.63996299999999,
          24.133316000000001
        ]
      },
      "properties" : {
        "name" : "金環豆花素食店",
        "address" : "台中市南屯區文心南三路841號"
      }
    },
    {
      "type" : "Feature",
      "geometry" : {
        "type" : "Point",
        "coordinates" : [
          120.65239269999999,
          24.1763771
        ]
      },
      "properties" : {
        "name" : "禾河田素齋",
        "address" : "台中市西屯區河南路二段540號"
      }
    },
    {
      "type" : "Feature",
      "geometry" : {
        "type" : "Point",
        "coordinates" : [
          120.67447199999999,
          24.155566
        ]
      },
      "properties" : {
        "name" : "誠蓮素食",
        "address" : "台中市北區英才路213號"
      }
    },
    {
      "type" : "Feature",
      "geometry" : {
        "type" : "Point",
        "coordinates" : [
          120.584067,
          24.181560000000001
        ]
      },
      "properties" : {
        "name" : "廣達素食自助餐",
        "address" : "台中市龍井區遊園南路201號"
      }
    },
    {
      "type" : "Feature",
      "geometry" : {
        "type" : "Point",
        "coordinates" : [
          120.691103,
          24.176641
        ]
      },
      "properties" : {
        "name" : "野蔬蔬食丼飯串燒炸物",
        "address" : "台中市北屯區崇德二路一段267號"
      }
    },
    {
      "type" : "Feature",
      "geometry" : {
        "type" : "Point",
        "coordinates" : [
          120.82790900000001,
          24.257964000000001
        ]
      },
      "properties" : {
        "name" : "蔬食海苔飯捲",
        "address" : "台中市東勢區豐勢路489號"
      }
    },
    {
      "type" : "Feature",
      "geometry" : {
        "type" : "Point",
        "coordinates" : [
          120.82530629999999,
          24.164457299999999
        ]
      },
      "properties" : {
        "name" : "小喬流水",
        "address" : "台中市新社區中興街208-2號"
      }
    },
    {
      "type" : "Feature",
      "geometry" : {
        "type" : "Point",
        "coordinates" : [
          120.723361,
          24.175978000000001
        ]
      },
      "properties" : {
        "name" : "大慈天然素食堂",
        "address" : "台中市北屯區東山路一段328號"
      }
    },
    {
      "type" : "Feature",
      "geometry" : {
        "type" : "Point",
        "coordinates" : [
          120.82745799999999,
          24.259999000000001
        ]
      },
      "properties" : {
        "name" : "吉祥素食客家風",
        "address" : "台中市東勢區勢林街251號"
      }
    },
    {
      "type" : "Feature",
      "geometry" : {
        "type" : "Point",
        "coordinates" : [
          120.662496,
          24.171799
        ]
      },
      "properties" : {
        "name" : "俊美鳳梨酥專賣店",
        "address" : "台中市西屯區文心路三段380號"
      }
    },
    {
      "type" : "Feature",
      "geometry" : {
        "type" : "Point",
        "coordinates" : [
          120.8054149,
          24.195343000000001
        ]
      },
      "properties" : {
        "name" : "五柳莊－健康素食養生館",
        "address" : "台中市新社區協中街85號"
      }
    },
    {
      "type" : "Feature",
      "geometry" : {
        "type" : "Point",
        "coordinates" : [
          120.713078,
          24.077144000000001
        ]
      },
      "properties" : {
        "name" : "天慈素食",
        "address" : "台中市霧峰區吉峰路154-2號"
      }
    },
    {
      "type" : "Feature",
      "geometry" : {
        "type" : "Point",
        "coordinates" : [
          120.6717846,
          24.1386696
        ]
      },
      "properties" : {
        "name" : "素食",
        "address" : "台中市西區樂群街56-5號"
      }
    },
    {
      "type" : "Feature",
      "geometry" : {
        "type" : "Point",
        "coordinates" : [
          120.71636599999999,
          24.132373000000001
        ]
      },
      "properties" : {
        "name" : "天恩素食自助餐",
        "address" : "台中市太平區新平路1段179號"
      }
    },
    {
      "type" : "Feature",
      "geometry" : {
        "type" : "Point",
        "coordinates" : [
          120.66705,
          24.177350000000001
        ]
      },
      "properties" : {
        "name" : "食植蔬食",
        "address" : "台中市西屯區長安路二段339號"
      }
    },
    {
      "type" : "Feature",
      "geometry" : {
        "type" : "Point",
        "coordinates" : [
          120.663234,
          24.134170000000001
        ]
      },
      "properties" : {
        "name" : "香草園法式蔬食餐廳",
        "address" : "台中市西區五權西三街111號"
      }
    },
    {
      "type" : "Feature",
      "geometry" : {
        "type" : "Point",
        "coordinates" : [
          120.699324,
          24.170099
        ]
      },
      "properties" : {
        "name" : "慈恩素食館",
        "address" : "台中市北屯區東山路一段381-34號"
      }
    },
    {
      "type" : "Feature",
      "geometry" : {
        "type" : "Point",
        "coordinates" : [
          120.704257,
          24.106784999999999
        ]
      },
      "properties" : {
        "name" : "立心蔬食堂",
        "address" : "台中市大里區立仁路143號"
      }
    },
    {
      "type" : "Feature",
      "geometry" : {
        "type" : "Point",
        "coordinates" : [
          120.68633699999999,
          24.168104
        ]
      },
      "properties" : {
        "name" : "映茶創意茶蔬料理",
        "address" : "台中市北屯區青島路四段28號"
      }
    },
    {
      "type" : "Feature",
      "geometry" : {
        "type" : "Point",
        "coordinates" : [
          120.69113900000001,
          24.172905
        ]
      },
      "properties" : {
        "name" : "方德素食",
        "address" : "台中市北屯區瀋陽路三段191號"
      }
    },
    {
      "type" : "Feature",
      "geometry" : {
        "type" : "Point",
        "coordinates" : [
          120.657089,
          24.149910999999999
        ]
      },
      "properties" : {
        "name" : "饗四季 - 蔬食自助餐",
        "address" : "台中市西區忠明南路160號"
      }
    },
    {
      "type" : "Feature",
      "geometry" : {
        "type" : "Point",
        "coordinates" : [
          120.652541,
          24.135753000000001
        ]
      },
      "properties" : {
        "name" : "雀珍素食",
        "address" : "台中市南屯區南屯路二段93號"
      }
    },
    {
      "type" : "Feature",
      "geometry" : {
        "type" : "Point",
        "coordinates" : [
          120.690473,
          24.178937000000001
        ]
      },
      "properties" : {
        "name" : "蓮薌素食",
        "address" : "台中市北屯區昌平路二段5-2號"
      }
    },
    {
      "type" : "Feature",
      "geometry" : {
        "type" : "Point",
        "coordinates" : [
          120.65538599999999,
          24.157748000000002
        ]
      },
      "properties" : {
        "name" : "清蔬 - Fresh Choice",
        "address" : "台中市西屯區東興路三段384號"
      }
    },
    {
      "type" : "Feature",
      "geometry" : {
        "type" : "Point",
        "coordinates" : [
          120.653409,
          24.114070000000002
        ]
      },
      "properties" : {
        "name" : "菩提素食館",
        "address" : "台中市南區大慶街二段2號"
      }
    },
    {
      "type" : "Feature",
      "geometry" : {
        "type" : "Point",
        "coordinates" : [
          120.692936,
          24.184253999999999
        ]
      },
      "properties" : {
        "name" : "林媽媽手工素食坊",
        "address" : "台中市北屯區松竹路二段306巷46弄34號"
      }
    },
    {
      "type" : "Feature",
      "geometry" : {
        "type" : "Point",
        "coordinates" : [
          120.728995,
          24.246085999999998
        ]
      },
      "properties" : {
        "name" : "香的味雞蛋糕",
        "address" : "台中市豐原區豐東路36號"
      }
    },
    {
      "type" : "Feature",
      "geometry" : {
        "type" : "Point",
        "coordinates" : [
          120.650164,
          24.135390000000001
        ]
      },
      "properties" : {
        "name" : "布佬廚房 ",
        "address" : "台中市南屯區大墩南路468號"
      }
    },
    {
      "type" : "Feature",
      "geometry" : {
        "type" : "Point",
        "coordinates" : [
          120.705322,
          24.219114000000001
        ]
      },
      "properties" : {
        "name" : "德馨餅行",
        "address" : "台中市潭子區中山路二段605巷26號"
      }
    },
    {
      "type" : "Feature",
      "geometry" : {
        "type" : "Point",
        "coordinates" : [
          120.63215839999999,
          24.155483100000001
        ]
      },
      "properties" : {
        "name" : "大發素食館",
        "address" : "台中市南屯區干城街145巷7弄25號"
      }
    },
    {
      "type" : "Feature",
      "geometry" : {
        "type" : "Point",
        "coordinates" : [
          120.72956600000001,
          24.174074999999998
        ]
      },
      "properties" : {
        "name" : "雲馨 - 蔬食茶饌",
        "address" : "台中市北屯區軍福十五路20號"
      }
    },
    {
      "type" : "Feature",
      "geometry" : {
        "type" : "Point",
        "coordinates" : [
          120.69928950000001,
          24.1371796
        ]
      },
      "properties" : {
        "name" : "素早點",
        "address" : "台中市東區旱溪西路一段300號"
      }
    },
    {
      "type" : "Feature",
      "geometry" : {
        "type" : "Point",
        "coordinates" : [
          120.69915899999999,
          24.096278999999999
        ]
      },
      "properties" : {
        "name" : "修緣素食",
        "address" : "台中市大里區仁化路557號"
      }
    },
    {
      "type" : "Feature",
      "geometry" : {
        "type" : "Point",
        "coordinates" : [
          120.719314,
          24.176026
        ]
      },
      "properties" : {
        "name" : "江哥健康輕食",
        "address" : "台中市北屯區軍功路二段2號"
      }
    },
    {
      "type" : "Feature",
      "geometry" : {
        "type" : "Point",
        "coordinates" : [
          120.72565849999999,
          24.137856800000002
        ]
      },
      "properties" : {
        "name" : "健康素食早點",
        "address" : "台中市太平區中和街289號"
      }
    },
    {
      "type" : "Feature",
      "geometry" : {
        "type" : "Point",
        "coordinates" : [
          120.625968,
          24.349053000000001
        ]
      },
      "properties" : {
        "name" : "得來素蔬食連鎖餐飲",
        "address" : "台中市大甲區順天路355-1號"
      }
    },
    {
      "type" : "Feature",
      "geometry" : {
        "type" : "Point",
        "coordinates" : [
          120.678426,
          24.176631
        ]
      },
      "properties" : {
        "name" : "玖玖複合式養生素食料理",
        "address" : "台中市北屯區大連路一段196號"
      }
    },
    {
      "type" : "Feature",
      "geometry" : {
        "type" : "Point",
        "coordinates" : [
          120.699828,
          24.106016
        ]
      },
      "properties" : {
        "name" : "C1希望素食",
        "address" : "台中市大里區立新街326號"
      }
    },
    {
      "type" : "Feature",
      "geometry" : {
        "type" : "Point",
        "coordinates" : [
          120.701893,
          24.051966
        ]
      },
      "properties" : {
        "name" : "菩提坊",
        "address" : "台中市霧峰區仁德巷7號"
      }
    },